city,city_ascii,lat,lng,country,iso2,iso3,admin_name,capital,population,id
Algiers,Algiers,36.7539,3.0589,Algeria,DZ,DZA,Alger,primary,3415811.0,1012973369
Constantine,Constantine,36.35,6.6,Algeria,DZ,DZA,Constantine,admin,465138.0,1012275076
Batna,Batna,35.55,6.1667,Algeria,DZ,DZA,Batna,admin,290645.0,1012093229
Sétif,Setif,36.19,5.41,Algeria,DZ,DZA,Sétif,admin,288461.0,1012981116
Djelfa,Djelfa,34.6667,3.25,Algeria,DZ,DZA,Djelfa,admin,265833.0,1012268984
Annaba,Annaba,36.9,7.7667,Algeria,DZ,DZA,Annaba,admin,257359.0,1012600001
Sidi Aïssa,Sidi Aissa,36.5,4.2978,Algeria,DZ,DZA,M’sila,,215000.0,1012091250
Sidi Bel Abbès,Sidi Bel Abbes,35.1939,-0.6414,Algeria,DZ,DZA,Sidi Bel Abbès,admin,212935.0,1012123414
Biskra,Biskra,34.85,5.7333,Algeria,DZ,DZA,Biskra,admin,204661.0,1012947247
Tébessa,Tebessa,35.4,8.1167,Algeria,DZ,DZA,Tébessa,admin,194461.0,1012196375
Ouargla,Ouargla,31.95,5.3167,Algeria,DZ,DZA,Ouargla,admin,191136.0,1012425687
El Khroub,El Khroub,36.2667,6.7,Algeria,DZ,DZA,Constantine,,179033.0,1012245786
Tiaret,Tiaret,35.3667,1.3167,Algeria,DZ,DZA,Tiaret,admin,178915.0,1012785868
Bejaïa,Bejaia,36.7511,5.0642,Algeria,DZ,DZA,Bejaïa,admin,176139.0,1012140298
Tlemcen,Tlemcen,34.8828,-1.3167,Algeria,DZ,DZA,Tlemcen,admin,173531.0,1012978325
Bir el Djir,Bir el Djir,35.7367,-0.5542,Algeria,DZ,DZA,Oran,,171883.0,1012283284
Bordj Bou Arreridj,Bordj Bou Arreridj,36.0667,4.7667,Algeria,DZ,DZA,Bordj Bou Arréridj,admin,168346.0,1012016677
Béchar,Bechar,31.6167,-2.2167,Algeria,DZ,DZA,Béchar,admin,165627.0,1012371820
Blida,Blida,36.4686,2.8319,Algeria,DZ,DZA,Blida,admin,163586.0,1012045589
Skikda,Skikda,36.8667,6.9,Algeria,DZ,DZA,Skikda,admin,163318.0,1012619903
Souk Ahras,Souk Ahras,36.2864,7.9511,Algeria,DZ,DZA,Souk Ahras,admin,155259.0,1012419619
Chlef,Chlef,36.1647,1.3317,Algeria,DZ,DZA,Chlef,admin,155134.0,1012772239
El Eulma,El Eulma,36.15,5.6833,Algeria,DZ,DZA,Sétif,,155038.0,1012292620
Bordj el Kiffan,Bordj el Kiffan,36.7375,3.1931,Algeria,DZ,DZA,Alger,,151950.0,1012186125
Mostaganem,Mostaganem,35.9333,0.0833,Algeria,DZ,DZA,Mostaganem,admin,145696.0,1012061703
Touggourt,Touggourt,33.1,6.0667,Algeria,DZ,DZA,Touggourt,admin,143270.0,1012546670
Médéa,Medea,36.2675,2.75,Algeria,DZ,DZA,Médéa,admin,138355.0,1012758282
Tizi Ouzou,Tizi Ouzou,36.7167,4.05,Algeria,DZ,DZA,Tizi Ouzou,admin,135088.0,1012126997
El Oued,El Oued,33.3611,6.8606,Algeria,DZ,DZA,El Oued,admin,134699.0,1012148937
Laghouat,Laghouat,33.8028,2.875,Algeria,DZ,DZA,Laghouat,admin,134372.0,1012233848
M’Sila,M'Sila,35.7019,4.5472,Algeria,DZ,DZA,M’sila,admin,132975.0,1012857730
Jijel,Jijel,36.8167,5.75,Algeria,DZ,DZA,Jijel,admin,131513.0,1012782547
Relizane,Relizane,35.7333,0.55,Algeria,DZ,DZA,Relizane,admin,130094.0,1012939885
Saïda,Saida,34.8333,0.15,Algeria,DZ,DZA,Saïda,admin,128413.0,1012285874
Baraki,Baraki,36.6667,3.1,Algeria,DZ,DZA,Tipaza,,123101.0,1012987490
Guelma,Guelma,36.45,7.4333,Algeria,DZ,DZA,Guelma,admin,120004.0,1012266321
Ghardaïa,Ghardaia,32.4833,3.6667,Algeria,DZ,DZA,Ghardaïa,admin,120000.0,1012074690
Aïn Beïda,Ain Beida,35.7833,7.3833,Algeria,DZ,DZA,Oum el Bouaghi,,116064.0,1012021090
Maghnia,Maghnia,34.8617,-1.7306,Algeria,DZ,DZA,Tlemcen,,114634.0,1012582356
Bou Saada,Bou Saada,36.7667,4.5833,Algeria,DZ,DZA,Tizi Ouzou,,111787.0,1012263841
Bou Saâda,Bou Saada,35.2083,4.1739,Algeria,DZ,DZA,M’sila,,111787.0,1012931222
Mascara,Mascara,35.4,0.1333,Algeria,DZ,DZA,Mascara,admin,108587.0,1012738269
Khenchela,Khenchela,35.4167,7.1333,Algeria,DZ,DZA,Khenchela,admin,108580.0,1012495148
Barika,Barika,35.3972,5.3658,Algeria,DZ,DZA,Batna,,104388.0,1012917898
Messaad,Messaad,34.1667,3.5,Algeria,DZ,DZA,Djelfa,,102453.0,1012278908
Aflou,Aflou,34.1089,2.1019,Algeria,DZ,DZA,Laghouat,,102025.0,1012904117
Aïn Oussera,Ain Oussera,35.4489,2.9044,Algeria,DZ,DZA,Djelfa,,101239.0,1012469007
Oran,Oran,35.6969,-0.6331,Algeria,DZ,DZA,Oran,admin,101009.0,1012126319
Es Senia,Es Senia,35.65,-0.6333,Algeria,DZ,DZA,Oran,,96928.0,1012779789
Bab Ezzouar,Bab Ezzouar,36.7217,3.1853,Algeria,DZ,DZA,Alger,,96597.0,1012318854
Tamanrasset,Tamanrasset,22.7889,5.5256,Algeria,DZ,DZA,Tamanrasset,admin,92635.0,1012765474
Arzew,Arzew,35.85,-0.3167,Algeria,DZ,DZA,Oran,,91400.0,1012954906
Aïn M’Lila,Ain M'Lila,36.0361,6.5708,Algeria,DZ,DZA,Oum el Bouaghi,,88441.0,1012438002
Hassi Bahbah,Hassi Bahbah,35.0667,3.0333,Algeria,DZ,DZA,Djelfa,,86421.0,1012120396
El Bayadh,El Bayadh,33.6803,1.0203,Algeria,DZ,DZA,El Bayadh,admin,85577.0,1012906892
Mohammadia,Mohammadia,35.5833,0.0667,Algeria,DZ,DZA,Mascara,,84700.0,1012169657
Khemis Miliana,Khemis Miliana,36.2667,2.2167,Algeria,DZ,DZA,Aïn Defla,,84574.0,1012116292
El Milia,El Milia,36.75,6.2667,Algeria,DZ,DZA,Jijel,,83931.0,1012706826
Hamma Bouziane,Hamma Bouziane,36.5333,6.7167,Algeria,DZ,DZA,Constantine,,83603.0,1012233499
Chelghoum el Aïd,Chelghoum el Aid,36.1667,6.1667,Algeria,DZ,DZA,Mila,,82560.0,1012048079
Dar el Beïda,Dar el Beida,36.7142,3.2125,Algeria,DZ,DZA,Alger,,81509.0,1012987727
Oum el Bouaghi,Oum el Bouaghi,35.8775,7.1136,Algeria,DZ,DZA,Oum el Bouaghi,admin,80359.0,1012958880
Sougueur,Sougueur,35.1833,1.5,Algeria,DZ,DZA,Tiaret,,78956.0,1012177947
Taher,Taher,36.7719,5.8983,Algeria,DZ,DZA,Jijel,,78500.0,1012984908
Birkhadem,Birkhadem,36.7167,3.05,Algeria,DZ,DZA,Alger,,77749.0,1012246970
Bir el Ater,Bir el Ater,34.7497,8.0578,Algeria,DZ,DZA,Tébessa,,77727.0,1012519828
Khemis el Khechna,Khemis el Khechna,36.65,3.3306,Algeria,DZ,DZA,Boumerdes,,76474.0,1012679229
Merouana,Merouana,35.6333,5.9167,Algeria,DZ,DZA,Batna,,76000.0,1012051214
Aïn Temouchent,Ain Temouchent,35.3,-1.1333,Algeria,DZ,DZA,Aïn Temouchent,admin,75558.0,1012763655
Cheria,Cheria,35.2667,7.75,Algeria,DZ,DZA,Tébessa,,75344.0,1012061422
Tissemsilt,Tissemsilt,35.6078,1.8111,Algeria,DZ,DZA,Tissemsilt,admin,75197.0,1012743339
Aïn Oulmene,Ain Oulmene,35.9167,5.3,Algeria,DZ,DZA,Sétif,,73831.0,1012233825
Sig,Sig,35.5278,-0.1861,Algeria,DZ,DZA,Mascara,,70499.0,1012835736
Mila,Mila,36.4503,6.2644,Algeria,DZ,DZA,Mila,admin,69052.0,1012656063
Bouira,Bouira,36.38,3.9014,Algeria,DZ,DZA,Bouira,admin,68545.0,1012006499
Adrar,Adrar,27.8667,-0.2833,Algeria,DZ,DZA,Adrar,admin,68276.0,1012462113
Ksar el Boukhari,Ksar el Boukhari,35.8856,2.7508,Algeria,DZ,DZA,Médéa,,67813.0,1012049446
Reghaïa,Reghaia,36.7631,3.3426,Algeria,DZ,DZA,Boumerdes,,66215.0,1012395908
Aïn Defla,Ain Defla,36.2652,1.9703,Algeria,DZ,DZA,Aïn Defla,admin,65453.0,1012656497
Hadjout,Hadjout,36.5167,2.4167,Algeria,DZ,DZA,Tipaza,,65300.0,1012513171
Mecheria,Mecheria,33.55,-0.2833,Algeria,DZ,DZA,Naama,,65043.0,1012958256
Bordj Menaïel,Bordj Menaiel,36.7417,3.7231,Algeria,DZ,DZA,Boumerdes,,64820.0,1012287430
Oued Rhiou,Oued Rhiou,35.9667,0.9167,Algeria,DZ,DZA,Relizane,,64685.0,1012709307
Assi Bou Nif,Assi Bou Nif,35.7,-0.5,Algeria,DZ,DZA,Oran,,63581.0,1012237560
Ouled Djellal,Ouled Djellal,34.4167,5.0667,Algeria,DZ,DZA,Ouled Djellal,admin,63237.0,1012109892
Tighenif,Tighenif,35.4167,0.3333,Algeria,DZ,DZA,Mascara,,62210.0,1012981905
Rouiba,Rouiba,36.7333,3.2833,Algeria,DZ,DZA,Alger,,61984.0,1012334934
Kolea,Kolea,36.6406,2.765,Algeria,DZ,DZA,Tipaza,,61643.0,1012411140
Berrouaghia,Berrouaghia,36.1333,2.9167,Algeria,DZ,DZA,Médéa,,60152.0,1012339303
Baba Hassen,Baba Hassen,36.7,2.9667,Algeria,DZ,DZA,Tipaza,,60000.0,1012238161
Meskiana,Meskiana,35.6333,7.6667,Algeria,DZ,DZA,Oum el Bouaghi,,60000.0,1012831860
Aïn Touta,Ain Touta,35.3833,5.9,Algeria,DZ,DZA,Batna,,59904.0,1012215632
Lakhdaria,Lakhdaria,36.5622,3.5944,Algeria,DZ,DZA,Bouira,,59746.0,1012284313
Sidi ech Chahmi,Sidi ech Chahmi,35.6667,-0.5167,Algeria,DZ,DZA,Oran,,58857.0,1012772133
Rouissat,Rouissat,31.9167,5.35,Algeria,DZ,DZA,Ouargla,,58112.0,1012081202
El Attaf,El Attaf,36.2167,1.6667,Algeria,DZ,DZA,Aïn Defla,,57737.0,1012991793
Boufarik,Boufarik,36.5706,2.9108,Algeria,DZ,DZA,Blida,,57162.0,1012512259
Azzaba,Azzaba,36.7333,7.1,Algeria,DZ,DZA,Skikda,,56922.0,1012969588
Boudouaou,Boudouaou,36.73,3.41,Algeria,DZ,DZA,Boumerdes,,56398.0,1012554481
Oulad Yaïch,Oulad Yaich,36.5039,2.8619,Algeria,DZ,DZA,Blida,,55719.0,1012941592
Morsott,Morsott,35.6667,8.0167,Algeria,DZ,DZA,Tébessa,,54332.0,1012039493
Frenda,Frenda,35.0667,1.05,Algeria,DZ,DZA,Tiaret,,54162.0,1012914604
Ksar Chellala,Ksar Chellala,35.2167,2.3167,Algeria,DZ,DZA,Tiaret,,52753.0,1012797029
Ouenza,Ouenza,35.95,8.1333,Algeria,DZ,DZA,Tébessa,,52737.0,1012834497
Aïn Sefra,Ain Sefra,32.75,-0.5833,Algeria,DZ,DZA,Naama,,52320.0,1012884513
Akbou,Akbou,36.4667,4.5333,Algeria,DZ,DZA,Bejaïa,,52282.0,1012950888
Zeralda,Zeralda,36.7167,2.85,Algeria,DZ,DZA,Tipaza,,51552.0,1012208562
Râs el Oued,Ras el Oued,35.9497,5.0358,Algeria,DZ,DZA,Bordj Bou Arréridj,,51482.0,1012473490
Boukadir,Boukadir,36.0667,1.1333,Algeria,DZ,DZA,Chlef,,51340.0,1012118948
’Aïn Merane,'Ain Merane,36.1628,0.9706,Algeria,DZ,DZA,Relizane,,51326.0,1012000026
Tamalous,Tamalous,36.8361,6.6417,Algeria,DZ,DZA,Skikda,,51262.0,1012674952
Djamaa,Djamaa,33.5333,6.0,Algeria,DZ,DZA,Ouargla,,50916.0,1012061882
Sour el Ghozlane,Sour el Ghozlane,36.1472,3.6906,Algeria,DZ,DZA,Bouira,,50120.0,1012741522
Saoula,Saoula,36.7,3.0167,Algeria,DZ,DZA,Tipaza,,50000.0,1012956738
’Aïn el Turk,'Ain el Turk,35.7408,-0.7492,Algeria,DZ,DZA,Oran,,50000.0,1012709372
El Meghaïer,El Meghaier,33.9506,5.9242,Algeria,DZ,DZA,El Meghaier,admin,49793.0,1012153214
Fouka,Fouka,36.6667,2.75,Algeria,DZ,DZA,Tipaza,,48959.0,1012976923
Telerghma,Telerghma,36.1167,6.3667,Algeria,DZ,DZA,Mila,,48846.0,1012849109
Aïn Fakroun,Ain Fakroun,35.9667,6.8667,Algeria,DZ,DZA,Oum el Bouaghi,,48804.0,1012447723
’Aïn Azel,'Ain Azel,35.8433,5.5219,Algeria,DZ,DZA,Sétif,,48487.0,1012746080
Chetouane,Chetouane,34.9203,-1.2897,Algeria,DZ,DZA,Tlemcen,,47600.0,1012349422
Oued Sly,Oued Sly,36.1,1.2,Algeria,DZ,DZA,Chlef,,47248.0,1012718816
Douera,Douera,36.6667,2.95,Algeria,DZ,DZA,Tipaza,,46266.0,1012994531
Ouled Moussa,Ouled Moussa,36.6831,3.3681,Algeria,DZ,DZA,Boumerdes,,45770.0,1012623458
Tindouf,Tindouf,27.6753,-8.1286,Algeria,DZ,DZA,Tindouf,admin,45610.0,1012450434
Hassi Messaoud,Hassi Messaoud,31.7,6.0667,Algeria,DZ,DZA,Ouargla,,45147.0,1012339655
Miliana,Miliana,36.3,2.2333,Algeria,DZ,DZA,Aïn Defla,,44201.0,1012568888
Beni Saf,Beni Saf,35.3,-1.3833,Algeria,DZ,DZA,Aïn Temouchent,,43802.0,1012336917
’Aïn Arnat,'Ain Arnat,36.1833,5.3167,Algeria,DZ,DZA,Sétif,,43551.0,1012453452
El Affroun,El Affroun,36.4667,2.6333,Algeria,DZ,DZA,Tipaza,,42627.0,1012059890
Tadjenanet,Tadjenanet,36.1167,5.9833,Algeria,DZ,DZA,Mila,,41833.0,1012498855
Oued Fodda,Oued Fodda,36.1833,1.5333,Algeria,DZ,DZA,Chlef,,41710.0,1012406529
Boumerdes,Boumerdes,36.7603,3.4724,Algeria,DZ,DZA,Boumerdes,admin,41685.0,1012627486
Meftah,Meftah,36.6167,3.2333,Algeria,DZ,DZA,Blida,,40878.0,1012473985
Sidi Moussa,Sidi Moussa,36.6056,3.0886,Algeria,DZ,DZA,Blida,,40750.0,1012303678
Metlili Chaamba,Metlili Chaamba,32.2728,3.6275,Algeria,DZ,DZA,Ghardaïa,,40576.0,1012787469
Reguiba,Reguiba,33.5667,6.7167,Algeria,DZ,DZA,El Oued,,40367.0,1012783196
El Golea,El Golea,30.5833,2.8833,Algeria,DZ,DZA,El Meniaa,admin,40195.0,1012834851
Sebdou,Sebdou,34.6333,-1.3333,Algeria,DZ,DZA,Tlemcen,,39800.0,1012554285
’Aïn el Melh,'Ain el Melh,34.8483,4.1611,Algeria,DZ,DZA,M’sila,,39798.0,1012240027
Magra,Magra,35.6,5.0667,Algeria,DZ,DZA,M’sila,,39250.0,1012279924
Guemar,Guemar,33.5,6.8333,Algeria,DZ,DZA,El Oued,,39168.0,1012578171
Sidi Khaled,Sidi Khaled,34.3833,4.9833,Algeria,DZ,DZA,Biskra,,38987.0,1012596640
Staoueli,Staoueli,36.75,2.8833,Algeria,DZ,DZA,Tipaza,,38915.0,1012512809
Draa el Mizan,Draa el Mizan,36.5333,3.8333,Algeria,DZ,DZA,Bouira,,38886.0,1012563094
Aïn Tedeles,Ain Tedeles,35.9947,0.2956,Algeria,DZ,DZA,Mostaganem,,38823.0,1012889794
Emîr Abdelkader,Emir Abdelkader,36.75,5.8333,Algeria,DZ,DZA,Jijel,,38468.0,1012035727
Bougara,Bougara,36.5333,3.0833,Algeria,DZ,DZA,Blida,,38352.0,1012764987
Souma,Souma,36.5183,2.9053,Algeria,DZ,DZA,Blida,,37461.0,1012378735
Ouled Beni Messous,Ouled Beni Messous,36.7833,2.9833,Algeria,DZ,DZA,Tipaza,,36191.0,1012795548
Oued Athmenia,Oued Athmenia,36.2497,6.2861,Algeria,DZ,DZA,Mila,,35934.0,1012654093
Collo,Collo,37.0056,6.5603,Algeria,DZ,DZA,Skikda,,35682.0,1012936173
Ténès,Tenes,36.5122,1.3044,Algeria,DZ,DZA,Chlef,,35459.0,1012665490
Bou Noura,Bou Noura,32.4825,3.7036,Algeria,DZ,DZA,Ghardaïa,,35405.0,1012965378
Hammam Bou Hadjar,Hammam Bou Hadjar,35.3792,-0.9706,Algeria,DZ,DZA,Aïn Temouchent,,35158.0,1012045550
Kherrata,Kherrata,36.5,5.2833,Algeria,DZ,DZA,Bejaïa,,35077.0,1012346925
Tebesbest,Tebesbest,33.1167,6.0833,Algeria,DZ,DZA,Ouargla,,35032.0,1012539349
Ouled Fares,Ouled Fares,36.2667,1.1833,Algeria,DZ,DZA,Chlef,,34891.0,1012973905
Hammam Dalaa,Hammam Dalaa,35.9281,4.3744,Algeria,DZ,DZA,M’sila,,34785.0,1012891613
Azazga,Azazga,36.7453,4.3711,Algeria,DZ,DZA,Tizi Ouzou,,34683.0,1012087552
Sidi Lakhdar,Sidi Lakhdar,36.1428,0.4606,Algeria,DZ,DZA,Mostaganem,,34612.0,1012307929
Aïn Taya,Ain Taya,36.7917,3.2889,Algeria,DZ,DZA,Alger,,34501.0,1012199705
Cherchell,Cherchell,36.6075,2.19,Algeria,DZ,DZA,Tipaza,,34372.0,1012114128
Takhemaret,Takhemaret,35.1072,0.6833,Algeria,DZ,DZA,Tiaret,,34124.0,1012236307
Oued el Alleug,Oued el Alleug,36.55,2.7833,Algeria,DZ,DZA,Tipaza,,33915.0,1012058750
Selmane,Selmane,35.6833,4.7833,Algeria,DZ,DZA,M’sila,,33851.0,1012696148
Beni Tamou,Beni Tamou,36.5333,2.8167,Algeria,DZ,DZA,Blida,,33846.0,1012892793
Beni Slimane,Beni Slimane,36.227,3.306,Algeria,DZ,DZA,Médéa,,33779.0,1012480319
Ghazaouet,Ghazaouet,35.1,-1.85,Algeria,DZ,DZA,Tlemcen,,33774.0,1012991522
Sidi Okba,Sidi Okba,34.75,5.9,Algeria,DZ,DZA,Biskra,,33509.0,1012679426
Didouche Mourad,Didouche Mourad,36.45,6.6333,Algeria,DZ,DZA,Constantine,,33266.0,1012151355
El Arrouch,El Arrouch,36.6531,6.8364,Algeria,DZ,DZA,Skikda,,33085.0,1012919019
Timimoun,Timimoun,29.2628,-0.2389,Algeria,DZ,DZA,Timimoun,admin,33060.0,1012351010
‘Aïn el Hadjel,`Ain el Hadjel,35.6739,3.8817,Algeria,DZ,DZA,M’sila,,33046.0,1012857642
Dellys,Dellys,36.9133,3.9141,Algeria,DZ,DZA,Boumerdes,,32954.0,1012717910
Oued Zenati,Oued Zenati,36.3167,7.1667,Algeria,DZ,DZA,Guelma,,32870.0,1012842486
Aïn el Bya,Ain el Bya,35.8167,-0.2833,Algeria,DZ,DZA,Oran,,32611.0,1012529219
Arris,Arris,35.25,6.35,Algeria,DZ,DZA,Batna,,32597.0,1012721037
Aïn Bessem,Ain Bessem,36.2967,3.67,Algeria,DZ,DZA,Bouira,,32548.0,1012193122
I-n-Salah,I-n-Salah,27.195,2.4833,Algeria,DZ,DZA,In Salah,admin,32518.0,1012201146
Nedroma,Nedroma,35.0,-1.7333,Algeria,DZ,DZA,Tlemcen,,32398.0,1012681931
El Abiodh Sidi Cheikh,El Abiodh Sidi Cheikh,32.8986,0.5444,Algeria,DZ,DZA,El Bayadh,,32300.0,1012150808
Bougaa,Bougaa,36.3333,5.0833,Algeria,DZ,DZA,Sétif,,31922.0,1012194391
Sidi Ali,Sidi Ali,36.1047,0.4233,Algeria,DZ,DZA,Mostaganem,,31840.0,1012014168
Remchi,Remchi,35.0667,-1.4333,Algeria,DZ,DZA,Tlemcen,,31837.0,1012363094
Hassi Khelifa,Hassi Khelifa,33.5622,6.9903,Algeria,DZ,DZA,El Oued,,31784.0,1012173486
’Aïn Abid,'Ain Abid,36.2325,6.944,Algeria,DZ,DZA,Constantine,,31743.0,1012017837
Draa Ben Khedda,Draa Ben Khedda,36.7333,3.9667,Algeria,DZ,DZA,Boumerdes,,31382.0,1012011041
Boghni,Boghni,36.55,3.95,Algeria,DZ,DZA,Tizi Ouzou,,31263.0,1012740129
Birtouta,Birtouta,36.65,3.0,Algeria,DZ,DZA,Tipaza,,30575.0,1012396756
Aïn Kercha,Ain Kercha,35.9167,6.7,Algeria,DZ,DZA,Oum el Bouaghi,,30575.0,1012437320
Chabet el Ameur,Chabet el Ameur,36.6333,3.7,Algeria,DZ,DZA,Boumerdes,,30223.0,1012744058
Berriane,Berriane,32.8333,3.7667,Algeria,DZ,DZA,Ghardaïa,,30200.0,1012230257
Djendel,Djendel,36.2186,2.4089,Algeria,DZ,DZA,Aïn Defla,,30170.0,1012033376
Zemoura,Zemoura,35.7167,0.75,Algeria,DZ,DZA,Relizane,,30027.0,1012949910
El Idrissia,El Idrissia,34.45,2.5333,Algeria,DZ,DZA,Djelfa,,29856.0,1012211028
El Kseur,El Kseur,36.6844,4.8522,Algeria,DZ,DZA,Bejaïa,,29842.0,1012893043
N’Gaous,N'Gaous,35.555,5.6106,Algeria,DZ,DZA,Batna,,29504.0,1012978553
Tizi Gheniff,Tizi Gheniff,36.5833,3.7667,Algeria,DZ,DZA,Boumerdes,,29409.0,1012794312
L’Arbaa Naït Irathen,L'Arbaa Nait Irathen,36.6367,4.2067,Algeria,DZ,DZA,Tizi Ouzou,,29376.0,1012117061
Sendjas,Sendjas,36.0667,1.4,Algeria,DZ,DZA,Chlef,,29043.0,1012568424
Ouled Haddaj,Ouled Haddaj,36.72,3.35,Algeria,DZ,DZA,Boumerdes,,29012.0,1012233665
Ahmer el ’Aïn,Ahmer el 'Ain,36.4781,2.5639,Algeria,DZ,DZA,Tipaza,,29000.0,1012730539
Timizart,Timizart,36.8,4.2667,Algeria,DZ,DZA,Tizi Ouzou,,28996.0,1012767619
Ammi Moussa,Ammi Moussa,35.8667,1.1167,Algeria,DZ,DZA,Relizane,,28962.0,1012840754
Tazmalt,Tazmalt,36.3844,4.3992,Algeria,DZ,DZA,Bouira,,28891.0,1012721096
Zighout Youcef,Zighout Youcef,36.5333,6.7167,Algeria,DZ,DZA,Constantine,,28764.0,1012501273
Sabra,Sabra,34.8333,-1.5333,Algeria,DZ,DZA,Tlemcen,,28555.0,1012379084
Mouzaïa,Mouzaia,36.4667,2.6833,Algeria,DZ,DZA,Tipaza,,28552.0,1012765520
Ouled Ben Abd el Kader,Ouled Ben Abd el Kader,36.0258,1.2764,Algeria,DZ,DZA,Chlef,,28430.0,1012953542
Sidi Lakhdar,Sidi Lakhdar,36.2653,2.1617,Algeria,DZ,DZA,Aïn Defla,,28361.0,1012726637
Tablat,Tablat,36.4167,3.3167,Algeria,DZ,DZA,Médéa,,28276.0,1012099896
Babar,Babar,35.1692,7.1013,Algeria,DZ,DZA,Khenchela,,28182.0,1012018384
Isser,Isser,36.716,3.666,Algeria,DZ,DZA,Boumerdes,,27990.0,1012146120
Sfizef,Sfizef,35.2333,-0.25,Algeria,DZ,DZA,Sidi Bel Abbès,,27914.0,1012972071
Bordj el Bahri,Bordj el Bahri,36.8167,3.2333,Algeria,DZ,DZA,Alger,,27900.0,1012412055
Theniet el Had,Theniet el Had,35.8708,2.0289,Algeria,DZ,DZA,Aïn Defla,,27628.0,1012655109
Ouled Fayet,Ouled Fayet,36.7333,2.95,Algeria,DZ,DZA,Tipaza,,27593.0,1012847769
Taougrite,Taougrite,36.25,0.9167,Algeria,DZ,DZA,Chlef,,27574.0,1012273060
Ouled Slama Tahta,Ouled Slama Tahta,36.5483,3.11,Algeria,DZ,DZA,Blida,,27573.0,1012959119
Tazoult-Lambese,Tazoult-Lambese,35.49,6.26,Algeria,DZ,DZA,Batna,,27493.0,1012689775
El Abadia,El Abadia,36.2667,1.6833,Algeria,DZ,DZA,Aïn Defla,,27185.0,1012403916
Barbacha,Barbacha,36.5667,4.9667,Algeria,DZ,DZA,Bejaïa,,27000.0,1012449268
Bouguirat,Bouguirat,35.7508,0.2556,Algeria,DZ,DZA,Mostaganem,,26954.0,1012888164
Feidh el Botma,Feidh el Botma,34.5278,3.7819,Algeria,DZ,DZA,Djelfa,,26857.0,1012198534
Birine,Birine,35.6333,3.2167,Algeria,DZ,DZA,Djelfa,,26670.0,1012961734
Dar Chioukh,Dar Chioukh,34.9,3.4833,Algeria,DZ,DZA,Djelfa,,26605.0,1012182141
Sidi Akkacha,Sidi Akkacha,36.4667,1.3,Algeria,DZ,DZA,Chlef,,26595.0,1012980047
Zeboudja,Zeboudja,36.35,1.4333,Algeria,DZ,DZA,Chlef,,26539.0,1012391189
Hennaya,Hennaya,34.95,-1.3667,Algeria,DZ,DZA,Tlemcen,,26515.0,1012561024
Zemmouri,Zemmouri,36.7833,3.6,Algeria,DZ,DZA,Boumerdes,,26408.0,1012115297
Ouled Mimoun,Ouled Mimoun,34.9,-1.0333,Algeria,DZ,DZA,Tlemcen,,26389.0,1012363552
Kaous,Kaous,36.7702,5.8136,Algeria,DZ,DZA,Jijel,,26137.0,1012869984
Ouled Rahmoun,Ouled Rahmoun,36.1803,6.705,Algeria,DZ,DZA,Constantine,,26132.0,1012120761
Misserghin,Misserghin,35.6167,-0.7333,Algeria,DZ,DZA,Oran,,26100.0,1012705533
Chellalat el Adhaouara,Chellalat el Adhaouara,35.9403,3.4139,Algeria,DZ,DZA,Médéa,,26077.0,1012329347
El Hadjar,El Hadjar,36.8,7.7333,Algeria,DZ,DZA,Annaba,,26060.0,1012495144
Foughala,Foughala,34.7167,5.3167,Algeria,DZ,DZA,Biskra,,25645.0,1012886441
El Tarf,El Tarf,36.767,8.317,Algeria,DZ,DZA,El Tarf,admin,25594.0,1012205687
Menaceur,Menaceur,36.492,2.2208,Algeria,DZ,DZA,Tipaza,,25480.0,1012903347
Rouached,Rouached,36.4583,6.0397,Algeria,DZ,DZA,Mila,,25399.0,1012806548
Tipasa,Tipasa,36.5919,2.4494,Algeria,DZ,DZA,Tipaza,admin,25225.0,1012866308
Chekfa,Chekfa,36.7667,5.9667,Algeria,DZ,DZA,Jijel,,25187.0,1012620075
Debila,Debila,33.5064,6.9381,Algeria,DZ,DZA,El Oued,,25158.0,1012224257
El Karimia,El Karimia,36.1167,1.55,Algeria,DZ,DZA,Chlef,,25060.0,1012816413
Télagh,Telagh,34.7833,-0.5667,Algeria,DZ,DZA,Sidi Bel Abbès,,24594.0,1012464593
Aïn Kechera,Ain Kechera,36.7483,6.4325,Algeria,DZ,DZA,Skikda,,24572.0,1012670696
’Aïn Boucif,'Ain Boucif,35.8912,3.1585,Algeria,DZ,DZA,Médéa,,24434.0,1012875475
Tadjmout,Tadjmout,33.8667,2.5167,Algeria,DZ,DZA,Laghouat,,24320.0,1012533662
Mekla,Mekla,36.6833,4.2667,Algeria,DZ,DZA,Tizi Ouzou,,24237.0,1012384530
Freha,Freha,36.75,4.3167,Algeria,DZ,DZA,Tizi Ouzou,,24228.0,1012372550
Douar Bou Tlelis,Douar Bou Tlelis,35.573,-0.9,Algeria,DZ,DZA,Oran,,23920.0,1012670068
Ksar el Hirane,Ksar el Hirane,33.7833,3.15,Algeria,DZ,DZA,Laghouat,,23841.0,1012639478
Beni Amrane,Beni Amrane,36.6667,3.5833,Algeria,DZ,DZA,Boumerdes,,23621.0,1012420167
Berhoum,Berhoum,35.65,5.0333,Algeria,DZ,DZA,M’sila,,23620.0,1012036999
Khelil,Khelil,36.1756,5.0292,Algeria,DZ,DZA,Bordj Bou Arréridj,,23537.0,1012421543
Oued el Djemaa,Oued el Djemaa,35.7972,0.6814,Algeria,DZ,DZA,Relizane,,23480.0,1012676002
Beni Rached,Beni Rached,36.2806,1.5161,Algeria,DZ,DZA,Chlef,,23449.0,1012344039
Makouda,Makouda,36.7833,4.0667,Algeria,DZ,DZA,Boumerdes,,23388.0,1012786926
Bordj Ghdir,Bordj Ghdir,35.9,4.89,Algeria,DZ,DZA,Bordj Bou Arréridj,,23289.0,1012287793
Tadmaït,Tadmait,36.75,3.9,Algeria,DZ,DZA,Boumerdes,,22838.0,1012245949
Amoucha,Amoucha,36.3833,5.4167,Algeria,DZ,DZA,Sétif,,22767.0,1012766595
Bouzeghaia,Bouzeghaia,36.3333,1.25,Algeria,DZ,DZA,Chlef,,22590.0,1012465082
El Amria,El Amria,35.5333,-1.0167,Algeria,DZ,DZA,Aïn Temouchent,,22572.0,1012142201
Naciria,Naciria,36.75,3.8333,Algeria,DZ,DZA,Boumerdes,,22431.0,1012065880
Mechta Ouled Oulha,Mechta Ouled Oulha,35.6706,4.8778,Algeria,DZ,DZA,M’sila,,22369.0,1012235648
Kadiria,Kadiria,36.5333,3.6833,Algeria,DZ,DZA,Bouira,,22327.0,1012278992
Had Sahary,Had Sahary,35.3517,3.3608,Algeria,DZ,DZA,Djelfa,,22277.0,1012260250
Souahlia,Souahlia,35.0333,-1.8833,Algeria,DZ,DZA,Tlemcen,,22245.0,1012244161
Kheïredine,Kheiredine,35.9806,0.1681,Algeria,DZ,DZA,Mostaganem,,22241.0,1012833469
Ghriss,Ghriss,35.25,0.1667,Algeria,DZ,DZA,Mascara,,22151.0,1012428063
Bourkika,Bourkika,36.5,2.4833,Algeria,DZ,DZA,Tipaza,,22118.0,1012333996
Djinet,Djinet,36.8833,3.7167,Algeria,DZ,DZA,Boumerdes,,21966.0,1012989318
Robbah,Robbah,33.2811,6.9108,Algeria,DZ,DZA,El Oued,,21965.0,1012452718
Sayada,Sayada,35.95,0.1333,Algeria,DZ,DZA,Mostaganem,,21900.0,1012091747
Hassi Maameche,Hassi Maameche,35.8611,0.725,Algeria,DZ,DZA,Mostaganem,,21778.0,1012261877
Sidi Amrane,Sidi Amrane,33.5,6.0167,Algeria,DZ,DZA,Ouargla,,21772.0,1012838935
Sirat,Sirat,35.78,0.1919,Algeria,DZ,DZA,Mostaganem,,21677.0,1012574636
M’Chedallah,M'Chedallah,36.3667,4.2667,Algeria,DZ,DZA,Bouira,,21593.0,1012963260
Beni Douala,Beni Douala,36.6167,4.0833,Algeria,DZ,DZA,Tizi Ouzou,,21551.0,1012742443
Chebli,Chebli,36.5778,3.0083,Algeria,DZ,DZA,Blida,,21506.0,1012610923
Beni Mered,Beni Mered,36.5233,2.8617,Algeria,DZ,DZA,Blida,,21457.0,1012069606
Thenia,Thenia,36.7278,3.5539,Algeria,DZ,DZA,Boumerdes,,21439.0,1012908635
Lioua,Lioua,34.6375,5.3958,Algeria,DZ,DZA,Biskra,,21416.0,1012582927
Oum Drou,Oum Drou,36.2,1.3833,Algeria,DZ,DZA,Chlef,,21326.0,1012021528
Mansourah,Mansourah,36.0819,4.46,Algeria,DZ,DZA,Bordj Bou Arréridj,,21280.0,1012763485
Oued el Aneb,Oued el Aneb,36.8833,7.4833,Algeria,DZ,DZA,Annaba,,21088.0,1012241698
Tizi-n-Bechar,Tizi-n-Bechar,36.4311,5.36,Algeria,DZ,DZA,Bejaïa,,21086.0,1012925118
Sidi Lahssen,Sidi Lahssen,35.1633,-0.6958,Algeria,DZ,DZA,Sidi Bel Abbès,,20999.0,1012904397
Bordj Bounaama,Bordj Bounaama,35.85,1.6167,Algeria,DZ,DZA,Tissemsilt,,20864.0,1012176268
Beni Haoua,Beni Haoua,36.5333,1.5667,Algeria,DZ,DZA,Chlef,,20853.0,1012438035
El Hammadia,El Hammadia,35.9833,4.75,Algeria,DZ,DZA,Bordj Bou Arréridj,,20635.0,1012053807
Sour,Sour,36.0006,0.3414,Algeria,DZ,DZA,Mostaganem,,20625.0,1012308440
Aomar,Aomar,36.5,3.7667,Algeria,DZ,DZA,Bouira,,20532.0,1012376964
’Aïn el Bell,'Ain el Bell,34.35,3.2167,Algeria,DZ,DZA,Djelfa,,20436.0,1012893320
Reggane,Reggane,26.7203,0.1728,Algeria,DZ,DZA,Adrar,,20402.0,1012709576
’Aïn el Hammam,'Ain el Hammam,36.5714,4.3097,Algeria,DZ,DZA,Tizi Ouzou,,20401.0,1012595495
Tala Yfassene,Tala Yfassene,36.4583,5.0889,Algeria,DZ,DZA,Sétif,,20337.0,1012098651
Taïbet,Taibet,33.0833,6.3833,Algeria,DZ,DZA,Ouargla,,20174.0,1012688196
Abou el Hassan,Abou el Hassan,36.4167,1.2,Algeria,DZ,DZA,Chlef,,20164.0,1012585371
El Ancer,El Ancer,36.8,6.1667,Algeria,DZ,DZA,Jijel,,20070.0,1012048717
Temacine,Temacine,33.0219,6.0228,Algeria,DZ,DZA,Ouargla,,20067.0,1012215688
Mesra,Mesra,35.8333,0.1667,Algeria,DZ,DZA,Mostaganem,,20053.0,1012434328
Sidi Merouane,Sidi Merouane,36.5333,1.3333,Algeria,DZ,DZA,Chlef,,20018.0,1012829158
’Aïn Mabed,'Ain Mabed,34.8,3.1333,Algeria,DZ,DZA,Djelfa,,19997.0,1012464210
Merad,Merad,36.4667,2.4333,Algeria,DZ,DZA,Tipaza,,19916.0,1012048423
Rechaïga,Rechaiga,35.4081,1.9733,Algeria,DZ,DZA,Tiaret,,19830.0,1012559066
Bir Kasdali,Bir Kasdali,36.15,5.0333,Algeria,DZ,DZA,Bordj Bou Arréridj,,19622.0,1012664243
Arbaoun,Arbaoun,36.4667,5.65,Algeria,DZ,DZA,Sétif,,19383.0,1012971347
Charef,Charef,34.6167,2.8,Algeria,DZ,DZA,Djelfa,,19373.0,1012363446
Arbatache,Arbatache,36.6361,3.3708,Algeria,DZ,DZA,Boumerdes,,19356.0,1012866473
Oued el Abtal,Oued el Abtal,35.45,0.6833,Algeria,DZ,DZA,Mascara,,19184.0,1012385314
Tirmitine,Tirmitine,36.6618,3.9848,Algeria,DZ,DZA,Tizi Ouzou,,19027.0,1012932001
El Malah,El Malah,35.3883,-1.0944,Algeria,DZ,DZA,Aïn Temouchent,,18944.0,1012733766
Zahana,Zahana,35.5167,-0.4167,Algeria,DZ,DZA,Oran,,18839.0,1012966405
Ben ’Aknoûn,Ben 'Aknoun,36.75,3.0,Algeria,DZ,DZA,Tipaza,,18838.0,1012888050
Medjedel,Medjedel,35.15,3.6833,Algeria,DZ,DZA,M’sila,,18616.0,1012112929
Timoktene,Timoktene,27.0217,1.015,Algeria,DZ,DZA,Adrar,,18598.0,1012254407
Bougtob,Bougtob,34.0425,0.0892,Algeria,DZ,DZA,El Bayadh,,18568.0,1012574155
Bettioua,Bettioua,35.8,-0.2667,Algeria,DZ,DZA,Oran,,18215.0,1012337546
El Achir,El Achir,36.0667,4.6333,Algeria,DZ,DZA,Bordj Bou Arréridj,,18149.0,1012237984
Maoussa,Maoussa,35.3833,0.25,Algeria,DZ,DZA,Mascara,,18104.0,1012947518
Ben Daoud,Ben Daoud,35.7192,0.5203,Algeria,DZ,DZA,Relizane,,17953.0,1012893353
El Bordj,El Bordj,35.5158,0.3017,Algeria,DZ,DZA,Mascara,,17874.0,1012417700
Sidi Kada,Sidi Kada,35.3333,0.35,Algeria,DZ,DZA,Mascara,,17843.0,1012415719
Herenfa,Herenfa,36.2453,1.0458,Algeria,DZ,DZA,Chlef,,17799.0,1012061214
Beni Fouda,Beni Fouda,36.2861,5.6072,Algeria,DZ,DZA,Sétif,,17667.0,1012660842
El Omaria,El Omaria,36.2667,3.0333,Algeria,DZ,DZA,Médéa,,17661.0,1012262894
Fornaka,Fornaka,35.7517,-0.0161,Algeria,DZ,DZA,Mostaganem,,17647.0,1012695232
Sigus,Sigus,36.1167,6.7833,Algeria,DZ,DZA,Oum el Bouaghi,,17598.0,1012523818
Oued el Kheïr,Oued el Kheir,35.9503,0.3808,Algeria,DZ,DZA,Mostaganem,,17359.0,1012682433
Aïn Zaouïa,Ain Zaouia,36.55,3.8944,Algeria,DZ,DZA,Tizi Ouzou,,17320.0,1012695288
El Kouif,El Kouif,35.5,8.3167,Algeria,DZ,DZA,Tébessa,,17319.0,1012983282
Illizi,Illizi,26.505,8.4822,Algeria,DZ,DZA,Illizi,admin,17252.0,1012499058
Souaflia,Souaflia,35.85,0.3333,Algeria,DZ,DZA,Mostaganem,,17223.0,1012205882
Tizi Rached,Tizi Rached,36.6667,4.1833,Algeria,DZ,DZA,Tizi Ouzou,,17161.0,1012966884
Damous,Damous,36.55,1.7,Algeria,DZ,DZA,Chlef,,17111.0,1012315038
Bou Hanifia el Hamamat,Bou Hanifia el Hamamat,35.3167,-0.05,Algeria,DZ,DZA,Mascara,,16953.0,1012486609
Mers el Kebir,Mers el Kebir,35.7286,-0.7069,Algeria,DZ,DZA,Oran,,16950.0,1012308660
Sidi Daoud,Sidi Daoud,36.85,3.85,Algeria,DZ,DZA,Boumerdes,,16900.0,1012618002
Ighram,Ighram,36.4667,4.5167,Algeria,DZ,DZA,Tizi Ouzou,,16878.0,1012221855
Azeffoun,Azeffoun,36.9,4.4167,Algeria,DZ,DZA,Tizi Ouzou,,16847.0,1012290725
Aïn Feka,Ain Feka,35.4333,3.5833,Algeria,DZ,DZA,Djelfa,,16842.0,1012964896
’Aïn Abessa,'Ain Abessa,36.3,5.295,Algeria,DZ,DZA,Sétif,,16770.0,1012074116
Djouab,Djouab,36.1333,3.4333,Algeria,DZ,DZA,Médéa,,16751.0,1012121953
N’Goussa,N'Goussa,32.1408,5.3083,Algeria,DZ,DZA,Ouargla,,16581.0,1012414156
Tichi,Tichi,36.6667,5.1667,Algeria,DZ,DZA,Bejaïa,,16546.0,1012798792
Bordj Mokhtar,Bordj Mokhtar,21.3289,0.9542,Algeria,DZ,DZA,Bordj Badji Mokhtar,admin,16437.0,1012945794
Bou Hadjar,Bou Hadjar,36.5031,8.1053,Algeria,DZ,DZA,El Tarf,,16385.0,1012263583
Ouled Chebel,Ouled Chebel,36.6,3.0,Algeria,DZ,DZA,Blida,,16335.0,1012832805
Berriche,Berriche,35.9167,7.3833,Algeria,DZ,DZA,Oum el Bouaghi,,16274.0,1012630462
Naama,Naama,33.2622,-0.3144,Algeria,DZ,DZA,Naama,admin,16251.0,1012850542
Chorfa,Chorfa,36.3617,4.3308,Algeria,DZ,DZA,Bouira,,16173.0,1012035343
’Aïn Babouche,'Ain Babouche,35.9411,7.1856,Algeria,DZ,DZA,Oum el Bouaghi,,16129.0,1012030735
Medjana,Medjana,36.1333,4.6667,Algeria,DZ,DZA,Bordj Bou Arréridj,,16112.0,1012693898
El Ach,El Ach,35.95,4.6833,Algeria,DZ,DZA,Bordj Bou Arréridj,,16108.0,1012000004
Mecheraa Asfa,Mecheraa Asfa,35.3839,1.0533,Algeria,DZ,DZA,Tiaret,,16077.0,1012631861
Ouamri,Ouamri,36.2333,2.5667,Algeria,DZ,DZA,Aïn Defla,,15978.0,1012075283
Baghlia,Baghlia,36.8167,3.85,Algeria,DZ,DZA,Boumerdes,,15854.0,1012210217
Hammam M’Baïls,Hammam M'Bails,36.3258,7.6436,Algeria,DZ,DZA,Guelma,,15854.0,1012561885
Hadjadj,Hadjadj,36.1,0.3333,Algeria,DZ,DZA,Mostaganem,,15835.0,1012873431
Ouadhia,Ouadhia,36.55,4.0833,Algeria,DZ,DZA,Tizi Ouzou,,15771.0,1012312650
’Aïn el Arbaa,'Ain el Arbaa,35.4075,-0.8817,Algeria,DZ,DZA,Aïn Temouchent,,15683.0,1012550182
Boudjima,Boudjima,36.8,4.15,Algeria,DZ,DZA,Tizi Ouzou,,15628.0,1012379618
Mouiat Ouennsa,Mouiat Ouennsa,33.1969,6.7053,Algeria,DZ,DZA,El Oued,,15593.0,1012194512
Souagui,Souagui,36.1167,3.2333,Algeria,DZ,DZA,Médéa,,15536.0,1012702872
Ebn Ziad,Ebn Ziad,36.3833,6.4667,Algeria,DZ,DZA,Constantine,,15514.0,1012050199
Ain el Hadid,Ain el Hadid,35.0581,0.8833,Algeria,DZ,DZA,Tiaret,,15482.0,1012173360
Tizi-n-Tleta,Tizi-n-Tleta,36.5457,4.0571,Algeria,DZ,DZA,Tizi Ouzou,,15479.0,1012925920
Guerouma,Guerouma,36.4833,3.4333,Algeria,DZ,DZA,Bouira,,15306.0,1012937235
Medrissa,Medrissa,34.9,1.2333,Algeria,DZ,DZA,Tiaret,,15293.0,1012957867
Sidi Ghiles,Sidi Ghiles,36.5833,2.1167,Algeria,DZ,DZA,Tipaza,,15281.0,1012310782
Chemini,Chemini,36.6,4.6167,Algeria,DZ,DZA,Tizi Ouzou,,15274.0,1012371014
Boumahra Ahmed,Boumahra Ahmed,36.45,7.5167,Algeria,DZ,DZA,Guelma,,15273.0,1012503879
Es Sebt,Es Sebt,36.6624,7.0774,Algeria,DZ,DZA,Skikda,,15266.0,1012719955
Melouza,Melouza,35.9808,4.1861,Algeria,DZ,DZA,Bordj Bou Arréridj,,15190.0,1012633174
Mazagran,Mazagran,35.9019,0.7269,Algeria,DZ,DZA,Mostaganem,,15120.0,1012333313
Belkheir,Belkheir,36.4667,7.4833,Algeria,DZ,DZA,Guelma,,14979.0,1012094424
Bouchegouf,Bouchegouf,36.4667,7.4833,Algeria,DZ,DZA,Guelma,,14979.0,1012850453
Texenna,Texenna,36.65,5.7833,Algeria,DZ,DZA,Jijel,,14974.0,1012088200
El Hadjira,El Hadjira,32.6167,5.5167,Algeria,DZ,DZA,Ouargla,,14965.0,1012333168
Tsabit,Tsabit,28.3503,-0.2208,Algeria,DZ,DZA,Adrar,,14895.0,1012512451
Harchoune,Harchoune,36.1139,1.5056,Algeria,DZ,DZA,Chlef,,14869.0,1012500238
Oulad Dahmane,Oulad Dahmane,36.3667,3.4667,Algeria,DZ,DZA,Médéa,,14777.0,1012179843
El Ateuf,El Ateuf,32.4775,3.7478,Algeria,DZ,DZA,Ghardaïa,,14752.0,1012236470
Labiod Medjadja,Labiod Medjadja,36.25,1.4,Algeria,DZ,DZA,Chlef,,14733.0,1012893577
Chaabat el Leham,Chaabat el Leham,35.3361,-1.1011,Algeria,DZ,DZA,Aïn Temouchent,,14730.0,1012304289
Bellaa,Bellaa,36.2,5.85,Algeria,DZ,DZA,Sétif,,14666.0,1012089071
Djanet,Djanet,24.555,9.4853,Algeria,DZ,DZA,Djanet,admin,14655.0,1012827195
Djebahia,Djebahia,36.4764,3.7578,Algeria,DZ,DZA,Bouira,,14630.0,1012694694
Benfreha,Benfreha,35.6933,-0.4192,Algeria,DZ,DZA,Oran,,14565.0,1012584749
Adekar Kebouche,Adekar Kebouche,36.6833,4.6667,Algeria,DZ,DZA,Bejaïa,,14552.0,1012937154
Blidet Amor,Blidet Amor,32.9514,5.9806,Algeria,DZ,DZA,Ouargla,,14540.0,1012037042
Aïn Nouissy,Ain Nouissy,35.8,0.05,Algeria,DZ,DZA,Mostaganem,,14530.0,1012768863
Ouled Sidi Brahim,Ouled Sidi Brahim,36.3667,3.7167,Algeria,DZ,DZA,Bouira,,14499.0,1012821401
Ahmed Rachedi,Ahmed Rachedi,36.4,6.1167,Algeria,DZ,DZA,Mila,,14489.0,1012767031
Aït Yaïch,Ait Yaich,36.5811,4.3303,Algeria,DZ,DZA,Tizi Ouzou,,14439.0,1012677951
Iflissen,Iflissen,36.8636,4.2203,Algeria,DZ,DZA,Tizi Ouzou,,14311.0,1012326451
Mnagueur,Mnagueur,33.1264,6.3519,Algeria,DZ,DZA,Ouargla,,14179.0,1012316472
Mers el Hadjad,Mers el Hadjad,35.7833,-0.1667,Algeria,DZ,DZA,Oran,,14167.0,1012535220
Bougzoul,Bougzoul,35.6997,2.8478,Algeria,DZ,DZA,Médéa,,14094.0,1012776325
Sidi Ben Adda,Sidi Ben Adda,35.3,-1.1833,Algeria,DZ,DZA,Aïn Temouchent,,14086.0,1012002779
Moudjbara,Moudjbara,34.5037,3.4704,Algeria,DZ,DZA,Djelfa,,14052.0,1012667528
Khadra,Khadra,36.25,0.5667,Algeria,DZ,DZA,Mostaganem,,14045.0,1012234463
Selmana,Selmana,34.1833,3.6,Algeria,DZ,DZA,Djelfa,,14008.0,1012984231
Takerbouzt,Takerbouzt,36.418,4.3428,Algeria,DZ,DZA,Bouira,,14000.0,1012858445
Tarhzout,Tarhzout,33.4833,6.75,Algeria,DZ,DZA,El Oued,,13934.0,1012815881
Oued Taria,Oued Taria,35.1167,0.0833,Algeria,DZ,DZA,Mascara,,13916.0,1012925587
Tidjelabine,Tidjelabine,36.7333,3.5,Algeria,DZ,DZA,Boumerdes,,13888.0,1012249364
Megarine,Megarine,33.1944,6.0944,Algeria,DZ,DZA,Ouargla,,13751.0,1012423142
Settara,Settara,36.7167,6.3333,Algeria,DZ,DZA,Jijel,,13748.0,1012835010
El Kerma,El Kerma,35.6167,-0.5667,Algeria,DZ,DZA,Oran,,13637.0,1012531081
Abadla,Abadla,31.0167,-2.7333,Algeria,DZ,DZA,Béchar,,13636.0,1012262770
Menaa,Menaa,35.1667,6.0,Algeria,DZ,DZA,Biskra,,13510.0,1012659729
Kenadsa,Kenadsa,31.5333,-2.4167,Algeria,DZ,DZA,Béchar,,13492.0,1012961270
El Hachimia,El Hachimia,36.2333,3.8333,Algeria,DZ,DZA,Bouira,,13482.0,1012594141
Bou Sfer,Bou Sfer,35.7108,-0.8106,Algeria,DZ,DZA,Oran,,13450.0,1012235414
Chahbounia,Chahbounia,35.55,2.6,Algeria,DZ,DZA,Médéa,,13405.0,1012875763
Bouzina,Bouzina,35.2833,6.1167,Algeria,DZ,DZA,Batna,,13383.0,1012351496
Sidi Abd el Moumene,Sidi Abd el Moumene,35.6528,0.0139,Algeria,DZ,DZA,Mascara,,13306.0,1012411970
Bouskene,Bouskene,36.1833,3.2333,Algeria,DZ,DZA,Médéa,,13302.0,1012674329
Oued Tlélat,Oued Tlelat,35.55,-0.45,Algeria,DZ,DZA,Oran,,13289.0,1012265788
Aïn Youcef,Ain Youcef,35.05,-1.3667,Algeria,DZ,DZA,Tlemcen,,13234.0,1012281811
Afir,Afir,36.7676,3.7029,Algeria,DZ,DZA,Boumerdes,,13223.0,1012675026
Benairia,Benairia,36.35,1.3833,Algeria,DZ,DZA,Chlef,,13200.0,1012515960
Aïn Lechiakh,Ain Lechiakh,36.1569,2.4042,Algeria,DZ,DZA,Aïn Defla,,13196.0,1012316027
’Aïn Mouilah,'Ain Mouilah,34.75,3.4833,Algeria,DZ,DZA,Djelfa,,13155.0,1012992575
Sali,Sali,25.9606,-0.0275,Algeria,DZ,DZA,Adrar,,13138.0,1012996789
Bensekrane,Bensekrane,35.0667,-1.2167,Algeria,DZ,DZA,Tlemcen,,13130.0,1012963304
’Aïn Tolba,'Ain Tolba,35.2483,-1.2489,Algeria,DZ,DZA,Aïn Temouchent,,12933.0,1012934787
Debbache el Hadj Douadi,Debbache el Hadj Douadi,36.275,6.1764,Algeria,DZ,DZA,Mila,,12716.0,1012146134
Mechtras,Mechtras,36.55,4.0,Algeria,DZ,DZA,Tizi Ouzou,,12683.0,1012201497
Nakhla,Nakhla,33.2833,6.95,Algeria,DZ,DZA,El Oued,,12652.0,1012158713
Ouzera,Ouzera,36.25,2.85,Algeria,DZ,DZA,Médéa,,12650.0,1012020190
Ziama Mansouria,Ziama Mansouria,36.6667,5.4833,Algeria,DZ,DZA,Bejaïa,,12642.0,1012262083
Gueltat Sidi Saad,Gueltat Sidi Saad,34.3,1.95,Algeria,DZ,DZA,Laghouat,,12567.0,1012695330
El Adjiba,El Adjiba,36.3333,4.15,Algeria,DZ,DZA,Bouira,,12486.0,1012383350
’Aïn el Assel,'Ain el Assel,36.7864,8.3825,Algeria,DZ,DZA,El Tarf,,12482.0,1012143253
Arhribs,Arhribs,36.8022,4.3228,Algeria,DZ,DZA,Tizi Ouzou,,12474.0,1012696122
Iferhounene,Iferhounene,36.5167,4.3833,Algeria,DZ,DZA,Tizi Ouzou,,12460.0,1012745524
El Aouana,El Aouana,36.7667,5.6,Algeria,DZ,DZA,Jijel,,12384.0,1012390845
Sidi Makhlouf,Sidi Makhlouf,34.1333,3.0167,Algeria,DZ,DZA,Laghouat,,12292.0,1012199063
Sidi Aoun,Sidi Aoun,33.5422,6.905,Algeria,DZ,DZA,El Oued,,12235.0,1012838322
Hassi Fedoul,Hassi Fedoul,35.4333,2.2167,Algeria,DZ,DZA,Tiaret,,12221.0,1012584591
Yakouren,Yakouren,36.7333,4.45,Algeria,DZ,DZA,Tizi Ouzou,,12203.0,1012612535
’Aïn Kerma,'Ain Kerma,36.5939,8.2011,Algeria,DZ,DZA,El Tarf,,12182.0,1012695956
Hassi el Ghella,Hassi el Ghella,35.45,-1.05,Algeria,DZ,DZA,Aïn Temouchent,,12118.0,1012412717
El Marsa,El Marsa,36.8111,3.2556,Algeria,DZ,DZA,Alger,,12100.0,1012716943
Si Mustapha,Si Mustapha,36.7247,3.6153,Algeria,DZ,DZA,Boumerdes,,12087.0,1012130143
Froha,Froha,35.3,0.1333,Algeria,DZ,DZA,Mascara,,11969.0,1012211224
Stidia,Stidia,35.8333,-0.3,Algeria,DZ,DZA,Mostaganem,,11965.0,1012341132
Tigzirt,Tigzirt,36.9,4.1167,Algeria,DZ,DZA,Tizi Ouzou,,11962.0,1012150824
Oued Cheham,Oued Cheham,36.3833,7.7667,Algeria,DZ,DZA,Guelma,,11795.0,1012327788
Fenoughil,Fenoughil,27.6028,-0.3056,Algeria,DZ,DZA,Adrar,,11793.0,1012179150
Oued Seguin,Oued Seguin,36.171,6.42,Algeria,DZ,DZA,Mila,,11792.0,1012804133
Aougrout,Aougrout,28.7,0.3167,Algeria,DZ,DZA,Adrar,,11784.0,1012326755
Sidi Ladjel,Sidi Ladjel,35.4333,2.5,Algeria,DZ,DZA,Djelfa,,11776.0,1012152948
Bechloul,Bechloul,36.3167,4.0667,Algeria,DZ,DZA,Bouira,,11775.0,1012563877
Tafaraoui,Tafaraoui,35.4833,-0.5167,Algeria,DZ,DZA,Oran,,11600.0,1012845017
’Aïn Roua,'Ain Roua,36.3344,5.1806,Algeria,DZ,DZA,Sétif,,11499.0,1012529757
El Ançor,El Ancor,35.6833,-0.8667,Algeria,DZ,DZA,Oran,,11469.0,1012598945
Dhalaa,Dhalaa,35.4611,7.5472,Algeria,DZ,DZA,Khenchela,,11439.0,1012574182
Sidi Baizid,Sidi Baizid,35.75,2.3833,Algeria,DZ,DZA,Médéa,,11360.0,1012677320
Charouine,Charouine,29.0186,-0.2578,Algeria,DZ,DZA,Adrar,,11347.0,1012755999
Teniet el Abed,Teniet el Abed,35.2469,6.1906,Algeria,DZ,DZA,Batna,,11338.0,1012253314
Djemmorah,Djemmorah,35.0667,5.8333,Algeria,DZ,DZA,Biskra,,11218.0,1012491521
Beni Ounif,Beni Ounif,32.05,-1.25,Algeria,DZ,DZA,Béchar,,11209.0,1012327989
Galbois,Galbois,36.2,4.49,Algeria,DZ,DZA,Bordj Bou Arréridj,,11170.0,1012721329
’Aïn Taghrout,'Ain Taghrout,36.1289,5.0767,Algeria,DZ,DZA,Bordj Bou Arréridj,,11103.0,1012926101
Ksar Sbahi,Ksar Sbahi,36.0833,7.25,Algeria,DZ,DZA,Oum el Bouaghi,,11095.0,1012983658
El Hamel,El Hamel,35.1333,4.0833,Algeria,DZ,DZA,M’sila,,11018.0,1012802688
Bir Ghbalou,Bir Ghbalou,36.2642,3.5836,Algeria,DZ,DZA,Médéa,,11016.0,1012249358
Tizi,Tizi,35.3167,0.0667,Algeria,DZ,DZA,Mascara,,10915.0,1012409679
Oued Sebbah,Oued Sebbah,35.3725,-0.8114,Algeria,DZ,DZA,Aïn Temouchent,,10905.0,1012143722
Beni Abbès,Beni Abbes,30.08,-2.1,Algeria,DZ,DZA,Béni Abbès,admin,10885.0,1012633792
Bouchagroun,Bouchagroun,34.7217,5.4656,Algeria,DZ,DZA,Biskra,,10800.0,1012603355
Bou Khadra,Bou Khadra,35.7444,8.0325,Algeria,DZ,DZA,Tébessa,,10701.0,1012924503
Sidi Namane,Sidi Namane,36.7581,3.9839,Algeria,DZ,DZA,Boumerdes,,10688.0,1012820383
Asfour,Asfour,36.6667,7.9833,Algeria,DZ,DZA,El Tarf,,10632.0,1012021539
Bouhmama,Bouhmama,35.2833,6.7333,Algeria,DZ,DZA,Khenchela,,10614.0,1012904876
’Aïn Fekan,'Ain Fekan,35.225,-0.0017,Algeria,DZ,DZA,Mascara,,10573.0,1012085133
Bir Ben Laabed,Bir Ben Laabed,36.2175,3.4267,Algeria,DZ,DZA,Médéa,,10543.0,1012633395
Rabta,Rabta,35.9167,4.75,Algeria,DZ,DZA,Bordj Bou Arréridj,,10529.0,1012551561
Boudouaou el Bahri,Boudouaou el Bahri,36.7733,3.3872,Algeria,DZ,DZA,Boumerdes,,10512.0,1012344835
Bordj Okhriss,Bordj Okhriss,36.0833,3.9667,Algeria,DZ,DZA,Bouira,,10467.0,1012057188
Sidi Brahim,Sidi Brahim,35.2606,-0.5675,Algeria,DZ,DZA,Sidi Bel Abbès,,10371.0,1012460249
Ben Nasseur,Ben Nasseur,33.1108,6.4411,Algeria,DZ,DZA,Ouargla,,10330.0,1012048018
Bel Imour,Bel Imour,35.9806,4.8797,Algeria,DZ,DZA,Bordj Bou Arréridj,,10301.0,1012714087
Bordj Zemoura,Bordj Zemoura,36.2667,4.85,Algeria,DZ,DZA,Bordj Bou Arréridj,,10296.0,1012574590
’Aïn Tellout,'Ain Tellout,34.9167,-0.9667,Algeria,DZ,DZA,Tlemcen,,10286.0,1012421224
Sidi Embarek,Sidi Embarek,36.1039,4.9119,Algeria,DZ,DZA,Bordj Bou Arréridj,,10281.0,1012772499
Jean-Mermoz,Jean-Mermoz,35.5606,-0.0844,Algeria,DZ,DZA,Mascara,,10240.0,1012161505
Benyahia Abderrahmane,Benyahia Abderrahmane,36.2333,6.0167,Algeria,DZ,DZA,Mila,,10222.0,1012986319
Zelfana,Zelfana,32.3969,4.2261,Algeria,DZ,DZA,Ghardaïa,,10161.0,1012314870
Sidi Abdelaziz,Sidi Abdelaziz,36.85,6.05,Algeria,DZ,DZA,Jijel,,10153.0,1012683114
Ouled Rabah,Ouled Rabah,36.2833,3.1333,Algeria,DZ,DZA,Médéa,,10142.0,1012243092
Oggaz,Oggaz,35.5667,-0.2667,Algeria,DZ,DZA,Mascara,,10120.0,1012812318
M’Chouneche,M'Chouneche,34.95,6.0,Algeria,DZ,DZA,Biskra,,10107.0,1012523378
Zérizer,Zerizer,36.7272,7.8947,Algeria,DZ,DZA,El Tarf,,10105.0,1012368997
Kouinine,Kouinine,33.4,6.8333,Algeria,DZ,DZA,El Oued,,10076.0,1012854062
’Aïn Naga,'Ain Naga,34.6883,6.0886,Algeria,DZ,DZA,Biskra,,10054.0,1012796439
Ben N’Choud,Ben N'Choud,36.8622,3.8806,Algeria,DZ,DZA,Boumerdes,,9985.0,1012044380
Souama,Souama,36.6417,4.3417,Algeria,DZ,DZA,Tizi Ouzou,,9954.0,1012240654
Tamzoura,Tamzoura,35.4167,-0.65,Algeria,DZ,DZA,Aïn Temouchent,,9944.0,1012188576
Bekkaria,Bekkaria,35.3722,8.2422,Algeria,DZ,DZA,Tébessa,,9917.0,1012898761
Boufatis,Boufatis,35.6833,-0.4167,Algeria,DZ,DZA,Oran,,9906.0,1012133037
Ouled Brahim,Ouled Brahim,36.2444,2.9336,Algeria,DZ,DZA,Médéa,,9870.0,1012857780
Toudja,Toudja,36.75,4.9,Algeria,DZ,DZA,Bejaïa,,9827.0,1012114797
Bou Nouh,Bou Nouh,36.5,3.9333,Algeria,DZ,DZA,Tizi Ouzou,,9731.0,1012718665
’Aïn Kihal,'Ain Kihal,35.2044,-1.1961,Algeria,DZ,DZA,Aïn Temouchent,,9589.0,1012357673
Tixter,Tixter,36.05,5.0833,Algeria,DZ,DZA,Bordj Bou Arréridj,,9493.0,1012350440
Tamentit,Tamentit,27.7672,-0.2678,Algeria,DZ,DZA,Adrar,,9481.0,1012864393
Negrine,Negrine,34.4833,7.5167,Algeria,DZ,DZA,Tébessa,,9445.0,1012491039
Tarmount,Tarmount,35.8167,4.2833,Algeria,DZ,DZA,M’sila,,9438.0,1012705797
Assi-Ben Okba,Assi-Ben Okba,35.7294,-0.4658,Algeria,DZ,DZA,Oran,,9435.0,1012482137
Tassera,Tassera,36.0369,5.0022,Algeria,DZ,DZA,Bordj Bou Arréridj,,9358.0,1012745319
Lac des Oiseaux,Lac des Oiseaux,36.7833,8.1167,Algeria,DZ,DZA,El Tarf,,9320.0,1012891281
Oued Essalem,Oued Essalem,35.5833,0.9167,Algeria,DZ,DZA,Relizane,,9319.0,1012289327
Ouled Rached,Ouled Rached,36.2119,4.1106,Algeria,DZ,DZA,Bouira,,9311.0,1012727170
Aïn el Hadjar,Ain el Hadjar,36.3333,3.8,Algeria,DZ,DZA,Bouira,,9260.0,1012545954
Zoubiria,Zoubiria,36.0667,2.9,Algeria,DZ,DZA,Médéa,,9236.0,1012576132
I-n-Amenas,I-n-Amenas,28.0408,9.5431,Algeria,DZ,DZA,Illizi,,9225.0,1012221429
Tenedla,Tenedla,33.6753,6.0339,Algeria,DZ,DZA,El Oued,,9193.0,1012128905
Hacine,Hacine,35.4569,-0.0025,Algeria,DZ,DZA,Mascara,,9176.0,1012789769
Abalessa,Abalessa,22.89,4.8472,Algeria,DZ,DZA,Tamanrasset,,9163.0,1012479386
Ifigha,Ifigha,36.6667,4.4167,Algeria,DZ,DZA,Tizi Ouzou,,9160.0,1012938624
Nechmeya,Nechmeya,36.6114,7.5133,Algeria,DZ,DZA,Annaba,,9113.0,1012491182
Ksar Belezma,Ksar Belezma,35.6756,5.9033,Algeria,DZ,DZA,Batna,,9033.0,1012437070
Ouled Rahou,Ouled Rahou,36.0069,0.5919,Algeria,DZ,DZA,Mostaganem,,8948.0,1012100665
Ben Chicao,Ben Chicao,36.1997,2.8486,Algeria,DZ,DZA,Médéa,,8946.0,1012914449
Seddouk Oufella,Seddouk Oufella,36.6061,4.6389,Algeria,DZ,DZA,Bejaïa,,8931.0,1012348181
Bouati Mahmoud,Bouati Mahmoud,36.5833,7.3333,Algeria,DZ,DZA,Guelma,,8823.0,1012883098
El Outaya,El Outaya,35.0333,5.6,Algeria,DZ,DZA,Biskra,,8787.0,1012253605
Chahana,Chahana,36.6794,5.9572,Algeria,DZ,DZA,Jijel,,8781.0,1012049783
Boukhralfa,Boukhralfa,36.6144,5.0872,Algeria,DZ,DZA,Bejaïa,,8766.0,1012066745
Lichana,Lichana,34.7247,5.4325,Algeria,DZ,DZA,Biskra,,8740.0,1012350331
Chetma,Chetma,34.85,5.8167,Algeria,DZ,DZA,Biskra,,8677.0,1012778792
Bouaiche,Bouaiche,35.5528,2.3586,Algeria,DZ,DZA,Médéa,,8635.0,1012736363
Amalou,Amalou,36.4778,4.6333,Algeria,DZ,DZA,Bejaïa,,8602.0,1012045463
El Ghomri,El Ghomri,35.6833,0.2,Algeria,DZ,DZA,Mostaganem,,8585.0,1012196350
Tamza,Tamza,35.3167,6.8333,Algeria,DZ,DZA,Khenchela,,8580.0,1012339760
Ouled Abbes,Ouled Abbes,36.2167,1.4833,Algeria,DZ,DZA,Chlef,,8578.0,1012872981
Tifra,Tifra,36.6667,4.7,Algeria,DZ,DZA,Bejaïa,,8547.0,1012591585
In Guezzam,In Guezzam,19.5686,5.7722,Algeria,DZ,DZA,In Guezzam,admin,7045.0,1012000031
I-n-Amguel,I-n-Amguel,23.6936,5.1647,Algeria,DZ,DZA,Tamanrasset,,4208.0,1012162135
Algiers,Algiers,36.7539,3.0589,Algeria,DZ,DZA,Alger,primary,3415811.0,1012973369
Constantine,Constantine,36.35,6.6,Algeria,DZ,DZA,Constantine,admin,465138.0,1012275076
Batna,Batna,35.55,6.1667,Algeria,DZ,DZA,Batna,admin,290645.0,1012093229
Sétif,Setif,36.19,5.41,Algeria,DZ,DZA,Sétif,admin,288461.0,1012981116
Djelfa,Djelfa,34.6667,3.25,Algeria,DZ,DZA,Djelfa,admin,265833.0,1012268984
Annaba,Annaba,36.9,7.7667,Algeria,DZ,DZA,Annaba,admin,257359.0,1012600001
Sidi Aïssa,Sidi Aissa,36.5,4.2978,Algeria,DZ,DZA,M’sila,,215000.0,1012091250
Sidi Bel Abbès,Sidi Bel Abbes,35.1939,-0.6414,Algeria,DZ,DZA,Sidi Bel Abbès,admin,212935.0,1012123414
Biskra,Biskra,34.85,5.7333,Algeria,DZ,DZA,Biskra,admin,204661.0,1012947247
Tébessa,Tebessa,35.4,8.1167,Algeria,DZ,DZA,Tébessa,admin,194461.0,1012196375
Ouargla,Ouargla,31.95,5.3167,Algeria,DZ,DZA,Ouargla,admin,191136.0,1012425687
El Khroub,El Khroub,36.2667,6.7,Algeria,DZ,DZA,Constantine,,179033.0,1012245786
Tiaret,Tiaret,35.3667,1.3167,Algeria,DZ,DZA,Tiaret,admin,178915.0,1012785868
Bejaïa,Bejaia,36.7511,5.0642,Algeria,DZ,DZA,Bejaïa,admin,176139.0,1012140298
Tlemcen,Tlemcen,34.8828,-1.3167,Algeria,DZ,DZA,Tlemcen,admin,173531.0,1012978325
Bir el Djir,Bir el Djir,35.7367,-0.5542,Algeria,DZ,DZA,Oran,,171883.0,1012283284
Bordj Bou Arreridj,Bordj Bou Arreridj,36.0667,4.7667,Algeria,DZ,DZA,Bordj Bou Arréridj,admin,168346.0,1012016677
Béchar,Bechar,31.6167,-2.2167,Algeria,DZ,DZA,Béchar,admin,165627.0,1012371820
Blida,Blida,36.4686,2.8319,Algeria,DZ,DZA,Blida,admin,163586.0,1012045589
Skikda,Skikda,36.8667,6.9,Algeria,DZ,DZA,Skikda,admin,163318.0,1012619903
Souk Ahras,Souk Ahras,36.2864,7.9511,Algeria,DZ,DZA,Souk Ahras,admin,155259.0,1012419619
Chlef,Chlef,36.1647,1.3317,Algeria,DZ,DZA,Chlef,admin,155134.0,1012772239
El Eulma,El Eulma,36.15,5.6833,Algeria,DZ,DZA,Sétif,,155038.0,1012292620
Bordj el Kiffan,Bordj el Kiffan,36.7375,3.1931,Algeria,DZ,DZA,Alger,,151950.0,1012186125
Mostaganem,Mostaganem,35.9333,0.0833,Algeria,DZ,DZA,Mostaganem,admin,145696.0,1012061703
Touggourt,Touggourt,33.1,6.0667,Algeria,DZ,DZA,Touggourt,admin,143270.0,1012546670
Médéa,Medea,36.2675,2.75,Algeria,DZ,DZA,Médéa,admin,138355.0,1012758282
Tizi Ouzou,Tizi Ouzou,36.7167,4.05,Algeria,DZ,DZA,Tizi Ouzou,admin,135088.0,1012126997
El Oued,El Oued,33.3611,6.8606,Algeria,DZ,DZA,El Oued,admin,134699.0,1012148937
Laghouat,Laghouat,33.8028,2.875,Algeria,DZ,DZA,Laghouat,admin,134372.0,1012233848
M’Sila,M'Sila,35.7019,4.5472,Algeria,DZ,DZA,M’sila,admin,132975.0,1012857730
Jijel,Jijel,36.8167,5.75,Algeria,DZ,DZA,Jijel,admin,131513.0,1012782547
Relizane,Relizane,35.7333,0.55,Algeria,DZ,DZA,Relizane,admin,130094.0,1012939885
Saïda,Saida,34.8333,0.15,Algeria,DZ,DZA,Saïda,admin,128413.0,1012285874
Baraki,Baraki,36.6667,3.1,Algeria,DZ,DZA,Tipaza,,123101.0,1012987490
Guelma,Guelma,36.45,7.4333,Algeria,DZ,DZA,Guelma,admin,120004.0,1012266321
Ghardaïa,Ghardaia,32.4833,3.6667,Algeria,DZ,DZA,Ghardaïa,admin,120000.0,1012074690
Aïn Beïda,Ain Beida,35.7833,7.3833,Algeria,DZ,DZA,Oum el Bouaghi,,116064.0,1012021090
Maghnia,Maghnia,34.8617,-1.7306,Algeria,DZ,DZA,Tlemcen,,114634.0,1012582356
Bou Saada,Bou Saada,36.7667,4.5833,Algeria,DZ,DZA,Tizi Ouzou,,111787.0,1012263841
Bou Saâda,Bou Saada,35.2083,4.1739,Algeria,DZ,DZA,M’sila,,111787.0,1012931222
Mascara,Mascara,35.4,0.1333,Algeria,DZ,DZA,Mascara,admin,108587.0,1012738269
Khenchela,Khenchela,35.4167,7.1333,Algeria,DZ,DZA,Khenchela,admin,108580.0,1012495148
Barika,Barika,35.3972,5.3658,Algeria,DZ,DZA,Batna,,104388.0,1012917898
Messaad,Messaad,34.1667,3.5,Algeria,DZ,DZA,Djelfa,,102453.0,1012278908
Aflou,Aflou,34.1089,2.1019,Algeria,DZ,DZA,Laghouat,,102025.0,1012904117
Aïn Oussera,Ain Oussera,35.4489,2.9044,Algeria,DZ,DZA,Djelfa,,101239.0,1012469007
Oran,Oran,35.6969,-0.6331,Algeria,DZ,DZA,Oran,admin,101009.0,1012126319
Es Senia,Es Senia,35.65,-0.6333,Algeria,DZ,DZA,Oran,,96928.0,1012779789
Bab Ezzouar,Bab Ezzouar,36.7217,3.1853,Algeria,DZ,DZA,Alger,,96597.0,1012318854
Tamanrasset,Tamanrasset,22.7889,5.5256,Algeria,DZ,DZA,Tamanrasset,admin,92635.0,1012765474
Arzew,Arzew,35.85,-0.3167,Algeria,DZ,DZA,Oran,,91400.0,1012954906
Aïn M’Lila,Ain M'Lila,36.0361,6.5708,Algeria,DZ,DZA,Oum el Bouaghi,,88441.0,1012438002
Hassi Bahbah,Hassi Bahbah,35.0667,3.0333,Algeria,DZ,DZA,Djelfa,,86421.0,1012120396
El Bayadh,El Bayadh,33.6803,1.0203,Algeria,DZ,DZA,El Bayadh,admin,85577.0,1012906892
Mohammadia,Mohammadia,35.5833,0.0667,Algeria,DZ,DZA,Mascara,,84700.0,1012169657
Khemis Miliana,Khemis Miliana,36.2667,2.2167,Algeria,DZ,DZA,Aïn Defla,,84574.0,1012116292
El Milia,El Milia,36.75,6.2667,Algeria,DZ,DZA,Jijel,,83931.0,1012706826
Hamma Bouziane,Hamma Bouziane,36.5333,6.7167,Algeria,DZ,DZA,Constantine,,83603.0,1012233499
Chelghoum el Aïd,Chelghoum el Aid,36.1667,6.1667,Algeria,DZ,DZA,Mila,,82560.0,1012048079
Dar el Beïda,Dar el Beida,36.7142,3.2125,Algeria,DZ,DZA,Alger,,81509.0,1012987727
Oum el Bouaghi,Oum el Bouaghi,35.8775,7.1136,Algeria,DZ,DZA,Oum el Bouaghi,admin,80359.0,1012958880
Sougueur,Sougueur,35.1833,1.5,Algeria,DZ,DZA,Tiaret,,78956.0,1012177947
Taher,Taher,36.7719,5.8983,Algeria,DZ,DZA,Jijel,,78500.0,1012984908
Birkhadem,Birkhadem,36.7167,3.05,Algeria,DZ,DZA,Alger,,77749.0,1012246970
Bir el Ater,Bir el Ater,34.7497,8.0578,Algeria,DZ,DZA,Tébessa,,77727.0,1012519828
Khemis el Khechna,Khemis el Khechna,36.65,3.3306,Algeria,DZ,DZA,Boumerdes,,76474.0,1012679229
Merouana,Merouana,35.6333,5.9167,Algeria,DZ,DZA,Batna,,76000.0,1012051214
Aïn Temouchent,Ain Temouchent,35.3,-1.1333,Algeria,DZ,DZA,Aïn Temouchent,admin,75558.0,1012763655
Cheria,Cheria,35.2667,7.75,Algeria,DZ,DZA,Tébessa,,75344.0,1012061422
Tissemsilt,Tissemsilt,35.6078,1.8111,Algeria,DZ,DZA,Tissemsilt,admin,75197.0,1012743339
Aïn Oulmene,Ain Oulmene,35.9167,5.3,Algeria,DZ,DZA,Sétif,,73831.0,1012233825
Sig,Sig,35.5278,-0.1861,Algeria,DZ,DZA,Mascara,,70499.0,1012835736
Mila,Mila,36.4503,6.2644,Algeria,DZ,DZA,Mila,admin,69052.0,1012656063
Bouira,Bouira,36.38,3.9014,Algeria,DZ,DZA,Bouira,admin,68545.0,1012006499
Adrar,Adrar,27.8667,-0.2833,Algeria,DZ,DZA,Adrar,admin,68276.0,1012462113
Ksar el Boukhari,Ksar el Boukhari,35.8856,2.7508,Algeria,DZ,DZA,Médéa,,67813.0,1012049446
Reghaïa,Reghaia,36.7631,3.3426,Algeria,DZ,DZA,Boumerdes,,66215.0,1012395908
Aïn Defla,Ain Defla,36.2652,1.9703,Algeria,DZ,DZA,Aïn Defla,admin,65453.0,1012656497
Hadjout,Hadjout,36.5167,2.4167,Algeria,DZ,DZA,Tipaza,,65300.0,1012513171
Mecheria,Mecheria,33.55,-0.2833,Algeria,DZ,DZA,Naama,,65043.0,1012958256
Bordj Menaïel,Bordj Menaiel,36.7417,3.7231,Algeria,DZ,DZA,Boumerdes,,64820.0,1012287430
Oued Rhiou,Oued Rhiou,35.9667,0.9167,Algeria,DZ,DZA,Relizane,,64685.0,1012709307
Assi Bou Nif,Assi Bou Nif,35.7,-0.5,Algeria,DZ,DZA,Oran,,63581.0,1012237560
Ouled Djellal,Ouled Djellal,34.4167,5.0667,Algeria,DZ,DZA,Ouled Djellal,admin,63237.0,1012109892
Tighenif,Tighenif,35.4167,0.3333,Algeria,DZ,DZA,Mascara,,62210.0,1012981905
Rouiba,Rouiba,36.7333,3.2833,Algeria,DZ,DZA,Alger,,61984.0,1012334934
Kolea,Kolea,36.6406,2.765,Algeria,DZ,DZA,Tipaza,,61643.0,1012411140
Berrouaghia,Berrouaghia,36.1333,2.9167,Algeria,DZ,DZA,Médéa,,60152.0,1012339303
Baba Hassen,Baba Hassen,36.7,2.9667,Algeria,DZ,DZA,Tipaza,,60000.0,1012238161
Meskiana,Meskiana,35.6333,7.6667,Algeria,DZ,DZA,Oum el Bouaghi,,60000.0,1012831860
Aïn Touta,Ain Touta,35.3833,5.9,Algeria,DZ,DZA,Batna,,59904.0,1012215632
Lakhdaria,Lakhdaria,36.5622,3.5944,Algeria,DZ,DZA,Bouira,,59746.0,1012284313
Sidi ech Chahmi,Sidi ech Chahmi,35.6667,-0.5167,Algeria,DZ,DZA,Oran,,58857.0,1012772133
Rouissat,Rouissat,31.9167,5.35,Algeria,DZ,DZA,Ouargla,,58112.0,1012081202
El Attaf,El Attaf,36.2167,1.6667,Algeria,DZ,DZA,Aïn Defla,,57737.0,1012991793
Boufarik,Boufarik,36.5706,2.9108,Algeria,DZ,DZA,Blida,,57162.0,1012512259
Azzaba,Azzaba,36.7333,7.1,Algeria,DZ,DZA,Skikda,,56922.0,1012969588
Boudouaou,Boudouaou,36.73,3.41,Algeria,DZ,DZA,Boumerdes,,56398.0,1012554481
Oulad Yaïch,Oulad Yaich,36.5039,2.8619,Algeria,DZ,DZA,Blida,,55719.0,1012941592
Morsott,Morsott,35.6667,8.0167,Algeria,DZ,DZA,Tébessa,,54332.0,1012039493
Frenda,Frenda,35.0667,1.05,Algeria,DZ,DZA,Tiaret,,54162.0,1012914604
Ksar Chellala,Ksar Chellala,35.2167,2.3167,Algeria,DZ,DZA,Tiaret,,52753.0,1012797029
Ouenza,Ouenza,35.95,8.1333,Algeria,DZ,DZA,Tébessa,,52737.0,1012834497
Aïn Sefra,Ain Sefra,32.75,-0.5833,Algeria,DZ,DZA,Naama,,52320.0,1012884513
Akbou,Akbou,36.4667,4.5333,Algeria,DZ,DZA,Bejaïa,,52282.0,1012950888
Zeralda,Zeralda,36.7167,2.85,Algeria,DZ,DZA,Tipaza,,51552.0,1012208562
Râs el Oued,Ras el Oued,35.9497,5.0358,Algeria,DZ,DZA,Bordj Bou Arréridj,,51482.0,1012473490
Boukadir,Boukadir,36.0667,1.1333,Algeria,DZ,DZA,Chlef,,51340.0,1012118948
’Aïn Merane,'Ain Merane,36.1628,0.9706,Algeria,DZ,DZA,Relizane,,51326.0,1012000026
Tamalous,Tamalous,36.8361,6.6417,Algeria,DZ,DZA,Skikda,,51262.0,1012674952
Djamaa,Djamaa,33.5333,6.0,Algeria,DZ,DZA,Ouargla,,50916.0,1012061882
Sour el Ghozlane,Sour el Ghozlane,36.1472,3.6906,Algeria,DZ,DZA,Bouira,,50120.0,1012741522
Saoula,Saoula,36.7,3.0167,Algeria,DZ,DZA,Tipaza,,50000.0,1012956738
’Aïn el Turk,'Ain el Turk,35.7408,-0.7492,Algeria,DZ,DZA,Oran,,50000.0,1012709372
El Meghaïer,El Meghaier,33.9506,5.9242,Algeria,DZ,DZA,El Meghaier,admin,49793.0,1012153214
Fouka,Fouka,36.6667,2.75,Algeria,DZ,DZA,Tipaza,,48959.0,1012976923
Telerghma,Telerghma,36.1167,6.3667,Algeria,DZ,DZA,Mila,,48846.0,1012849109
Aïn Fakroun,Ain Fakroun,35.9667,6.8667,Algeria,DZ,DZA,Oum el Bouaghi,,48804.0,1012447723
’Aïn Azel,'Ain Azel,35.8433,5.5219,Algeria,DZ,DZA,Sétif,,48487.0,1012746080
Chetouane,Chetouane,34.9203,-1.2897,Algeria,DZ,DZA,Tlemcen,,47600.0,1012349422
Oued Sly,Oued Sly,36.1,1.2,Algeria,DZ,DZA,Chlef,,47248.0,1012718816
Douera,Douera,36.6667,2.95,Algeria,DZ,DZA,Tipaza,,46266.0,1012994531
Ouled Moussa,Ouled Moussa,36.6831,3.3681,Algeria,DZ,DZA,Boumerdes,,45770.0,1012623458
Tindouf,Tindouf,27.6753,-8.1286,Algeria,DZ,DZA,Tindouf,admin,45610.0,1012450434
Hassi Messaoud,Hassi Messaoud,31.7,6.0667,Algeria,DZ,DZA,Ouargla,,45147.0,1012339655
Miliana,Miliana,36.3,2.2333,Algeria,DZ,DZA,Aïn Defla,,44201.0,1012568888
Beni Saf,Beni Saf,35.3,-1.3833,Algeria,DZ,DZA,Aïn Temouchent,,43802.0,1012336917
’Aïn Arnat,'Ain Arnat,36.1833,5.3167,Algeria,DZ,DZA,Sétif,,43551.0,1012453452
El Affroun,El Affroun,36.4667,2.6333,Algeria,DZ,DZA,Tipaza,,42627.0,1012059890
Tadjenanet,Tadjenanet,36.1167,5.9833,Algeria,DZ,DZA,Mila,,41833.0,1012498855
Oued Fodda,Oued Fodda,36.1833,1.5333,Algeria,DZ,DZA,Chlef,,41710.0,1012406529
Boumerdes,Boumerdes,36.7603,3.4724,Algeria,DZ,DZA,Boumerdes,admin,41685.0,1012627486
Meftah,Meftah,36.6167,3.2333,Algeria,DZ,DZA,Blida,,40878.0,1012473985
Sidi Moussa,Sidi Moussa,36.6056,3.0886,Algeria,DZ,DZA,Blida,,40750.0,1012303678
Metlili Chaamba,Metlili Chaamba,32.2728,3.6275,Algeria,DZ,DZA,Ghardaïa,,40576.0,1012787469
Reguiba,Reguiba,33.5667,6.7167,Algeria,DZ,DZA,El Oued,,40367.0,1012783196
El Golea,El Golea,30.5833,2.8833,Algeria,DZ,DZA,El Meniaa,admin,40195.0,1012834851
Sebdou,Sebdou,34.6333,-1.3333,Algeria,DZ,DZA,Tlemcen,,39800.0,1012554285
’Aïn el Melh,'Ain el Melh,34.8483,4.1611,Algeria,DZ,DZA,M’sila,,39798.0,1012240027
Magra,Magra,35.6,5.0667,Algeria,DZ,DZA,M’sila,,39250.0,1012279924
Guemar,Guemar,33.5,6.8333,Algeria,DZ,DZA,El Oued,,39168.0,1012578171
Sidi Khaled,Sidi Khaled,34.3833,4.9833,Algeria,DZ,DZA,Biskra,,38987.0,1012596640
Staoueli,Staoueli,36.75,2.8833,Algeria,DZ,DZA,Tipaza,,38915.0,1012512809
Draa el Mizan,Draa el Mizan,36.5333,3.8333,Algeria,DZ,DZA,Bouira,,38886.0,1012563094
Aïn Tedeles,Ain Tedeles,35.9947,0.2956,Algeria,DZ,DZA,Mostaganem,,38823.0,1012889794
Emîr Abdelkader,Emir Abdelkader,36.75,5.8333,Algeria,DZ,DZA,Jijel,,38468.0,1012035727
Bougara,Bougara,36.5333,3.0833,Algeria,DZ,DZA,Blida,,38352.0,1012764987
Souma,Souma,36.5183,2.9053,Algeria,DZ,DZA,Blida,,37461.0,1012378735
Ouled Beni Messous,Ouled Beni Messous,36.7833,2.9833,Algeria,DZ,DZA,Tipaza,,36191.0,1012795548
Oued Athmenia,Oued Athmenia,36.2497,6.2861,Algeria,DZ,DZA,Mila,,35934.0,1012654093
Collo,Collo,37.0056,6.5603,Algeria,DZ,DZA,Skikda,,35682.0,1012936173
Ténès,Tenes,36.5122,1.3044,Algeria,DZ,DZA,Chlef,,35459.0,1012665490
Bou Noura,Bou Noura,32.4825,3.7036,Algeria,DZ,DZA,Ghardaïa,,35405.0,1012965378
Hammam Bou Hadjar,Hammam Bou Hadjar,35.3792,-0.9706,Algeria,DZ,DZA,Aïn Temouchent,,35158.0,1012045550
Kherrata,Kherrata,36.5,5.2833,Algeria,DZ,DZA,Bejaïa,,35077.0,1012346925
Tebesbest,Tebesbest,33.1167,6.0833,Algeria,DZ,DZA,Ouargla,,35032.0,1012539349
Ouled Fares,Ouled Fares,36.2667,1.1833,Algeria,DZ,DZA,Chlef,,34891.0,1012973905
Hammam Dalaa,Hammam Dalaa,35.9281,4.3744,Algeria,DZ,DZA,M’sila,,34785.0,1012891613
Azazga,Azazga,36.7453,4.3711,Algeria,DZ,DZA,Tizi Ouzou,,34683.0,1012087552
Sidi Lakhdar,Sidi Lakhdar,36.1428,0.4606,Algeria,DZ,DZA,Mostaganem,,34612.0,1012307929
Aïn Taya,Ain Taya,36.7917,3.2889,Algeria,DZ,DZA,Alger,,34501.0,1012199705
Cherchell,Cherchell,36.6075,2.19,Algeria,DZ,DZA,Tipaza,,34372.0,1012114128
Takhemaret,Takhemaret,35.1072,0.6833,Algeria,DZ,DZA,Tiaret,,34124.0,1012236307
Oued el Alleug,Oued el Alleug,36.55,2.7833,Algeria,DZ,DZA,Tipaza,,33915.0,1012058750
Selmane,Selmane,35.6833,4.7833,Algeria,DZ,DZA,M’sila,,33851.0,1012696148
Beni Tamou,Beni Tamou,36.5333,2.8167,Algeria,DZ,DZA,Blida,,33846.0,1012892793
Beni Slimane,Beni Slimane,36.227,3.306,Algeria,DZ,DZA,Médéa,,33779.0,1012480319
Ghazaouet,Ghazaouet,35.1,-1.85,Algeria,DZ,DZA,Tlemcen,,33774.0,1012991522
Sidi Okba,Sidi Okba,34.75,5.9,Algeria,DZ,DZA,Biskra,,33509.0,1012679426
Didouche Mourad,Didouche Mourad,36.45,6.6333,Algeria,DZ,DZA,Constantine,,33266.0,1012151355
El Arrouch,El Arrouch,36.6531,6.8364,Algeria,DZ,DZA,Skikda,,33085.0,1012919019
Timimoun,Timimoun,29.2628,-0.2389,Algeria,DZ,DZA,Timimoun,admin,33060.0,1012351010
‘Aïn el Hadjel,`Ain el Hadjel,35.6739,3.8817,Algeria,DZ,DZA,M’sila,,33046.0,1012857642
Dellys,Dellys,36.9133,3.9141,Algeria,DZ,DZA,Boumerdes,,32954.0,1012717910
Oued Zenati,Oued Zenati,36.3167,7.1667,Algeria,DZ,DZA,Guelma,,32870.0,1012842486
Aïn el Bya,Ain el Bya,35.8167,-0.2833,Algeria,DZ,DZA,Oran,,32611.0,1012529219
Arris,Arris,35.25,6.35,Algeria,DZ,DZA,Batna,,32597.0,1012721037
Aïn Bessem,Ain Bessem,36.2967,3.67,Algeria,DZ,DZA,Bouira,,32548.0,1012193122
I-n-Salah,I-n-Salah,27.195,2.4833,Algeria,DZ,DZA,In Salah,admin,32518.0,1012201146
Nedroma,Nedroma,35.0,-1.7333,Algeria,DZ,DZA,Tlemcen,,32398.0,1012681931
El Abiodh Sidi Cheikh,El Abiodh Sidi Cheikh,32.8986,0.5444,Algeria,DZ,DZA,El Bayadh,,32300.0,1012150808
Bougaa,Bougaa,36.3333,5.0833,Algeria,DZ,DZA,Sétif,,31922.0,1012194391
Sidi Ali,Sidi Ali,36.1047,0.4233,Algeria,DZ,DZA,Mostaganem,,31840.0,1012014168
Remchi,Remchi,35.0667,-1.4333,Algeria,DZ,DZA,Tlemcen,,31837.0,1012363094
Hassi Khelifa,Hassi Khelifa,33.5622,6.9903,Algeria,DZ,DZA,El Oued,,31784.0,1012173486
’Aïn Abid,'Ain Abid,36.2325,6.944,Algeria,DZ,DZA,Constantine,,31743.0,1012017837
Draa Ben Khedda,Draa Ben Khedda,36.7333,3.9667,Algeria,DZ,DZA,Boumerdes,,31382.0,1012011041
Boghni,Boghni,36.55,3.95,Algeria,DZ,DZA,Tizi Ouzou,,31263.0,1012740129
Birtouta,Birtouta,36.65,3.0,Algeria,DZ,DZA,Tipaza,,30575.0,1012396756
Aïn Kercha,Ain Kercha,35.9167,6.7,Algeria,DZ,DZA,Oum el Bouaghi,,30575.0,1012437320
Chabet el Ameur,Chabet el Ameur,36.6333,3.7,Algeria,DZ,DZA,Boumerdes,,30223.0,1012744058
Berriane,Berriane,32.8333,3.7667,Algeria,DZ,DZA,Ghardaïa,,30200.0,1012230257
Djendel,Djendel,36.2186,2.4089,Algeria,DZ,DZA,Aïn Defla,,30170.0,1012033376
Zemoura,Zemoura,35.7167,0.75,Algeria,DZ,DZA,Relizane,,30027.0,1012949910
El Idrissia,El Idrissia,34.45,2.5333,Algeria,DZ,DZA,Djelfa,,29856.0,1012211028
El Kseur,El Kseur,36.6844,4.8522,Algeria,DZ,DZA,Bejaïa,,29842.0,1012893043
N’Gaous,N'Gaous,35.555,5.6106,Algeria,DZ,DZA,Batna,,29504.0,1012978553
Tizi Gheniff,Tizi Gheniff,36.5833,3.7667,Algeria,DZ,DZA,Boumerdes,,29409.0,1012794312
L’Arbaa Naït Irathen,L'Arbaa Nait Irathen,36.6367,4.2067,Algeria,DZ,DZA,Tizi Ouzou,,29376.0,1012117061
Sendjas,Sendjas,36.0667,1.4,Algeria,DZ,DZA,Chlef,,29043.0,1012568424
Ouled Haddaj,Ouled Haddaj,36.72,3.35,Algeria,DZ,DZA,Boumerdes,,29012.0,1012233665
Ahmer el ’Aïn,Ahmer el 'Ain,36.4781,2.5639,Algeria,DZ,DZA,Tipaza,,29000.0,1012730539
Timizart,Timizart,36.8,4.2667,Algeria,DZ,DZA,Tizi Ouzou,,28996.0,1012767619
Ammi Moussa,Ammi Moussa,35.8667,1.1167,Algeria,DZ,DZA,Relizane,,28962.0,1012840754
Tazmalt,Tazmalt,36.3844,4.3992,Algeria,DZ,DZA,Bouira,,28891.0,1012721096
Zighout Youcef,Zighout Youcef,36.5333,6.7167,Algeria,DZ,DZA,Constantine,,28764.0,1012501273
Sabra,Sabra,34.8333,-1.5333,Algeria,DZ,DZA,Tlemcen,,28555.0,1012379084
Mouzaïa,Mouzaia,36.4667,2.6833,Algeria,DZ,DZA,Tipaza,,28552.0,1012765520
Ouled Ben Abd el Kader,Ouled Ben Abd el Kader,36.0258,1.2764,Algeria,DZ,DZA,Chlef,,28430.0,1012953542
Sidi Lakhdar,Sidi Lakhdar,36.2653,2.1617,Algeria,DZ,DZA,Aïn Defla,,28361.0,1012726637
Tablat,Tablat,36.4167,3.3167,Algeria,DZ,DZA,Médéa,,28276.0,1012099896
Babar,Babar,35.1692,7.1013,Algeria,DZ,DZA,Khenchela,,28182.0,1012018384
Isser,Isser,36.716,3.666,Algeria,DZ,DZA,Boumerdes,,27990.0,1012146120
Sfizef,Sfizef,35.2333,-0.25,Algeria,DZ,DZA,Sidi Bel Abbès,,27914.0,1012972071
Bordj el Bahri,Bordj el Bahri,36.8167,3.2333,Algeria,DZ,DZA,Alger,,27900.0,1012412055
Theniet el Had,Theniet el Had,35.8708,2.0289,Algeria,DZ,DZA,Aïn Defla,,27628.0,1012655109
Ouled Fayet,Ouled Fayet,36.7333,2.95,Algeria,DZ,DZA,Tipaza,,27593.0,1012847769
Taougrite,Taougrite,36.25,0.9167,Algeria,DZ,DZA,Chlef,,27574.0,1012273060
Ouled Slama Tahta,Ouled Slama Tahta,36.5483,3.11,Algeria,DZ,DZA,Blida,,27573.0,1012959119
Tazoult-Lambese,Tazoult-Lambese,35.49,6.26,Algeria,DZ,DZA,Batna,,27493.0,1012689775
El Abadia,El Abadia,36.2667,1.6833,Algeria,DZ,DZA,Aïn Defla,,27185.0,1012403916
Barbacha,Barbacha,36.5667,4.9667,Algeria,DZ,DZA,Bejaïa,,27000.0,1012449268
Bouguirat,Bouguirat,35.7508,0.2556,Algeria,DZ,DZA,Mostaganem,,26954.0,1012888164
Feidh el Botma,Feidh el Botma,34.5278,3.7819,Algeria,DZ,DZA,Djelfa,,26857.0,1012198534
Birine,Birine,35.6333,3.2167,Algeria,DZ,DZA,Djelfa,,26670.0,1012961734
Dar Chioukh,Dar Chioukh,34.9,3.4833,Algeria,DZ,DZA,Djelfa,,26605.0,1012182141
Sidi Akkacha,Sidi Akkacha,36.4667,1.3,Algeria,DZ,DZA,Chlef,,26595.0,1012980047
Zeboudja,Zeboudja,36.35,1.4333,Algeria,DZ,DZA,Chlef,,26539.0,1012391189
Hennaya,Hennaya,34.95,-1.3667,Algeria,DZ,DZA,Tlemcen,,26515.0,1012561024
Zemmouri,Zemmouri,36.7833,3.6,Algeria,DZ,DZA,Boumerdes,,26408.0,1012115297
Ouled Mimoun,Ouled Mimoun,34.9,-1.0333,Algeria,DZ,DZA,Tlemcen,,26389.0,1012363552
Kaous,Kaous,36.7702,5.8136,Algeria,DZ,DZA,Jijel,,26137.0,1012869984
Ouled Rahmoun,Ouled Rahmoun,36.1803,6.705,Algeria,DZ,DZA,Constantine,,26132.0,1012120761
Misserghin,Misserghin,35.6167,-0.7333,Algeria,DZ,DZA,Oran,,26100.0,1012705533
Chellalat el Adhaouara,Chellalat el Adhaouara,35.9403,3.4139,Algeria,DZ,DZA,Médéa,,26077.0,1012329347
El Hadjar,El Hadjar,36.8,7.7333,Algeria,DZ,DZA,Annaba,,26060.0,1012495144
Foughala,Foughala,34.7167,5.3167,Algeria,DZ,DZA,Biskra,,25645.0,1012886441
El Tarf,El Tarf,36.767,8.317,Algeria,DZ,DZA,El Tarf,admin,25594.0,1012205687
Menaceur,Menaceur,36.492,2.2208,Algeria,DZ,DZA,Tipaza,,25480.0,1012903347
Rouached,Rouached,36.4583,6.0397,Algeria,DZ,DZA,Mila,,25399.0,1012806548
Tipasa,Tipasa,36.5919,2.4494,Algeria,DZ,DZA,Tipaza,admin,25225.0,1012866308
Chekfa,Chekfa,36.7667,5.9667,Algeria,DZ,DZA,Jijel,,25187.0,1012620075
Debila,Debila,33.5064,6.9381,Algeria,DZ,DZA,El Oued,,25158.0,1012224257
El Karimia,El Karimia,36.1167,1.55,Algeria,DZ,DZA,Chlef,,25060.0,1012816413
Télagh,Telagh,34.7833,-0.5667,Algeria,DZ,DZA,Sidi Bel Abbès,,24594.0,1012464593
Aïn Kechera,Ain Kechera,36.7483,6.4325,Algeria,DZ,DZA,Skikda,,24572.0,1012670696
’Aïn Boucif,'Ain Boucif,35.8912,3.1585,Algeria,DZ,DZA,Médéa,,24434.0,1012875475
Tadjmout,Tadjmout,33.8667,2.5167,Algeria,DZ,DZA,Laghouat,,24320.0,1012533662
Mekla,Mekla,36.6833,4.2667,Algeria,DZ,DZA,Tizi Ouzou,,24237.0,1012384530
Freha,Freha,36.75,4.3167,Algeria,DZ,DZA,Tizi Ouzou,,24228.0,1012372550
Douar Bou Tlelis,Douar Bou Tlelis,35.573,-0.9,Algeria,DZ,DZA,Oran,,23920.0,1012670068
Ksar el Hirane,Ksar el Hirane,33.7833,3.15,Algeria,DZ,DZA,Laghouat,,23841.0,1012639478
Beni Amrane,Beni Amrane,36.6667,3.5833,Algeria,DZ,DZA,Boumerdes,,23621.0,1012420167
Berhoum,Berhoum,35.65,5.0333,Algeria,DZ,DZA,M’sila,,23620.0,1012036999
Khelil,Khelil,36.1756,5.0292,Algeria,DZ,DZA,Bordj Bou Arréridj,,23537.0,1012421543
Oued el Djemaa,Oued el Djemaa,35.7972,0.6814,Algeria,DZ,DZA,Relizane,,23480.0,1012676002
Beni Rached,Beni Rached,36.2806,1.5161,Algeria,DZ,DZA,Chlef,,23449.0,1012344039
Makouda,Makouda,36.7833,4.0667,Algeria,DZ,DZA,Boumerdes,,23388.0,1012786926
Bordj Ghdir,Bordj Ghdir,35.9,4.89,Algeria,DZ,DZA,Bordj Bou Arréridj,,23289.0,1012287793
Tadmaït,Tadmait,36.75,3.9,Algeria,DZ,DZA,Boumerdes,,22838.0,1012245949
Amoucha,Amoucha,36.3833,5.4167,Algeria,DZ,DZA,Sétif,,22767.0,1012766595
Bouzeghaia,Bouzeghaia,36.3333,1.25,Algeria,DZ,DZA,Chlef,,22590.0,1012465082
El Amria,El Amria,35.5333,-1.0167,Algeria,DZ,DZA,Aïn Temouchent,,22572.0,1012142201
Naciria,Naciria,36.75,3.8333,Algeria,DZ,DZA,Boumerdes,,22431.0,1012065880
Mechta Ouled Oulha,Mechta Ouled Oulha,35.6706,4.8778,Algeria,DZ,DZA,M’sila,,22369.0,1012235648
Kadiria,Kadiria,36.5333,3.6833,Algeria,DZ,DZA,Bouira,,22327.0,1012278992
Had Sahary,Had Sahary,35.3517,3.3608,Algeria,DZ,DZA,Djelfa,,22277.0,1012260250
Souahlia,Souahlia,35.0333,-1.8833,Algeria,DZ,DZA,Tlemcen,,22245.0,1012244161
Kheïredine,Kheiredine,35.9806,0.1681,Algeria,DZ,DZA,Mostaganem,,22241.0,1012833469
Ghriss,Ghriss,35.25,0.1667,Algeria,DZ,DZA,Mascara,,22151.0,1012428063
Bourkika,Bourkika,36.5,2.4833,Algeria,DZ,DZA,Tipaza,,22118.0,1012333996
Djinet,Djinet,36.8833,3.7167,Algeria,DZ,DZA,Boumerdes,,21966.0,1012989318
Robbah,Robbah,33.2811,6.9108,Algeria,DZ,DZA,El Oued,,21965.0,1012452718
Sayada,Sayada,35.95,0.1333,Algeria,DZ,DZA,Mostaganem,,21900.0,1012091747
Hassi Maameche,Hassi Maameche,35.8611,0.725,Algeria,DZ,DZA,Mostaganem,,21778.0,1012261877
Sidi Amrane,Sidi Amrane,33.5,6.0167,Algeria,DZ,DZA,Ouargla,,21772.0,1012838935
Sirat,Sirat,35.78,0.1919,Algeria,DZ,DZA,Mostaganem,,21677.0,1012574636
M’Chedallah,M'Chedallah,36.3667,4.2667,Algeria,DZ,DZA,Bouira,,21593.0,1012963260
Beni Douala,Beni Douala,36.6167,4.0833,Algeria,DZ,DZA,Tizi Ouzou,,21551.0,1012742443
Chebli,Chebli,36.5778,3.0083,Algeria,DZ,DZA,Blida,,21506.0,1012610923
Beni Mered,Beni Mered,36.5233,2.8617,Algeria,DZ,DZA,Blida,,21457.0,1012069606
Thenia,Thenia,36.7278,3.5539,Algeria,DZ,DZA,Boumerdes,,21439.0,1012908635
Lioua,Lioua,34.6375,5.3958,Algeria,DZ,DZA,Biskra,,21416.0,1012582927
Oum Drou,Oum Drou,36.2,1.3833,Algeria,DZ,DZA,Chlef,,21326.0,1012021528
Mansourah,Mansourah,36.0819,4.46,Algeria,DZ,DZA,Bordj Bou Arréridj,,21280.0,1012763485
Oued el Aneb,Oued el Aneb,36.8833,7.4833,Algeria,DZ,DZA,Annaba,,21088.0,1012241698
Tizi-n-Bechar,Tizi-n-Bechar,36.4311,5.36,Algeria,DZ,DZA,Bejaïa,,21086.0,1012925118
Sidi Lahssen,Sidi Lahssen,35.1633,-0.6958,Algeria,DZ,DZA,Sidi Bel Abbès,,20999.0,1012904397
Bordj Bounaama,Bordj Bounaama,35.85,1.6167,Algeria,DZ,DZA,Tissemsilt,,20864.0,1012176268
Beni Haoua,Beni Haoua,36.5333,1.5667,Algeria,DZ,DZA,Chlef,,20853.0,1012438035
El Hammadia,El Hammadia,35.9833,4.75,Algeria,DZ,DZA,Bordj Bou Arréridj,,20635.0,1012053807
Sour,Sour,36.0006,0.3414,Algeria,DZ,DZA,Mostaganem,,20625.0,1012308440
Aomar,Aomar,36.5,3.7667,Algeria,DZ,DZA,Bouira,,20532.0,1012376964
’Aïn el Bell,'Ain el Bell,34.35,3.2167,Algeria,DZ,DZA,Djelfa,,20436.0,1012893320
Reggane,Reggane,26.7203,0.1728,Algeria,DZ,DZA,Adrar,,20402.0,1012709576
’Aïn el Hammam,'Ain el Hammam,36.5714,4.3097,Algeria,DZ,DZA,Tizi Ouzou,,20401.0,1012595495
Tala Yfassene,Tala Yfassene,36.4583,5.0889,Algeria,DZ,DZA,Sétif,,20337.0,1012098651
Taïbet,Taibet,33.0833,6.3833,Algeria,DZ,DZA,Ouargla,,20174.0,1012688196
Abou el Hassan,Abou el Hassan,36.4167,1.2,Algeria,DZ,DZA,Chlef,,20164.0,1012585371
El Ancer,El Ancer,36.8,6.1667,Algeria,DZ,DZA,Jijel,,20070.0,1012048717
Temacine,Temacine,33.0219,6.0228,Algeria,DZ,DZA,Ouargla,,20067.0,1012215688
Mesra,Mesra,35.8333,0.1667,Algeria,DZ,DZA,Mostaganem,,20053.0,1012434328
Sidi Merouane,Sidi Merouane,36.5333,1.3333,Algeria,DZ,DZA,Chlef,,20018.0,1012829158
’Aïn Mabed,'Ain Mabed,34.8,3.1333,Algeria,DZ,DZA,Djelfa,,19997.0,1012464210
Merad,Merad,36.4667,2.4333,Algeria,DZ,DZA,Tipaza,,19916.0,1012048423
Rechaïga,Rechaiga,35.4081,1.9733,Algeria,DZ,DZA,Tiaret,,19830.0,1012559066
Bir Kasdali,Bir Kasdali,36.15,5.0333,Algeria,DZ,DZA,Bordj Bou Arréridj,,19622.0,1012664243
Arbaoun,Arbaoun,36.4667,5.65,Algeria,DZ,DZA,Sétif,,19383.0,1012971347
Charef,Charef,34.6167,2.8,Algeria,DZ,DZA,Djelfa,,19373.0,1012363446
Arbatache,Arbatache,36.6361,3.3708,Algeria,DZ,DZA,Boumerdes,,19356.0,1012866473
Oued el Abtal,Oued el Abtal,35.45,0.6833,Algeria,DZ,DZA,Mascara,,19184.0,1012385314
Tirmitine,Tirmitine,36.6618,3.9848,Algeria,DZ,DZA,Tizi Ouzou,,19027.0,1012932001
El Malah,El Malah,35.3883,-1.0944,Algeria,DZ,DZA,Aïn Temouchent,,18944.0,1012733766
Zahana,Zahana,35.5167,-0.4167,Algeria,DZ,DZA,Oran,,18839.0,1012966405
Ben ’Aknoûn,Ben 'Aknoun,36.75,3.0,Algeria,DZ,DZA,Tipaza,,18838.0,1012888050
Medjedel,Medjedel,35.15,3.6833,Algeria,DZ,DZA,M’sila,,18616.0,1012112929
Timoktene,Timoktene,27.0217,1.015,Algeria,DZ,DZA,Adrar,,18598.0,1012254407
Bougtob,Bougtob,34.0425,0.0892,Algeria,DZ,DZA,El Bayadh,,18568.0,1012574155
Bettioua,Bettioua,35.8,-0.2667,Algeria,DZ,DZA,Oran,,18215.0,1012337546
El Achir,El Achir,36.0667,4.6333,Algeria,DZ,DZA,Bordj Bou Arréridj,,18149.0,1012237984
Maoussa,Maoussa,35.3833,0.25,Algeria,DZ,DZA,Mascara,,18104.0,1012947518
Ben Daoud,Ben Daoud,35.7192,0.5203,Algeria,DZ,DZA,Relizane,,17953.0,1012893353
El Bordj,El Bordj,35.5158,0.3017,Algeria,DZ,DZA,Mascara,,17874.0,1012417700
Sidi Kada,Sidi Kada,35.3333,0.35,Algeria,DZ,DZA,Mascara,,17843.0,1012415719
Herenfa,Herenfa,36.2453,1.0458,Algeria,DZ,DZA,Chlef,,17799.0,1012061214
Beni Fouda,Beni Fouda,36.2861,5.6072,Algeria,DZ,DZA,Sétif,,17667.0,1012660842
El Omaria,El Omaria,36.2667,3.0333,Algeria,DZ,DZA,Médéa,,17661.0,1012262894
Fornaka,Fornaka,35.7517,-0.0161,Algeria,DZ,DZA,Mostaganem,,17647.0,1012695232
Sigus,Sigus,36.1167,6.7833,Algeria,DZ,DZA,Oum el Bouaghi,,17598.0,1012523818
Oued el Kheïr,Oued el Kheir,35.9503,0.3808,Algeria,DZ,DZA,Mostaganem,,17359.0,1012682433
Aïn Zaouïa,Ain Zaouia,36.55,3.8944,Algeria,DZ,DZA,Tizi Ouzou,,17320.0,1012695288
El Kouif,El Kouif,35.5,8.3167,Algeria,DZ,DZA,Tébessa,,17319.0,1012983282
Illizi,Illizi,26.505,8.4822,Algeria,DZ,DZA,Illizi,admin,17252.0,1012499058
Souaflia,Souaflia,35.85,0.3333,Algeria,DZ,DZA,Mostaganem,,17223.0,1012205882
Tizi Rached,Tizi Rached,36.6667,4.1833,Algeria,DZ,DZA,Tizi Ouzou,,17161.0,1012966884
Damous,Damous,36.55,1.7,Algeria,DZ,DZA,Chlef,,17111.0,1012315038
Bou Hanifia el Hamamat,Bou Hanifia el Hamamat,35.3167,-0.05,Algeria,DZ,DZA,Mascara,,16953.0,1012486609
Mers el Kebir,Mers el Kebir,35.7286,-0.7069,Algeria,DZ,DZA,Oran,,16950.0,1012308660
Sidi Daoud,Sidi Daoud,36.85,3.85,Algeria,DZ,DZA,Boumerdes,,16900.0,1012618002
Ighram,Ighram,36.4667,4.5167,Algeria,DZ,DZA,Tizi Ouzou,,16878.0,1012221855
Azeffoun,Azeffoun,36.9,4.4167,Algeria,DZ,DZA,Tizi Ouzou,,16847.0,1012290725
Aïn Feka,Ain Feka,35.4333,3.5833,Algeria,DZ,DZA,Djelfa,,16842.0,1012964896
’Aïn Abessa,'Ain Abessa,36.3,5.295,Algeria,DZ,DZA,Sétif,,16770.0,1012074116
Djouab,Djouab,36.1333,3.4333,Algeria,DZ,DZA,Médéa,,16751.0,1012121953
N’Goussa,N'Goussa,32.1408,5.3083,Algeria,DZ,DZA,Ouargla,,16581.0,1012414156
Tichi,Tichi,36.6667,5.1667,Algeria,DZ,DZA,Bejaïa,,16546.0,1012798792
Bordj Mokhtar,Bordj Mokhtar,21.3289,0.9542,Algeria,DZ,DZA,Bordj Badji Mokhtar,admin,16437.0,1012945794
Bou Hadjar,Bou Hadjar,36.5031,8.1053,Algeria,DZ,DZA,El Tarf,,16385.0,1012263583
Ouled Chebel,Ouled Chebel,36.6,3.0,Algeria,DZ,DZA,Blida,,16335.0,1012832805
Berriche,Berriche,35.9167,7.3833,Algeria,DZ,DZA,Oum el Bouaghi,,16274.0,1012630462
Naama,Naama,33.2622,-0.3144,Algeria,DZ,DZA,Naama,admin,16251.0,1012850542
Chorfa,Chorfa,36.3617,4.3308,Algeria,DZ,DZA,Bouira,,16173.0,1012035343
’Aïn Babouche,'Ain Babouche,35.9411,7.1856,Algeria,DZ,DZA,Oum el Bouaghi,,16129.0,1012030735
Medjana,Medjana,36.1333,4.6667,Algeria,DZ,DZA,Bordj Bou Arréridj,,16112.0,1012693898
El Ach,El Ach,35.95,4.6833,Algeria,DZ,DZA,Bordj Bou Arréridj,,16108.0,1012000004
Mecheraa Asfa,Mecheraa Asfa,35.3839,1.0533,Algeria,DZ,DZA,Tiaret,,16077.0,1012631861
Ouamri,Ouamri,36.2333,2.5667,Algeria,DZ,DZA,Aïn Defla,,15978.0,1012075283
Baghlia,Baghlia,36.8167,3.85,Algeria,DZ,DZA,Boumerdes,,15854.0,1012210217
Hammam M’Baïls,Hammam M'Bails,36.3258,7.6436,Algeria,DZ,DZA,Guelma,,15854.0,1012561885
Hadjadj,Hadjadj,36.1,0.3333,Algeria,DZ,DZA,Mostaganem,,15835.0,1012873431
Ouadhia,Ouadhia,36.55,4.0833,Algeria,DZ,DZA,Tizi Ouzou,,15771.0,1012312650
’Aïn el Arbaa,'Ain el Arbaa,35.4075,-0.8817,Algeria,DZ,DZA,Aïn Temouchent,,15683.0,1012550182
Boudjima,Boudjima,36.8,4.15,Algeria,DZ,DZA,Tizi Ouzou,,15628.0,1012379618
Mouiat Ouennsa,Mouiat Ouennsa,33.1969,6.7053,Algeria,DZ,DZA,El Oued,,15593.0,1012194512
Souagui,Souagui,36.1167,3.2333,Algeria,DZ,DZA,Médéa,,15536.0,1012702872
Ebn Ziad,Ebn Ziad,36.3833,6.4667,Algeria,DZ,DZA,Constantine,,15514.0,1012050199
Ain el Hadid,Ain el Hadid,35.0581,0.8833,Algeria,DZ,DZA,Tiaret,,15482.0,1012173360
Tizi-n-Tleta,Tizi-n-Tleta,36.5457,4.0571,Algeria,DZ,DZA,Tizi Ouzou,,15479.0,1012925920
Guerouma,Guerouma,36.4833,3.4333,Algeria,DZ,DZA,Bouira,,15306.0,1012937235
Medrissa,Medrissa,34.9,1.2333,Algeria,DZ,DZA,Tiaret,,15293.0,1012957867
Sidi Ghiles,Sidi Ghiles,36.5833,2.1167,Algeria,DZ,DZA,Tipaza,,15281.0,1012310782
Chemini,Chemini,36.6,4.6167,Algeria,DZ,DZA,Tizi Ouzou,,15274.0,1012371014
Boumahra Ahmed,Boumahra Ahmed,36.45,7.5167,Algeria,DZ,DZA,Guelma,,15273.0,1012503879
Es Sebt,Es Sebt,36.6624,7.0774,Algeria,DZ,DZA,Skikda,,15266.0,1012719955
Melouza,Melouza,35.9808,4.1861,Algeria,DZ,DZA,Bordj Bou Arréridj,,15190.0,1012633174
Mazagran,Mazagran,35.9019,0.7269,Algeria,DZ,DZA,Mostaganem,,15120.0,1012333313
Belkheir,Belkheir,36.4667,7.4833,Algeria,DZ,DZA,Guelma,,14979.0,1012094424
Bouchegouf,Bouchegouf,36.4667,7.4833,Algeria,DZ,DZA,Guelma,,14979.0,1012850453
Texenna,Texenna,36.65,5.7833,Algeria,DZ,DZA,Jijel,,14974.0,1012088200
El Hadjira,El Hadjira,32.6167,5.5167,Algeria,DZ,DZA,Ouargla,,14965.0,1012333168
Tsabit,Tsabit,28.3503,-0.2208,Algeria,DZ,DZA,Adrar,,14895.0,1012512451
Harchoune,Harchoune,36.1139,1.5056,Algeria,DZ,DZA,Chlef,,14869.0,1012500238
Oulad Dahmane,Oulad Dahmane,36.3667,3.4667,Algeria,DZ,DZA,Médéa,,14777.0,1012179843
El Ateuf,El Ateuf,32.4775,3.7478,Algeria,DZ,DZA,Ghardaïa,,14752.0,1012236470
Labiod Medjadja,Labiod Medjadja,36.25,1.4,Algeria,DZ,DZA,Chlef,,14733.0,1012893577
Chaabat el Leham,Chaabat el Leham,35.3361,-1.1011,Algeria,DZ,DZA,Aïn Temouchent,,14730.0,1012304289
Bellaa,Bellaa,36.2,5.85,Algeria,DZ,DZA,Sétif,,14666.0,1012089071
Djanet,Djanet,24.555,9.4853,Algeria,DZ,DZA,Djanet,admin,14655.0,1012827195
Djebahia,Djebahia,36.4764,3.7578,Algeria,DZ,DZA,Bouira,,14630.0,1012694694
Benfreha,Benfreha,35.6933,-0.4192,Algeria,DZ,DZA,Oran,,14565.0,1012584749
Adekar Kebouche,Adekar Kebouche,36.6833,4.6667,Algeria,DZ,DZA,Bejaïa,,14552.0,1012937154
Blidet Amor,Blidet Amor,32.9514,5.9806,Algeria,DZ,DZA,Ouargla,,14540.0,1012037042
Aïn Nouissy,Ain Nouissy,35.8,0.05,Algeria,DZ,DZA,Mostaganem,,14530.0,1012768863
Ouled Sidi Brahim,Ouled Sidi Brahim,36.3667,3.7167,Algeria,DZ,DZA,Bouira,,14499.0,1012821401
Ahmed Rachedi,Ahmed Rachedi,36.4,6.1167,Algeria,DZ,DZA,Mila,,14489.0,1012767031
Aït Yaïch,Ait Yaich,36.5811,4.3303,Algeria,DZ,DZA,Tizi Ouzou,,14439.0,1012677951
Iflissen,Iflissen,36.8636,4.2203,Algeria,DZ,DZA,Tizi Ouzou,,14311.0,1012326451
Mnagueur,Mnagueur,33.1264,6.3519,Algeria,DZ,DZA,Ouargla,,14179.0,1012316472
Mers el Hadjad,Mers el Hadjad,35.7833,-0.1667,Algeria,DZ,DZA,Oran,,14167.0,1012535220
Bougzoul,Bougzoul,35.6997,2.8478,Algeria,DZ,DZA,Médéa,,14094.0,1012776325
Sidi Ben Adda,Sidi Ben Adda,35.3,-1.1833,Algeria,DZ,DZA,Aïn Temouchent,,14086.0,1012002779
Moudjbara,Moudjbara,34.5037,3.4704,Algeria,DZ,DZA,Djelfa,,14052.0,1012667528
Khadra,Khadra,36.25,0.5667,Algeria,DZ,DZA,Mostaganem,,14045.0,1012234463
Selmana,Selmana,34.1833,3.6,Algeria,DZ,DZA,Djelfa,,14008.0,1012984231
Takerbouzt,Takerbouzt,36.418,4.3428,Algeria,DZ,DZA,Bouira,,14000.0,1012858445
Tarhzout,Tarhzout,33.4833,6.75,Algeria,DZ,DZA,El Oued,,13934.0,1012815881
Oued Taria,Oued Taria,35.1167,0.0833,Algeria,DZ,DZA,Mascara,,13916.0,1012925587
Tidjelabine,Tidjelabine,36.7333,3.5,Algeria,DZ,DZA,Boumerdes,,13888.0,1012249364
Megarine,Megarine,33.1944,6.0944,Algeria,DZ,DZA,Ouargla,,13751.0,1012423142
Settara,Settara,36.7167,6.3333,Algeria,DZ,DZA,Jijel,,13748.0,1012835010
El Kerma,El Kerma,35.6167,-0.5667,Algeria,DZ,DZA,Oran,,13637.0,1012531081
Abadla,Abadla,31.0167,-2.7333,Algeria,DZ,DZA,Béchar,,13636.0,1012262770
Menaa,Menaa,35.1667,6.0,Algeria,DZ,DZA,Biskra,,13510.0,1012659729
Kenadsa,Kenadsa,31.5333,-2.4167,Algeria,DZ,DZA,Béchar,,13492.0,1012961270
El Hachimia,El Hachimia,36.2333,3.8333,Algeria,DZ,DZA,Bouira,,13482.0,1012594141
Bou Sfer,Bou Sfer,35.7108,-0.8106,Algeria,DZ,DZA,Oran,,13450.0,1012235414
Chahbounia,Chahbounia,35.55,2.6,Algeria,DZ,DZA,Médéa,,13405.0,1012875763
Bouzina,Bouzina,35.2833,6.1167,Algeria,DZ,DZA,Batna,,13383.0,1012351496
Sidi Abd el Moumene,Sidi Abd el Moumene,35.6528,0.0139,Algeria,DZ,DZA,Mascara,,13306.0,1012411970
Bouskene,Bouskene,36.1833,3.2333,Algeria,DZ,DZA,Médéa,,13302.0,1012674329
Oued Tlélat,Oued Tlelat,35.55,-0.45,Algeria,DZ,DZA,Oran,,13289.0,1012265788
Aïn Youcef,Ain Youcef,35.05,-1.3667,Algeria,DZ,DZA,Tlemcen,,13234.0,1012281811
Afir,Afir,36.7676,3.7029,Algeria,DZ,DZA,Boumerdes,,13223.0,1012675026
Benairia,Benairia,36.35,1.3833,Algeria,DZ,DZA,Chlef,,13200.0,1012515960
Aïn Lechiakh,Ain Lechiakh,36.1569,2.4042,Algeria,DZ,DZA,Aïn Defla,,13196.0,1012316027
’Aïn Mouilah,'Ain Mouilah,34.75,3.4833,Algeria,DZ,DZA,Djelfa,,13155.0,1012992575
Sali,Sali,25.9606,-0.0275,Algeria,DZ,DZA,Adrar,,13138.0,1012996789
Bensekrane,Bensekrane,35.0667,-1.2167,Algeria,DZ,DZA,Tlemcen,,13130.0,1012963304
’Aïn Tolba,'Ain Tolba,35.2483,-1.2489,Algeria,DZ,DZA,Aïn Temouchent,,12933.0,1012934787
Debbache el Hadj Douadi,Debbache el Hadj Douadi,36.275,6.1764,Algeria,DZ,DZA,Mila,,12716.0,1012146134
Mechtras,Mechtras,36.55,4.0,Algeria,DZ,DZA,Tizi Ouzou,,12683.0,1012201497
Nakhla,Nakhla,33.2833,6.95,Algeria,DZ,DZA,El Oued,,12652.0,1012158713
Ouzera,Ouzera,36.25,2.85,Algeria,DZ,DZA,Médéa,,12650.0,1012020190
Ziama Mansouria,Ziama Mansouria,36.6667,5.4833,Algeria,DZ,DZA,Bejaïa,,12642.0,1012262083
Gueltat Sidi Saad,Gueltat Sidi Saad,34.3,1.95,Algeria,DZ,DZA,Laghouat,,12567.0,1012695330
El Adjiba,El Adjiba,36.3333,4.15,Algeria,DZ,DZA,Bouira,,12486.0,1012383350
’Aïn el Assel,'Ain el Assel,36.7864,8.3825,Algeria,DZ,DZA,El Tarf,,12482.0,1012143253
Arhribs,Arhribs,36.8022,4.3228,Algeria,DZ,DZA,Tizi Ouzou,,12474.0,1012696122
Iferhounene,Iferhounene,36.5167,4.3833,Algeria,DZ,DZA,Tizi Ouzou,,12460.0,1012745524
El Aouana,El Aouana,36.7667,5.6,Algeria,DZ,DZA,Jijel,,12384.0,1012390845
Sidi Makhlouf,Sidi Makhlouf,34.1333,3.0167,Algeria,DZ,DZA,Laghouat,,12292.0,1012199063
Sidi Aoun,Sidi Aoun,33.5422,6.905,Algeria,DZ,DZA,El Oued,,12235.0,1012838322
Hassi Fedoul,Hassi Fedoul,35.4333,2.2167,Algeria,DZ,DZA,Tiaret,,12221.0,1012584591
Yakouren,Yakouren,36.7333,4.45,Algeria,DZ,DZA,Tizi Ouzou,,12203.0,1012612535
’Aïn Kerma,'Ain Kerma,36.5939,8.2011,Algeria,DZ,DZA,El Tarf,,12182.0,1012695956
Hassi el Ghella,Hassi el Ghella,35.45,-1.05,Algeria,DZ,DZA,Aïn Temouchent,,12118.0,1012412717
El Marsa,El Marsa,36.8111,3.2556,Algeria,DZ,DZA,Alger,,12100.0,1012716943
Si Mustapha,Si Mustapha,36.7247,3.6153,Algeria,DZ,DZA,Boumerdes,,12087.0,1012130143
Froha,Froha,35.3,0.1333,Algeria,DZ,DZA,Mascara,,11969.0,1012211224
Stidia,Stidia,35.8333,-0.3,Algeria,DZ,DZA,Mostaganem,,11965.0,1012341132
Tigzirt,Tigzirt,36.9,4.1167,Algeria,DZ,DZA,Tizi Ouzou,,11962.0,1012150824
Oued Cheham,Oued Cheham,36.3833,7.7667,Algeria,DZ,DZA,Guelma,,11795.0,1012327788
Fenoughil,Fenoughil,27.6028,-0.3056,Algeria,DZ,DZA,Adrar,,11793.0,1012179150
Oued Seguin,Oued Seguin,36.171,6.42,Algeria,DZ,DZA,Mila,,11792.0,1012804133
Aougrout,Aougrout,28.7,0.3167,Algeria,DZ,DZA,Adrar,,11784.0,1012326755
Sidi Ladjel,Sidi Ladjel,35.4333,2.5,Algeria,DZ,DZA,Djelfa,,11776.0,1012152948
Bechloul,Bechloul,36.3167,4.0667,Algeria,DZ,DZA,Bouira,,11775.0,1012563877
Tafaraoui,Tafaraoui,35.4833,-0.5167,Algeria,DZ,DZA,Oran,,11600.0,1012845017
’Aïn Roua,'Ain Roua,36.3344,5.1806,Algeria,DZ,DZA,Sétif,,11499.0,1012529757
El Ançor,El Ancor,35.6833,-0.8667,Algeria,DZ,DZA,Oran,,11469.0,1012598945
Dhalaa,Dhalaa,35.4611,7.5472,Algeria,DZ,DZA,Khenchela,,11439.0,1012574182
Sidi Baizid,Sidi Baizid,35.75,2.3833,Algeria,DZ,DZA,Médéa,,11360.0,1012677320
Charouine,Charouine,29.0186,-0.2578,Algeria,DZ,DZA,Adrar,,11347.0,1012755999
Teniet el Abed,Teniet el Abed,35.2469,6.1906,Algeria,DZ,DZA,Batna,,11338.0,1012253314
Djemmorah,Djemmorah,35.0667,5.8333,Algeria,DZ,DZA,Biskra,,11218.0,1012491521
Beni Ounif,Beni Ounif,32.05,-1.25,Algeria,DZ,DZA,Béchar,,11209.0,1012327989
Galbois,Galbois,36.2,4.49,Algeria,DZ,DZA,Bordj Bou Arréridj,,11170.0,1012721329
’Aïn Taghrout,'Ain Taghrout,36.1289,5.0767,Algeria,DZ,DZA,Bordj Bou Arréridj,,11103.0,1012926101
Ksar Sbahi,Ksar Sbahi,36.0833,7.25,Algeria,DZ,DZA,Oum el Bouaghi,,11095.0,1012983658
El Hamel,El Hamel,35.1333,4.0833,Algeria,DZ,DZA,M’sila,,11018.0,1012802688
Bir Ghbalou,Bir Ghbalou,36.2642,3.5836,Algeria,DZ,DZA,Médéa,,11016.0,1012249358
Tizi,Tizi,35.3167,0.0667,Algeria,DZ,DZA,Mascara,,10915.0,1012409679
Oued Sebbah,Oued Sebbah,35.3725,-0.8114,Algeria,DZ,DZA,Aïn Temouchent,,10905.0,1012143722
Beni Abbès,Beni Abbes,30.08,-2.1,Algeria,DZ,DZA,Béni Abbès,admin,10885.0,1012633792
Bouchagroun,Bouchagroun,34.7217,5.4656,Algeria,DZ,DZA,Biskra,,10800.0,1012603355
Bou Khadra,Bou Khadra,35.7444,8.0325,Algeria,DZ,DZA,Tébessa,,10701.0,1012924503
Sidi Namane,Sidi Namane,36.7581,3.9839,Algeria,DZ,DZA,Boumerdes,,10688.0,1012820383
Asfour,Asfour,36.6667,7.9833,Algeria,DZ,DZA,El Tarf,,10632.0,1012021539
Bouhmama,Bouhmama,35.2833,6.7333,Algeria,DZ,DZA,Khenchela,,10614.0,1012904876
’Aïn Fekan,'Ain Fekan,35.225,-0.0017,Algeria,DZ,DZA,Mascara,,10573.0,1012085133
Bir Ben Laabed,Bir Ben Laabed,36.2175,3.4267,Algeria,DZ,DZA,Médéa,,10543.0,1012633395
Rabta,Rabta,35.9167,4.75,Algeria,DZ,DZA,Bordj Bou Arréridj,,10529.0,1012551561
Boudouaou el Bahri,Boudouaou el Bahri,36.7733,3.3872,Algeria,DZ,DZA,Boumerdes,,10512.0,1012344835
Bordj Okhriss,Bordj Okhriss,36.0833,3.9667,Algeria,DZ,DZA,Bouira,,10467.0,1012057188
Sidi Brahim,Sidi Brahim,35.2606,-0.5675,Algeria,DZ,DZA,Sidi Bel Abbès,,10371.0,1012460249
Ben Nasseur,Ben Nasseur,33.1108,6.4411,Algeria,DZ,DZA,Ouargla,,10330.0,1012048018
Bel Imour,Bel Imour,35.9806,4.8797,Algeria,DZ,DZA,Bordj Bou Arréridj,,10301.0,1012714087
Bordj Zemoura,Bordj Zemoura,36.2667,4.85,Algeria,DZ,DZA,Bordj Bou Arréridj,,10296.0,1012574590
’Aïn Tellout,'Ain Tellout,34.9167,-0.9667,Algeria,DZ,DZA,Tlemcen,,10286.0,1012421224
Sidi Embarek,Sidi Embarek,36.1039,4.9119,Algeria,DZ,DZA,Bordj Bou Arréridj,,10281.0,1012772499
Jean-Mermoz,Jean-Mermoz,35.5606,-0.0844,Algeria,DZ,DZA,Mascara,,10240.0,1012161505
Benyahia Abderrahmane,Benyahia Abderrahmane,36.2333,6.0167,Algeria,DZ,DZA,Mila,,10222.0,1012986319
Zelfana,Zelfana,32.3969,4.2261,Algeria,DZ,DZA,Ghardaïa,,10161.0,1012314870
Sidi Abdelaziz,Sidi Abdelaziz,36.85,6.05,Algeria,DZ,DZA,Jijel,,10153.0,1012683114
Ouled Rabah,Ouled Rabah,36.2833,3.1333,Algeria,DZ,DZA,Médéa,,10142.0,1012243092
Oggaz,Oggaz,35.5667,-0.2667,Algeria,DZ,DZA,Mascara,,10120.0,1012812318
M’Chouneche,M'Chouneche,34.95,6.0,Algeria,DZ,DZA,Biskra,,10107.0,1012523378
Zérizer,Zerizer,36.7272,7.8947,Algeria,DZ,DZA,El Tarf,,10105.0,1012368997
Kouinine,Kouinine,33.4,6.8333,Algeria,DZ,DZA,El Oued,,10076.0,1012854062
’Aïn Naga,'Ain Naga,34.6883,6.0886,Algeria,DZ,DZA,Biskra,,10054.0,1012796439
Ben N’Choud,Ben N'Choud,36.8622,3.8806,Algeria,DZ,DZA,Boumerdes,,9985.0,1012044380
Souama,Souama,36.6417,4.3417,Algeria,DZ,DZA,Tizi Ouzou,,9954.0,1012240654
Tamzoura,Tamzoura,35.4167,-0.65,Algeria,DZ,DZA,Aïn Temouchent,,9944.0,1012188576
Bekkaria,Bekkaria,35.3722,8.2422,Algeria,DZ,DZA,Tébessa,,9917.0,1012898761
Boufatis,Boufatis,35.6833,-0.4167,Algeria,DZ,DZA,Oran,,9906.0,1012133037
Ouled Brahim,Ouled Brahim,36.2444,2.9336,Algeria,DZ,DZA,Médéa,,9870.0,1012857780
Toudja,Toudja,36.75,4.9,Algeria,DZ,DZA,Bejaïa,,9827.0,1012114797
Bou Nouh,Bou Nouh,36.5,3.9333,Algeria,DZ,DZA,Tizi Ouzou,,9731.0,1012718665
’Aïn Kihal,'Ain Kihal,35.2044,-1.1961,Algeria,DZ,DZA,Aïn Temouchent,,9589.0,1012357673
Tixter,Tixter,36.05,5.0833,Algeria,DZ,DZA,Bordj Bou Arréridj,,9493.0,1012350440
Tamentit,Tamentit,27.7672,-0.2678,Algeria,DZ,DZA,Adrar,,9481.0,1012864393
Negrine,Negrine,34.4833,7.5167,Algeria,DZ,DZA,Tébessa,,9445.0,1012491039
Tarmount,Tarmount,35.8167,4.2833,Algeria,DZ,DZA,M’sila,,9438.0,1012705797
Assi-Ben Okba,Assi-Ben Okba,35.7294,-0.4658,Algeria,DZ,DZA,Oran,,9435.0,1012482137
Tassera,Tassera,36.0369,5.0022,Algeria,DZ,DZA,Bordj Bou Arréridj,,9358.0,1012745319
Lac des Oiseaux,Lac des Oiseaux,36.7833,8.1167,Algeria,DZ,DZA,El Tarf,,9320.0,1012891281
Oued Essalem,Oued Essalem,35.5833,0.9167,Algeria,DZ,DZA,Relizane,,9319.0,1012289327
Ouled Rached,Ouled Rached,36.2119,4.1106,Algeria,DZ,DZA,Bouira,,9311.0,1012727170
Aïn el Hadjar,Ain el Hadjar,36.3333,3.8,Algeria,DZ,DZA,Bouira,,9260.0,1012545954
Zoubiria,Zoubiria,36.0667,2.9,Algeria,DZ,DZA,Médéa,,9236.0,1012576132
I-n-Amenas,I-n-Amenas,28.0408,9.5431,Algeria,DZ,DZA,Illizi,,9225.0,1012221429
Tenedla,Tenedla,33.6753,6.0339,Algeria,DZ,DZA,El Oued,,9193.0,1012128905
Hacine,Hacine,35.4569,-0.0025,Algeria,DZ,DZA,Mascara,,9176.0,1012789769
Abalessa,Abalessa,22.89,4.8472,Algeria,DZ,DZA,Tamanrasset,,9163.0,1012479386
Ifigha,Ifigha,36.6667,4.4167,Algeria,DZ,DZA,Tizi Ouzou,,9160.0,1012938624
Nechmeya,Nechmeya,36.6114,7.5133,Algeria,DZ,DZA,Annaba,,9113.0,1012491182
Ksar Belezma,Ksar Belezma,35.6756,5.9033,Algeria,DZ,DZA,Batna,,9033.0,1012437070
Ouled Rahou,Ouled Rahou,36.0069,0.5919,Algeria,DZ,DZA,Mostaganem,,8948.0,1012100665
Ben Chicao,Ben Chicao,36.1997,2.8486,Algeria,DZ,DZA,Médéa,,8946.0,1012914449
Seddouk Oufella,Seddouk Oufella,36.6061,4.6389,Algeria,DZ,DZA,Bejaïa,,8931.0,1012348181
Bouati Mahmoud,Bouati Mahmoud,36.5833,7.3333,Algeria,DZ,DZA,Guelma,,8823.0,1012883098
El Outaya,El Outaya,35.0333,5.6,Algeria,DZ,DZA,Biskra,,8787.0,1012253605
Chahana,Chahana,36.6794,5.9572,Algeria,DZ,DZA,Jijel,,8781.0,1012049783
Boukhralfa,Boukhralfa,36.6144,5.0872,Algeria,DZ,DZA,Bejaïa,,8766.0,1012066745
Lichana,Lichana,34.7247,5.4325,Algeria,DZ,DZA,Biskra,,8740.0,1012350331
Chetma,Chetma,34.85,5.8167,Algeria,DZ,DZA,Biskra,,8677.0,1012778792
Bouaiche,Bouaiche,35.5528,2.3586,Algeria,DZ,DZA,Médéa,,8635.0,1012736363
Amalou,Amalou,36.4778,4.6333,Algeria,DZ,DZA,Bejaïa,,8602.0,1012045463
El Ghomri,El Ghomri,35.6833,0.2,Algeria,DZ,DZA,Mostaganem,,8585.0,1012196350
Tamza,Tamza,35.3167,6.8333,Algeria,DZ,DZA,Khenchela,,8580.0,1012339760
Ouled Abbes,Ouled Abbes,36.2167,1.4833,Algeria,DZ,DZA,Chlef,,8578.0,1012872981
Tifra,Tifra,36.6667,4.7,Algeria,DZ,DZA,Bejaïa,,8547.0,1012591585
In Guezzam,In Guezzam,19.5686,5.7722,Algeria,DZ,DZA,In Guezzam,admin,7045.0,1012000031
I-n-Amguel,I-n-Amguel,23.6936,5.1647,Algeria,DZ,DZA,Tamanrasset,,4208.0,1012162135
