city,city_ascii,lat,lng,country,iso2,iso3,admin_name,capital,population,id
Delhi,Delhi,28.61,77.23,India,IN,IND,Delhi,admin,32226000.0,1356872604
Mumbai,Mumbai,19.0761,72.8775,India,IN,IND,Mahārāshtra,admin,24973000.0,1356226629
Kolkāta,Kolkata,22.5675,88.37,India,IN,IND,West Bengal,admin,18502000.0,1356060520
Bangalore,Bangalore,12.9789,77.5917,India,IN,IND,Karnātaka,admin,15386000.0,1356410365
Chennai,Chennai,13.0825,80.275,India,IN,IND,Tamil Nādu,admin,12395000.0,1356374944
Hyderābād,Hyderabad,17.3617,78.4747,India,IN,IND,Telangāna,admin,10494000.0,1356871768
Pune,Pune,18.5203,73.8567,India,IN,IND,Mahārāshtra,,8231000.0,1356081074
Ahmedabad,Ahmedabad,23.0225,72.5714,India,IN,IND,Gujarāt,minor,8009000.0,1356304381
Sūrat,Surat,21.1702,72.8311,India,IN,IND,Gujarāt,,6538000.0,1356758738
Lucknow,Lucknow,26.85,80.95,India,IN,IND,Uttar Pradesh,admin,3382000.0,1356891790
Jaipur,Jaipur,26.9,75.8,India,IN,IND,Rājasthān,admin,3073350.0,1356293537
Kanpur,Kanpur,26.4499,80.3319,India,IN,IND,Uttar Pradesh,,2701324.0,1356575238
Mirzāpur,Mirzapur,25.146,82.569,India,IN,IND,Uttar Pradesh,,2496970.0,1356427908
Nāgpur,Nagpur,21.1497,79.0806,India,IN,IND,Mahārāshtra,,2405665.0,1356365743
Ghāziābād,Ghaziabad,28.67,77.42,India,IN,IND,Uttar Pradesh,,2375820.0,1356691871
Supaul,Supaul,26.126,86.605,India,IN,IND,Bihār,,2229076.0,1356015995
Vadodara,Vadodara,22.3,73.2,India,IN,IND,Gujarāt,,2065771.0,1356705249
Rājkot,Rajkot,22.3,70.7833,India,IN,IND,Gujarāt,,2043000.0,1356317190
Vishākhapatnam,Vishakhapatnam,17.7042,83.2978,India,IN,IND,Andhra Pradesh,,2035922.0,1356692563
Indore,Indore,22.7167,75.8472,India,IN,IND,Madhya Pradesh,,1994397.0,1356402812
Thāne,Thane,19.1972,72.9722,India,IN,IND,Mahārāshtra,,1886941.0,1356681152
Bhopāl,Bhopal,23.2599,77.4126,India,IN,IND,Madhya Pradesh,admin,1798218.0,1356734039
Pimpri-Chinchwad,Pimpri-Chinchwad,18.6186,73.8037,India,IN,IND,Mahārāshtra,,1727692.0,1356475483
Patna,Patna,25.594,85.1376,India,IN,IND,Bihār,admin,1684222.0,1356821429
Bilāspur,Bilaspur,22.09,82.15,India,IN,IND,Chhattīsgarh,,1625502.0,1356820491
Ludhiāna,Ludhiana,30.91,75.85,India,IN,IND,Punjab,,1618879.0,1356929498
Āgra,Agra,27.18,78.02,India,IN,IND,Uttar Pradesh,,1585704.0,1356187395
Madurai,Madurai,9.9252,78.1198,India,IN,IND,Tamil Nādu,minor,1561129.0,1356257289
Jamshedpur,Jamshedpur,22.7925,86.1842,India,IN,IND,Jhārkhand,,1558000.0,1356501259
Prayagraj,Prayagraj,25.4358,81.8464,India,IN,IND,Uttar Pradesh,,1536218.0,1356718332
Nāsik,Nasik,19.9975,73.7898,India,IN,IND,Mahārāshtra,,1486053.0,1356562598
Farīdābād,Faridabad,28.4211,77.3078,India,IN,IND,Haryāna,,1414050.0,1356013205
Meerut,Meerut,28.98,77.71,India,IN,IND,Uttar Pradesh,,1305429.0,1356390476
Jabalpur,Jabalpur,23.1667,79.9333,India,IN,IND,Madhya Pradesh,,1267564.0,1356115460
Kalyān,Kalyan,19.2502,73.1602,India,IN,IND,Mahārāshtra,,1246381.0,1356172246
Vasai-Virar,Vasai-Virar,19.3607,72.7956,India,IN,IND,Mahārāshtra,,1221233.0,1356707797
Najafgarh,Najafgarh,28.6092,76.9798,India,IN,IND,Delhi,,1203180.0,1356180206
Vārānasi,Varanasi,25.3189,83.0128,India,IN,IND,Uttar Pradesh,,1198491.0,1356145782
Srīnagar,Srinagar,34.09,74.79,India,IN,IND,Jammu and Kashmīr,admin,1180570.0,1356442950
Aurangābād,Aurangabad,19.88,75.32,India,IN,IND,Mahārāshtra,,1175116.0,1356840670
Dhanbād,Dhanbad,23.7998,86.4305,India,IN,IND,Jhārkhand,,1162472.0,1356103392
Amritsar,Amritsar,31.64,74.86,India,IN,IND,Punjab,,1132383.0,1356926507
Alīgarh,Aligarh,27.88,78.08,India,IN,IND,Uttar Pradesh,,1131160.0,1356076391
Guwāhāti,Guwahati,26.1722,91.7458,India,IN,IND,Assam,,1116267.0,1356593800
Hāora,Haora,22.58,88.3294,India,IN,IND,West Bengal,,1077075.0,1356986516
Rānchi,Ranchi,23.36,85.33,India,IN,IND,Jhārkhand,admin,1073440.0,1356110588
Gwalior,Gwalior,26.2124,78.1772,India,IN,IND,Madhya Pradesh,,1069276.0,1356363967
Chandīgarh,Chandigarh,30.75,76.78,India,IN,IND,Chandīgarh,admin,1055450.0,1356739179
Haldwāni,Haldwani,29.22,79.52,India,IN,IND,Uttarākhand,,1050000.0,1356040854
Vijayavāda,Vijayawada,16.5193,80.6305,India,IN,IND,Andhra Pradesh,,1048240.0,1356807575
Jodhpur,Jodhpur,26.28,73.02,India,IN,IND,Rājasthān,,1033918.0,1356727084
Raipur,Raipur,21.2444,81.6306,India,IN,IND,Chhattīsgarh,admin,1010087.0,1356374983
Kota,Kota,25.18,75.83,India,IN,IND,Rājasthān,,1001694.0,1356820310
Bareilly,Bareilly,28.364,79.415,India,IN,IND,Uttar Pradesh,,1000000.0,1356698199
Coimbatore,Coimbatore,11.0167,76.9556,India,IN,IND,Tamil Nādu,,959823.0,1356999503
Solāpur,Solapur,17.68,75.92,India,IN,IND,Mahārāshtra,,951558.0,1356314385
Hubli,Hubli,15.3502,75.1376,India,IN,IND,Karnātaka,,943788.0,1356422270
Trichinopoly,Trichinopoly,10.7903,78.7047,India,IN,IND,Tamil Nādu,,916857.0,1356884472
Morādābād,Moradabad,28.8319,78.7764,India,IN,IND,Uttar Pradesh,,889810.0,1356269375
Tiruppūr,Tiruppur,11.1085,77.3411,India,IN,IND,Tamil Nādu,,877778.0,1356539761
Gurgaon,Gurgaon,28.456,77.029,India,IN,IND,Haryāna,,876824.0,1356836043
Jalandhar,Jalandhar,31.2569,75.4432,India,IN,IND,Punjab,,873725.0,1356494816
Bhubaneshwar,Bhubaneshwar,20.2644,85.8281,India,IN,IND,Odisha,admin,837737.0,1356140143
Bhayandar,Bhayandar,19.29,72.85,India,IN,IND,Mahārāshtra,,809378.0,1356019118
Patiāla,Patiala,30.34,76.38,India,IN,IND,Punjab,,763280.0,1356458416
Shīshgarh,Shishgarh,28.72,79.32,India,IN,IND,Uttar Pradesh,,753815.0,1356494610
Thiruvananthapuram,Thiruvananthapuram,8.5241,76.9366,India,IN,IND,Kerala,admin,743691.0,1356024354
Bhiwandi,Bhiwandi,19.2967,73.0631,India,IN,IND,Mahārāshtra,,709665.0,1356763571
Sahāranpur,Saharanpur,29.964,77.546,India,IN,IND,Uttar Pradesh,,705478.0,1356139858
Warangal,Warangal,17.9689,79.5941,India,IN,IND,Telangāna,,704570.0,1356851618
Shiliguri,Shiliguri,26.71,88.43,India,IN,IND,West Bengal,,701489.0,1356724691
Salem,Salem,11.65,78.15,India,IN,IND,Tamil Nādu,,693236.0,1356567087
Kochi,Kochi,9.9312,76.2673,India,IN,IND,Kerala,,677381.0,1356707865
Dhūlia,Dhulia,20.8997,74.7697,India,IN,IND,Mahārāshtra,,675000.0,1356224695
Gorakhpur,Gorakhpur,26.7637,83.4039,India,IN,IND,Uttar Pradesh,,673446.0,1356190221
Guntūr,Guntur,16.3008,80.4428,India,IN,IND,Andhra Pradesh,,670073.0,1356374905
Bhāngar,Bhangar,22.58,88.42,India,IN,IND,West Bengal,,670000.0,1356177796
Narela,Narela,28.8527,77.0929,India,IN,IND,Delhi,,661994.0,1356542019
Karaikandi,Karaikandi,24.8309,92.6143,India,IN,IND,Assam,,659260.0,1356669973
Bhāvnagar,Bhavnagar,21.76,72.15,India,IN,IND,Gujarāt,,643365.0,1356982375
Noida,Noida,28.57,77.32,India,IN,IND,Uttar Pradesh,,637272.0,1356002491
Bhilai,Bhilai,21.21,81.38,India,IN,IND,Chhattīsgarh,,624700.0,1356098574
Mangalore,Mangalore,12.8681,74.8425,India,IN,IND,Karnātaka,,623841.0,1356972351
Bihtā,Bihta,25.5619,84.87,India,IN,IND,Bihār,,617427.0,1356234338
Cuttack,Cuttack,20.5236,85.7881,India,IN,IND,Odisha,,606007.0,1356872061
Salīmpur,Salimpur,26.3,83.9167,India,IN,IND,Uttar Pradesh,,604483.0,1356110964
Raurkela,Raurkela,22.2492,84.8828,India,IN,IND,Odisha,,600000.0,1356096816
Tumkūr,Tumkur,13.34,77.1,India,IN,IND,Karnātaka,,599078.0,1356033724
Tenkāsi,Tenkasi,8.9564,77.3152,India,IN,IND,Tamil Nādu,,580000.0,1356465590
Dehra Dūn,Dehra Dun,30.345,78.029,India,IN,IND,Uttarākhand,admin,578420.0,1356970407
Kottayam,Kottayam,9.5916,76.5222,India,IN,IND,Kerala,,571856.0,1356307269
Durgāpur,Durgapur,23.55,87.32,India,IN,IND,West Bengal,,566937.0,1356045686
Āsansol,Asansol,23.68,86.99,India,IN,IND,West Bengal,,563917.0,1356093694
Bokaro Steel City,Bokaro Steel City,23.67,86.15,India,IN,IND,Jhārkhand,,563417.0,1356201241
Kolhāpur,Kolhapur,16.6917,74.2333,India,IN,IND,Mahārāshtra,,561489.0,1356110593
Nava Raipur,Nava Raipur,21.161,81.787,India,IN,IND,Chhattīsgarh,,560000.0,1356090025
Ajmer,Ajmer,26.4499,74.6399,India,IN,IND,Rājasthān,,551101.0,1356058258
Nānded,Nanded,19.15,77.3,India,IN,IND,Mahārāshtra,,550439.0,1356722310
Amrāvati,Amravati,20.9258,77.7647,India,IN,IND,Mahārāshtra,,549370.0,1356462099
Nellore,Nellore,14.45,79.99,India,IN,IND,Andhra Pradesh,,547621.0,1356280972
Dispur,Dispur,26.1397,91.7925,India,IN,IND,Assam,admin,534872.0,1356960169
Gulbarga,Gulbarga,17.329,76.825,India,IN,IND,Karnātaka,,533587.0,1356091187
Bīkaner,Bikaner,28.0181,73.3169,India,IN,IND,Rājasthān,,529007.0,1356026593
Nāgercoil,Nagercoil,8.175,77.4306,India,IN,IND,Tamil Nādu,,522759.0,1356051733
Agartala,Agartala,23.8314,91.2869,India,IN,IND,Tripura,admin,522613.0,1356148992
Loni,Loni,28.75,77.28,India,IN,IND,Uttar Pradesh,,516082.0,1356528413
Ujjain,Ujjain,23.17,75.79,India,IN,IND,Madhya Pradesh,,515215.0,1356050735
Bhīlwāra,Bhilwara,25.35,74.63,India,IN,IND,Rājasthān,,509483.0,1356077831
Jhānsi,Jhansi,25.4486,78.5696,India,IN,IND,Uttar Pradesh,,507000.0,1356712664
Ulhāsnagar,Ulhasnagar,19.22,73.15,India,IN,IND,Mahārāshtra,,506098.0,1356375341
Vellore,Vellore,12.9165,79.1325,India,IN,IND,Tamil Nādu,,504079.0,1356977661
Jammu,Jammu,32.73,74.87,India,IN,IND,Jammu and Kashmīr,admin,502197.0,1356491738
Purnea,Purnea,25.778,87.476,India,IN,IND,Bihār,,496830.0,1356486511
Belgaum,Belgaum,15.85,74.5,India,IN,IND,Karnātaka,,488157.0,1356390535
Mālegaon,Malegaon,20.55,74.55,India,IN,IND,Mahārāshtra,,481228.0,1356113556
Jāmnagar,Jamnagar,22.47,70.07,India,IN,IND,Gujarāt,,479920.0,1356104995
Bārdoli,Bardoli,21.12,73.12,India,IN,IND,Gujarāt,,475963.0,1356054525
Gaya,Gaya,24.75,85.01,India,IN,IND,Bihār,,474093.0,1356045727
Ambattūr,Ambattur,13.1143,80.1548,India,IN,IND,Tamil Nādu,,466205.0,1356685959
Jalgaon,Jalgaon,21.004,75.568,India,IN,IND,Mahārāshtra,,460468.0,1356734842
Chhatarpur,Chhatarpur,24.55,79.3527,India,IN,IND,Madhya Pradesh,,459943.0,1356776353
Kurnool,Kurnool,15.83,78.05,India,IN,IND,Andhra Pradesh,,457633.0,1356058372
Udaipur,Udaipur,24.58,73.68,India,IN,IND,Rājasthān,,451100.0,1356266094
Mathura,Mathura,27.4924,77.6737,India,IN,IND,Uttar Pradesh,,441894.0,1356066081
Sāngli,Sangli,16.853,74.583,India,IN,IND,Mahārāshtra,,436639.0,1356921375
Davangere,Davangere,14.4666,75.9242,India,IN,IND,Karnātaka,,435125.0,1356445061
Calicut,Calicut,11.2588,75.7804,India,IN,IND,Kerala,minor,431560.0,1356010401
Bārāmati,Baramati,18.15,74.58,India,IN,IND,Mahārāshtra,,429600.0,1356106444
Mothīhāri,Mothihari,26.65,84.9167,India,IN,IND,Bihār,,426158.0,1356540032
Akola,Akola,20.7,77.0,India,IN,IND,Mahārāshtra,,425817.0,1356089496
Bettiah,Bettiah,26.8014,84.5028,India,IN,IND,Bihār,,414453.0,1356590604
Shorāpur,Shorapur,16.52,76.76,India,IN,IND,Karnātaka,,412291.0,1356512373
Tinnevelly,Tinnevelly,8.7136,77.7567,India,IN,IND,Tamil Nādu,,411298.0,1356037155
Bellary,Bellary,15.1,76.9167,India,IN,IND,Karnātaka,,410445.0,1356209152
Bhāgalpur,Bhagalpur,25.25,87.0,India,IN,IND,Bihār,,410210.0,1356760990
Padiāla,Padiala,30.802,76.593,India,IN,IND,Punjab,,406192.0,1356667176
Delhi Cantonment,Delhi Cantonment,28.6,77.1333,India,IN,IND,Delhi,,405633.0,1356526853
Salt Lake City,Salt Lake City,22.61,88.4,India,IN,IND,West Bengal,,403316.0,1356720205
Etāwa,Etawa,24.18,78.2,India,IN,IND,Madhya Pradesh,,402678.0,1356950925
Sonīpat,Sonipat,28.99,77.022,India,IN,IND,Haryāna,,402000.0,1356648808
Quilon,Quilon,8.8932,76.6141,India,IN,IND,Kerala,,397419.0,1356304110
Mulangodi,Mulangodi,9.0,76.6167,India,IN,IND,Kerala,,397419.0,1356160605
Munro Turuttu,Munro Turuttu,9.0,76.6167,India,IN,IND,Kerala,,397419.0,1356163281
Bairia,Bairia,25.7583,84.1489,India,IN,IND,Uttar Pradesh,,386745.0,1356189784
Bhātpāra,Bhatpara,22.87,88.41,India,IN,IND,West Bengal,,386019.0,1356022456
Kūkatpalli,Kukatpalli,17.4849,78.4138,India,IN,IND,Telangāna,,385821.0,1356553747
Sirūr,Sirur,18.83,74.38,India,IN,IND,Mahārāshtra,,385414.0,1356926718
Kākināda,Kakinada,16.9661,82.255,India,IN,IND,Andhra Pradesh,,384182.0,1356573609
Pānihāti,Panihati,22.69,88.37,India,IN,IND,West Bengal,,377347.0,1356118632
Rohtak,Rohtak,28.8909,76.5796,India,IN,IND,Haryāna,,374292.0,1356162915
Māler Kotla,Maler Kotla,30.5167,75.8833,India,IN,IND,Punjab,,374000.0,1356847218
Kolga,Kolga,22.35,82.68,India,IN,IND,Chhattīsgarh,,365253.0,1356470898
Korba,Korba,22.3458,82.6963,India,IN,IND,Chhattīsgarh,,365253.0,1356093877
Sīkar,Sikar,27.62,75.15,India,IN,IND,Rājasthān,,359293.0,1356163729
Karūr,Karur,10.9601,78.0766,India,IN,IND,Tamil Nādu,,358468.0,1356837900
Sasarām,Sasaram,24.95,84.03,India,IN,IND,Bihār,,358283.0,1356061200
Karnāl,Karnal,29.686,76.989,India,IN,IND,Haryāna,,357334.0,1356145204
Brahmapur,Brahmapur,19.315,84.7941,India,IN,IND,Odisha,,355823.0,1356569354
Chānda,Chanda,19.95,79.3,India,IN,IND,Mahārāshtra,,355739.0,1356592607
Ahmadnagar,Ahmadnagar,19.08,74.73,India,IN,IND,Mahārāshtra,,350859.0,1356972679
Dāsarhalli,Dasarhalli,13.0465,77.513,India,IN,IND,Karnātaka,,349720.0,1356103194
Shāhjānpur,Shahjanpur,27.88,79.91,India,IN,IND,Uttar Pradesh,,346103.0,1356415439
Alamādi,Alamadi,13.1097,80.0972,India,IN,IND,Tamil Nādu,,345996.0,1356716431
Āvadi,Avadi,13.1147,80.1098,India,IN,IND,Tamil Nādu,,345996.0,1356009111
Khānāpur,Khanapur,15.6394,74.5083,India,IN,IND,Karnātaka,,345839.0,1356772159
Hosūr,Hosur,12.7409,77.8253,India,IN,IND,Tamil Nādu,,345000.0,1356829362
Cuddapah,Cuddapah,14.47,78.82,India,IN,IND,Andhra Pradesh,,344893.0,1356360140
Rājahmundry,Rajahmundry,16.98,81.78,India,IN,IND,Andhra Pradesh,,341831.0,1356831716
Alwar,Alwar,27.5498,76.6355,India,IN,IND,Rājasthān,,341422.0,1356570855
Sambalpur,Sambalpur,21.47,83.97,India,IN,IND,Odisha,,335761.0,1356772339
Muzaffarpur,Muzaffarpur,26.1225,85.3906,India,IN,IND,Bihār,,333200.0,1356897425
Kāmārhāti,Kamarhati,22.6686,88.3704,India,IN,IND,West Bengal,,330211.0,1356676559
Campīernagar,Campiernagar,27.029,83.2668,India,IN,IND,Uttar Pradesh,,329104.0,1356103973
Bijāpur,Bijapur,16.83,75.71,India,IN,IND,Karnātaka,,327427.0,1356499139
Tharād,Tharad,24.3926,71.6248,India,IN,IND,Gujarāt,,327289.0,1356055796
Ratnāgiri,Ratnagiri,16.9944,73.3,India,IN,IND,Mahārāshtra,,327120.0,1356990175
Rāmpur,Rampur,28.8,79.0,India,IN,IND,Uttar Pradesh,,325248.0,1356666569
Shimoga,Shimoga,13.9333,75.5667,India,IN,IND,Karnātaka,,322650.0,1356016156
Kāshīpur,Kashipur,29.22,78.95,India,IN,IND,Uttarākhand,,321623.0,1356044207
Jūnāgadh,Junagadh,21.5222,70.4579,India,IN,IND,Gujarāt,,320250.0,1356057451
Hāpur,Hapur,28.7309,77.7757,India,IN,IND,Uttar Pradesh,,317004.0,1356820012
Trichūr,Trichur,10.5276,76.2144,India,IN,IND,Kerala,,315596.0,1356589298
Barddhamān,Barddhaman,23.2333,87.8667,India,IN,IND,West Bengal,,314265.0,1356062166
Panvel,Panvel,18.9944,73.1139,India,IN,IND,Mahārāshtra,,311434.0,1356424574
Nizāmābād,Nizamabad,18.672,78.094,India,IN,IND,Telangāna,,311152.0,1356242168
Parbhani,Parbhani,19.27,76.78,India,IN,IND,Mahārāshtra,,307170.0,1356632842
Hisar,Hisar,29.15,75.7,India,IN,IND,Haryāna,,307024.0,1356004790
Fatehpur,Fatehpur,27.98,74.95,India,IN,IND,Rājasthān,,305638.0,1356931375
Oulgaret,Oulgaret,11.957,79.7737,India,IN,IND,Tamil Nādu,,300104.0,1356242623
Ingrāj Bāzār,Ingraj Bazar,25.0119,88.1433,India,IN,IND,West Bengal,,300088.0,1356142829
Bada Barabīl,Bada Barabil,22.12,85.4,India,IN,IND,Odisha,,300000.0,1356293872
Dod Ballāpur,Dod Ballapur,13.292,77.543,India,IN,IND,Karnātaka,,299594.0,1356716579
Bihār,Bihar,25.197,85.518,India,IN,IND,Bihār,,297268.0,1356002333
Darbhanga,Darbhanga,26.17,85.9,India,IN,IND,Bihār,,296039.0,1356846195
Sikandarābād,Sikandarabad,28.4512,77.6955,India,IN,IND,Uttar Pradesh,,294858.0,1356989226
Pānīpat,Panipat,29.3875,76.97,India,IN,IND,Haryāna,,294292.0,1356526780
Āīzawl,Aizawl,23.7272,92.7178,India,IN,IND,Mizoram,admin,293416.0,1356342768
Bāli,Bali,22.65,88.34,India,IN,IND,West Bengal,,293373.0,1356113138
Palni,Palni,10.45,77.5161,India,IN,IND,Tamil Nādu,,292301.0,1356384365
Surajgarha,Surajgarha,25.25,86.23,India,IN,IND,Bihār,,290998.0,1356762117
Karīmnagar,Karimnagar,18.4386,79.1288,India,IN,IND,Telangāna,,289821.0,1356578937
Dewās,Dewas,22.96,76.06,India,IN,IND,Madhya Pradesh,,289550.0,1356065731
Hugli,Hugli,22.9,88.39,India,IN,IND,West Bengal,,288506.0,1356109548
Chunchura,Chunchura,22.9,88.39,India,IN,IND,West Bengal,,288506.0,1356979106
Sonpur,Sonpur,25.7,85.18,India,IN,IND,Bihār,,288102.0,1356149014
Ichalkaranji,Ichalkaranji,16.7,74.47,India,IN,IND,Mahārāshtra,,287570.0,1356651502
Tirupati,Tirupati,13.65,79.42,India,IN,IND,Andhra Pradesh,,287482.0,1356362995
Bhatinda,Bhatinda,30.23,74.9519,India,IN,IND,Punjab,,285813.0,1356343054
Jālna,Jalna,19.8333,75.8833,India,IN,IND,Mahārāshtra,,285577.0,1356730545
Satna,Satna,24.6005,80.8322,India,IN,IND,Madhya Pradesh,,283004.0,1356008295
Sannai,Sannai,24.1582,80.751,India,IN,IND,Madhya Pradesh,,283004.0,1356009968
Mau,Mau,25.9417,83.5611,India,IN,IND,Uttar Pradesh,,278745.0,1356238859
Bārāsat,Barasat,22.72,88.48,India,IN,IND,West Bengal,,278435.0,1356644721
Farrukhābād,Farrukhabad,27.39,79.581,India,IN,IND,Uttar Pradesh,,275754.0,1356776384
Saugor,Saugor,23.83,78.71,India,IN,IND,Madhya Pradesh,,274556.0,1356781800
Ratlām,Ratlam,23.334,75.037,India,IN,IND,Madhya Pradesh,,273892.0,1356241663
Chopda,Chopda,21.25,75.3,India,IN,IND,Mahārāshtra,,271863.0,1356848092
Handwāra,Handwara,34.3997,74.2817,India,IN,IND,Jammu and Kashmīr,,269311.0,1356080179
Drug,Drug,21.19,81.28,India,IN,IND,Chhattīsgarh,,268806.0,1356910418
Anantapur,Anantapur,14.68,77.599,India,IN,IND,Andhra Pradesh,,267161.0,1356296545
Imphāl,Imphal,24.8074,93.9384,India,IN,IND,Manipur,admin,264986.0,1356107172
Jagdalpur,Jagdalpur,19.18,81.92,India,IN,IND,Chhattīsgarh,,263000.0,1356443381
Arrah,Arrah,25.5514,84.6603,India,IN,IND,Bihār,,261430.0,1356085605
Etāwah,Etawah,26.77,79.03,India,IN,IND,Uttar Pradesh,,256838.0,1356241312
Malkājgiri,Malkajgiri,17.4519,78.5362,India,IN,IND,Telangāna,,255899.0,1356092535
Tuni,Tuni,17.35,82.55,India,IN,IND,Andhra Pradesh,,254425.0,1356073049
Rāpar,Rapar,23.57,70.63,India,IN,IND,Gujarāt,,253137.0,1356119017
Samāstipur,Samastipur,25.8629,85.7811,India,IN,IND,Bihār,,253136.0,1356801161
Bharatpur,Bharatpur,27.22,77.48,India,IN,IND,Rājasthān,,252342.0,1356168278
Begusarai,Begusarai,25.42,86.13,India,IN,IND,Bihār,,252008.0,1356619346
Jūnāgarh,Junagarh,19.8599,82.9338,India,IN,IND,Odisha,,251842.0,1356057455
Nedumana,Nedumana,8.9139,76.6889,India,IN,IND,Kerala,,251384.0,1356161987
New Delhi,New Delhi,28.6139,77.2089,India,IN,IND,Delhi,primary,249998.0,1356215164
Tiruvottiyūr,Tiruvottiyur,13.16,80.3,India,IN,IND,Tamil Nādu,,249446.0,1356964110
Rāmnagar,Ramnagar,27.17,84.32,India,IN,IND,Bihār,,249102.0,1356673115
Gāndhīdhām,Gandhidham,23.08,70.13,India,IN,IND,Gujarāt,,248705.0,1356140913
Salūmbar,Salumbar,24.08,74.02,India,IN,IND,Rājasthān,,248337.0,1356580244
Krishnarājpur,Krishnarajpur,13.012,77.6951,India,IN,IND,Karnātaka,,245797.0,1356007149
Nelamangala,Nelamangala,13.102,77.374,India,IN,IND,Karnātaka,,245624.0,1356943451
Puducherry,Puducherry,11.9167,79.8167,India,IN,IND,Puducherry,admin,244377.0,1356368903
Rāmgundam,Ramgundam,18.7639,79.475,India,IN,IND,Telangāna,,242979.0,1356590864
Pālanpur,Palanpur,24.1722,72.4333,India,IN,IND,Gujarāt,,242936.0,1356412186
Pandharpur,Pandharpur,17.6778,75.3278,India,IN,IND,Mahārāshtra,,242515.0,1356852072
Masaurhi Buzurg,Masaurhi Buzurg,25.35,85.02,India,IN,IND,Bihār,,241216.0,1356191575
Katihār,Katihar,25.53,87.58,India,IN,IND,Bihār,,240565.0,1356099841
Byatarayanpur,Byatarayanpur,13.0659,77.5922,India,IN,IND,Karnātaka,,239902.0,1356590852
Ahor,Ahor,25.367,72.783,India,IN,IND,Rājasthān,,239642.0,1356319779
Tuticorin,Tuticorin,8.7642,78.1348,India,IN,IND,Tamil Nādu,,237830.0,1356751023
Gangānagar,Ganganagar,29.92,73.88,India,IN,IND,Rājasthān,,237780.0,1356431302
Tinkhang,Tinkhang,27.23,95.17,India,IN,IND,Assam,,236571.0,1356170627
Rewa,Rewa,24.53,81.3,India,IN,IND,Madhya Pradesh,,236519.0,1356642255
Uluberiya,Uluberiya,22.47,88.11,India,IN,IND,West Bengal,,235345.0,1356354610
Bulandshahr,Bulandshahr,28.4069,77.8497,India,IN,IND,Uttar Pradesh,,235310.0,1356067648
Chauhanpatti,Chauhanpatti,25.15,82.6,India,IN,IND,Uttar Pradesh,,233691.0,1356457777
Cannanore,Cannanore,11.8745,75.3704,India,IN,IND,Kerala,,232486.0,1356147157
Rāichūr,Raichur,16.2,77.37,India,IN,IND,Karnātaka,,232456.0,1356217280
Machilīpatnam,Machilipatnam,16.17,81.13,India,IN,IND,Andhra Pradesh,,232000.0,1356067784
Pāli,Pali,25.77,73.33,India,IN,IND,Rājasthān,,229956.0,1356212172
Songadh,Songadh,21.167,73.564,India,IN,IND,Gujarāt,,229782.0,1356550633
Gadda Madiral,Gadda Madiral,18.7519,79.5133,India,IN,IND,Telangāna,,229644.0,1356055274
Miriālgūda,Mirialguda,16.8667,79.5833,India,IN,IND,Telangāna,,228891.0,1356570698
Haridwār,Haridwar,29.945,78.163,India,IN,IND,Uttarākhand,,228832.0,1356090741
Vizianagaram,Vizianagaram,18.1159,83.406,India,IN,IND,Andhra Pradesh,,228720.0,1356212761
Rāisinghnagar,Raisinghnagar,29.5342,73.4477,India,IN,IND,Rājasthān,,228330.0,1356007573
Pāthardi,Pathardi,19.17,75.18,India,IN,IND,Mahārāshtra,,228279.0,1356126088
Mel Pālaiyam,Mel Palaiyam,8.7,77.7069,India,IN,IND,Tamil Nādu,,227895.0,1356249420
Khatīma,Khatima,28.92,79.97,India,IN,IND,Uttarākhand,,227226.0,1356442679
Petlād,Petlad,22.47,72.8,India,IN,IND,Gujarāt,,227031.0,1356943594
Nadiād,Nadiad,22.69,72.86,India,IN,IND,Gujarāt,,225132.0,1356992385
Tanjore,Tanjore,10.787,79.1378,India,IN,IND,Tamil Nādu,,222943.0,1356599194
Kichha,Kichha,28.92,79.5,India,IN,IND,Uttarākhand,,221965.0,1356016973
Katri,Katri,23.48,80.4,India,IN,IND,Madhya Pradesh,,221875.0,1356636912
Dagarua,Dagarua,25.8,87.64,India,IN,IND,Bihār,,221229.0,1356757539
Sambhal,Sambhal,28.58,78.55,India,IN,IND,Uttar Pradesh,,220813.0,1356376216
Singrauliya,Singrauliya,24.202,82.666,India,IN,IND,Madhya Pradesh,,220257.0,1356985698
Naihāti,Naihati,22.89,88.42,India,IN,IND,West Bengal,,217900.0,1356715598
Porbandar,Porbandar,21.6417,69.6293,India,IN,IND,Gujarāt,,217500.0,1356634492
Yamunānagar,Yamunanagar,30.133,77.288,India,IN,IND,Haryāna,,216628.0,1356846120
Pallāvaram,Pallavaram,12.9675,80.1491,India,IN,IND,Tamil Nādu,,215417.0,1356057661
Khargone,Khargone,21.82,75.6187,India,IN,IND,Madhya Pradesh,,215000.0,1356728712
Secunderābād,Secunderabad,17.4399,78.4983,India,IN,IND,Telangāna,,213698.0,1356779437
Bhuj,Bhuj,23.25,69.67,India,IN,IND,Gujarāt,,213514.0,1356806356
Monghyr,Monghyr,25.381,86.465,India,IN,IND,Bihār,,213101.0,1356280102
Chāpra,Chapra,25.7848,84.7274,India,IN,IND,Bihār,,212955.0,1356147120
Bhadrāvati,Bhadravati,13.8485,75.705,India,IN,IND,Karnātaka,,212073.0,1356466241
Panchkula,Panchkula,30.74,76.8,India,IN,IND,Haryāna,minor,211355.0,1356152025
Burhānpur,Burhanpur,21.3114,76.2289,India,IN,IND,Madhya Pradesh,,210891.0,1356857493
Kirātot,Kiratot,32.8376,76.2296,India,IN,IND,Himāchal Pradesh,,210406.0,1356118618
Kāpra,Kapra,17.4859,78.5651,India,IN,IND,Telangāna,,209882.0,1356304297
Ambāla,Ambala,30.38,76.78,India,IN,IND,Haryāna,,207934.0,1356947216
Kharagpur,Kharagpur,22.3302,87.3237,India,IN,IND,West Bengal,,207604.0,1356305803
Robertsonpet,Robertsonpet,12.9563,78.2754,India,IN,IND,Karnātaka,,207350.0,1356245899
Dindigul,Dindigul,10.35,77.95,India,IN,IND,Tamil Nādu,,207327.0,1356106153
Rānīwāra Kalān,Raniwara Kalan,24.75,72.2167,India,IN,IND,Rājasthān,,206831.0,1356083104
Shimla,Shimla,31.1033,77.1722,India,IN,IND,Himāchal Pradesh,admin,206575.0,1356962932
Hospet,Hospet,15.2689,76.3909,India,IN,IND,Karnātaka,,206167.0,1356241463
Māldah,Maldah,25.0044,88.1458,India,IN,IND,West Bengal,,205521.0,1356350335
Ongole,Ongole,15.506,80.049,India,IN,IND,Andhra Pradesh,,204746.0,1356385136
Betigeri,Betigeri,15.443,75.6442,India,IN,IND,Karnātaka,,204576.0,1356503334
Kodumur,Kodumur,15.6833,77.7833,India,IN,IND,Andhra Pradesh,,203954.0,1356171101
Ellore,Ellore,16.7117,81.1031,India,IN,IND,Andhra Pradesh,,203780.0,1356931882
Deoghar,Deoghar,24.48,86.7,India,IN,IND,Jhārkhand,,203116.0,1356054191
Chhindwāra,Chhindwara,22.057,78.9396,India,IN,IND,Madhya Pradesh,,202688.0,1356167692
Lingampalli,Lingampalli,17.4865,78.317,India,IN,IND,Telangāna,,202440.0,1356038214
Mokameh,Mokameh,25.3898,85.9191,India,IN,IND,Bihār,,202411.0,1356053965
Puri,Puri,19.8,85.8167,India,IN,IND,Odisha,,201026.0,1356558409
Haldia,Haldia,22.0667,88.0698,India,IN,IND,West Bengal,,200827.0,1356491171
Khandwa,Khandwa,21.82,76.35,India,IN,IND,Madhya Pradesh,,200738.0,1356696980
Nandyāl,Nandyal,15.48,78.48,India,IN,IND,Andhra Pradesh,,200516.0,1356671879
Pulimaddi,Pulimaddi,15.5386,78.4613,India,IN,IND,Andhra Pradesh,,200516.0,1356431352
Morena,Morena,26.5,78.0,India,IN,IND,Madhya Pradesh,,200483.0,1356019851
Karjat,Karjat,18.55,75.0,India,IN,IND,Mahārāshtra,,200000.0,1356041311
Drabar,Drabar,33.43,75.09,India,IN,IND,Jammu and Kashmīr,,199429.0,1356426484
Amroha,Amroha,28.9044,78.4675,India,IN,IND,Uttar Pradesh,,198471.0,1356146062
Rānī,Rani,9.3667,76.7667,India,IN,IND,Kerala,,198194.0,1356296209
Chakradharpur,Chakradharpur,22.7,85.63,India,IN,IND,Jhārkhand,,197953.0,1356082013
Bhiwāni,Bhiwani,28.78,76.13,India,IN,IND,Haryāna,,197662.0,1356780092
Bhind,Bhind,26.5587,78.7871,India,IN,IND,Madhya Pradesh,,197585.0,1356023125
Khammam,Khammam,17.2473,80.1514,India,IN,IND,Telangāna,,196283.0,1356007170
Madhyamgram,Madhyamgram,22.7,88.45,India,IN,IND,West Bengal,,196127.0,1356501701
Ghāndīnagar,Ghandinagar,23.2231,72.65,India,IN,IND,Gujarāt,admin,195891.0,1356140914
Baharampur,Baharampur,24.1,88.25,India,IN,IND,West Bengal,,195223.0,1356612685
Morbi,Morbi,22.82,70.83,India,IN,IND,Gujarāt,,194947.0,1356746232
Pāndhurnā,Pandhurna,21.6,78.52,India,IN,IND,Madhya Pradesh,,193818.0,1356533618
Fatehpur,Fatehpur,25.93,80.8,India,IN,IND,Uttar Pradesh,,193193.0,1356059135
Rāe Bareli,Rae Bareli,26.2236,81.2403,India,IN,IND,Uttar Pradesh,,191316.0,1356437243
Damān,Daman,20.42,72.85,India,IN,IND,Dādra and Nagar Haveli and Damān and Diu,admin,191173.0,1356008028
Orai,Orai,25.98,79.47,India,IN,IND,Uttar Pradesh,,190575.0,1356928689
Mahbūbnagar,Mahbubnagar,16.7488,78.0035,India,IN,IND,Telangāna,,190400.0,1356014528
Murtazābād,Murtazabad,28.7111,77.2688,India,IN,IND,Uttar Pradesh,,189117.0,1356121128
Rājendranagar,Rajendranagar,17.3198,78.4031,India,IN,IND,Telangāna,,189076.0,1356684638
Ratanpur,Ratanpur,23.0851,72.5716,India,IN,IND,Gujarāt,,187573.0,1356312913
Bhusāval,Bhusaval,21.05,75.77,India,IN,IND,Mahārāshtra,,187421.0,1356338789
Bahraigh,Bahraigh,27.575,81.594,India,IN,IND,Uttar Pradesh,,186223.0,1356833304
Umreth,Umreth,22.6986,73.1156,India,IN,IND,Gujarāt,,185320.0,1356307988
Ittikara,Ittikara,8.8633,76.6972,India,IN,IND,Kerala,,185008.0,1356161481
Mahesāna,Mahesana,23.6,72.4,India,IN,IND,Gujarāt,,184991.0,1356719082
Rāiganj,Raiganj,25.62,88.12,India,IN,IND,West Bengal,,183612.0,1356159126
Batāla,Batala,31.8186,75.2028,India,IN,IND,Punjab,,183314.0,1356786750
Sirsa,Sirsa,29.5333,75.0167,India,IN,IND,Haryāna,,182534.0,1356966764
Morsi,Morsi,21.318,78.0095,India,IN,IND,Mahārāshtra,,182484.0,1356045043
Dinapore,Dinapore,25.6225,85.0417,India,IN,IND,Bihār,,182241.0,1356729186
Tambaram,Tambaram,12.831,80.0459,India,IN,IND,Tamil Nādu,,182071.0,1356045454
Kāraikkudi,Karaikkudi,10.0735,78.7732,India,IN,IND,Tamil Nādu,,181851.0,1356512763
Shrīrāmpur,Shrirampur,22.75,88.34,India,IN,IND,West Bengal,,181842.0,1356021505
Himatnagar,Himatnagar,23.6,72.95,India,IN,IND,Gujarāt,,181137.0,1356123042
Guna,Guna,24.65,77.32,India,IN,IND,Madhya Pradesh,,180935.0,1356056608
Nawāda,Nawada,24.88,85.53,India,IN,IND,Bihār,,180740.0,1356092302
Jaunpur,Jaunpur,25.73,82.68,India,IN,IND,Uttar Pradesh,,180362.0,1356646586
Mahād,Mahad,18.083,73.417,India,IN,IND,Mahārāshtra,,180191.0,1356857934
Madanapalle,Madanapalle,13.55,78.5,India,IN,IND,Andhra Pradesh,,180180.0,1356232508
Wadlakonda,Wadlakonda,17.7736,79.575,India,IN,IND,Telangāna,,180000.0,1356041600
Bhachāu,Bhachau,23.296,70.343,India,IN,IND,Gujarāt,,180000.0,1356280913
Shivpuri,Shivpuri,25.43,77.65,India,IN,IND,Madhya Pradesh,,179977.0,1356583527
Sātāra,Satara,17.688,74.006,India,IN,IND,Mahārāshtra,,179147.0,1356054526
Phillaur,Phillaur,31.03,75.78,India,IN,IND,Punjab,,178198.0,1356134568
Unnāo,Unnao,26.55,80.49,India,IN,IND,Uttar Pradesh,,177658.0,1356012340
Sītāpur,Sitapur,27.57,80.66,India,IN,IND,Uttar Pradesh,,177351.0,1356217368
Kalamboli,Kalamboli,19.2333,73.1333,India,IN,IND,Mahārāshtra,,177154.0,1356537020
Wārāseonī,Waraseoni,21.7647,80.0494,India,IN,IND,Madhya Pradesh,,176291.0,1356634180
Mauli,Mauli,30.699,76.693,India,IN,IND,Punjab,,176152.0,1356181198
Harnaut,Harnaut,25.3694,85.5319,India,IN,IND,Bihār,,176140.0,1356276550
Navadwīp,Navadwip,23.42,88.37,India,IN,IND,West Bengal,,175474.0,1356449184
Kotdwāra,Kotdwara,29.75,78.53,India,IN,IND,Uttarākhand,,175232.0,1356826143
Pīlibhīt,Pilibhit,28.6267,79.8058,India,IN,IND,Uttar Pradesh,,175000.0,1356147005
Alleppey,Alleppey,9.49,76.33,India,IN,IND,Kerala,,174176.0,1356293762
Cuddalore,Cuddalore,11.75,79.75,India,IN,IND,Tamil Nādu,,173676.0,1356544008
Gondal,Gondal,21.958,70.795,India,IN,IND,Gujarāt,,173353.0,1356305049
Deo,Deo,24.6561,84.4356,India,IN,IND,Bihār,,173216.0,1356131438
Silchar,Silchar,24.82,92.8,India,IN,IND,Assam,,172830.0,1356102467
Chīrāla,Chirala,15.8246,80.3521,India,IN,IND,Andhra Pradesh,,172826.0,1356100300
Gadag,Gadag,15.4167,75.6167,India,IN,IND,Karnātaka,,172813.0,1356659359
Tiruvannāmalai,Tiruvannamalai,12.13,79.07,India,IN,IND,Tamil Nādu,,172348.0,1356561184
Bīdar,Bidar,17.912,77.52,India,IN,IND,Karnātaka,,172298.0,1356933453
Jalālābād,Jalalabad,30.62,74.25,India,IN,IND,Punjab,,172000.0,1356892150
Nawsari,Nawsari,20.95,72.93,India,IN,IND,Gujarāt,,171109.0,1356363404
Valsād,Valsad,20.61,72.926,India,IN,IND,Gujarāt,,170060.0,1356306193
Medinīpur,Medinipur,22.424,87.319,India,IN,IND,West Bengal,,169264.0,1356432910
Damoh,Damoh,23.8331,79.4419,India,IN,IND,Madhya Pradesh,,168916.0,1356070737
Harīpur,Haripur,31.53,75.92,India,IN,IND,Punjab,,168443.0,1356141115
Neyveli,Neyveli,11.6088,79.4994,India,IN,IND,Tamil Nādu,,168368.0,1356265572
Bāramūla,Baramula,34.198,74.364,India,IN,IND,Jammu and Kashmīr,,167986.0,1356671176
Malkāpur,Malkapur,20.885,76.2,India,IN,IND,Mahārāshtra,,167740.0,1356838464
Jīnd,Jind,29.3167,76.3167,India,IN,IND,Haryāna,,167592.0,1356620188
Chandannagar,Chandannagar,22.87,88.38,India,IN,IND,West Bengal,,166867.0,1356174802
Ādoni,Adoni,15.6279,77.2749,India,IN,IND,Andhra Pradesh,,166344.0,1356357749
Alasandigutta,Alasandigutta,15.6244,77.2731,India,IN,IND,Andhra Pradesh,,166344.0,1356256634
Udipi,Udipi,13.3389,74.7451,India,IN,IND,Karnātaka,,165401.0,1356145399
Fyzābād,Fyzabad,26.773,82.146,India,IN,IND,Uttar Pradesh,,165228.0,1356032860
Sawāi Mādhopur,Sawai Madhopur,26.0,76.35,India,IN,IND,Rājasthān,,165000.0,1356577479
Tenāli,Tenali,16.239,80.645,India,IN,IND,Andhra Pradesh,,164937.0,1356831482
Conjeeveram,Conjeeveram,12.8185,79.6947,India,IN,IND,Tamil Nādu,,164384.0,1356148941
Madhubani,Madhubani,26.3519,86.0719,India,IN,IND,Bihār,,164156.0,1356042500
Proddatūr,Proddatur,14.75,78.55,India,IN,IND,Andhra Pradesh,,163970.0,1356025913
Sultānpur Mazra,Sultanpur Mazra,28.6981,77.0689,India,IN,IND,Delhi,,163716.0,1356062549
Wāpi,Wapi,20.372,72.917,India,IN,IND,Gujarāt,,163630.0,1356248785
Godhra,Godhra,22.7772,73.6203,India,IN,IND,Gujarāt,,161925.0,1356386046
Multai,Multai,21.77,78.25,India,IN,IND,Madhya Pradesh,,161819.0,1356137691
Rājapālaiyam,Rajapalaiyam,9.4204,77.58,India,IN,IND,Tamil Nādu,,161445.0,1356110350
Pangzawl,Pangzawl,22.91,92.76,India,IN,IND,Mizoram,,161428.0,1356878082
Chittoor,Chittoor,13.216,79.098,India,IN,IND,Andhra Pradesh,,160722.0,1356026391
Sivakāsi,Sivakasi,9.4533,77.8024,India,IN,IND,Tamil Nādu,,160047.0,1356111487
Moga,Moga,30.822,75.174,India,IN,IND,Punjab,,159897.0,1356017151
Budaun,Budaun,28.05,79.12,India,IN,IND,Uttar Pradesh,,159221.0,1356639213
Uttarpāra,Uttarpara,22.67,88.35,India,IN,IND,West Bengal,,159147.0,1356370311
Daltonganj,Daltonganj,24.03,84.07,India,IN,IND,Jhārkhand,,158941.0,1356991205
Bharūch,Bharuch,21.712,72.993,India,IN,IND,Gujarāt,,158253.0,1356981799
Saharsa,Saharsa,25.88,86.6,India,IN,IND,Bihār,,156540.0,1356492911
Vidisha,Vidisha,23.53,77.82,India,IN,IND,Madhya Pradesh,,155959.0,1356299932
Pathānkot,Pathankot,32.2668,75.6,India,IN,IND,Punjab,,155909.0,1356878237
Nowgong,Nowgong,26.3504,92.6796,India,IN,IND,Assam,,155889.0,1356273589
Thānesar,Thanesar,29.9667,76.8167,India,IN,IND,Haryāna,,154962.0,1356380934
Kishangarh,Kishangarh,26.57,74.87,India,IN,IND,Rājasthān,,154886.0,1356854319
Rudarpur,Rudarpur,28.98,79.4,India,IN,IND,Uttarākhand,,154485.0,1356437436
Tindwāra,Tindwara,25.4833,80.3333,India,IN,IND,Uttar Pradesh,,154428.0,1356098059
Nalgonda,Nalgonda,17.05,79.27,India,IN,IND,Telangāna,,154326.0,1356414359
Ambikāpur,Ambikapur,23.12,83.2,India,IN,IND,Chhattīsgarh,,154104.0,1356110265
Dibrugarh,Dibrugarh,27.48,95.0,India,IN,IND,Assam,,154019.0,1356100193
Verāval,Veraval,20.9159,70.3629,India,IN,IND,Gujarāt,,153696.0,1356346826
Betūl Bazār,Betul Bazar,21.905,77.902,India,IN,IND,Madhya Pradesh,,153330.0,1356866032
Bālurghāt,Balurghat,25.22,88.76,India,IN,IND,West Bengal,,153279.0,1356496150
Jorhāt,Jorhat,26.75,94.22,India,IN,IND,Assam,,153249.0,1356638741
Krishnanagar,Krishnanagar,23.4,88.5,India,IN,IND,West Bengal,,153062.0,1356128689
Bārākpur,Barakpur,22.76,88.37,India,IN,IND,West Bengal,,152783.0,1356768708
Shāntipur,Shantipur,23.25,88.43,India,IN,IND,West Bengal,,151777.0,1356584320
Hindupur,Hindupur,13.83,77.49,India,IN,IND,Andhra Pradesh,,151677.0,1356805611
Beāwar,Beawar,26.1,74.32,India,IN,IND,Rājasthān,,151472.0,1356028963
Bhālswa Jahangirpur,Bhalswa Jahangirpur,28.7354,77.1638,India,IN,IND,Delhi,,151427.0,1356078316
Erode,Erode,11.3409,77.7171,India,IN,IND,Tamil Nādu,,151184.0,1356040695
Nāngloi Jāt,Nangloi Jat,28.6833,77.0667,India,IN,IND,Delhi,,150371.0,1356389587
Soro,Soro,21.29,86.69,India,IN,IND,Odisha,,150000.0,1356411349
Nūzvīd,Nuzvid,16.7881,80.8465,India,IN,IND,Andhra Pradesh,,148590.0,1356713948
Sitārganj,Sitarganj,28.93,79.7,India,IN,IND,Uttarākhand,,148266.0,1356157911
Hājīpur,Hajipur,25.6925,85.2084,India,IN,IND,Bihār,,147688.0,1356014808
Hābra,Habra,22.83,88.63,India,IN,IND,West Bengal,,147221.0,1356091822
Bīr,Bir,18.99,75.76,India,IN,IND,Mahārāshtra,,146709.0,1356753116
Amreli,Amreli,21.6006,71.2164,India,IN,IND,Gujarāt,,146014.0,1356536773
Nārnaul,Narnaul,28.0444,76.1056,India,IN,IND,Haryāna,,145897.0,1356512084
Chitaldrug,Chitaldrug,14.23,76.4,India,IN,IND,Karnātaka,,145853.0,1356668514
Etah,Etah,27.63,78.67,India,IN,IND,Uttar Pradesh,,145601.0,1356096916
Abohar,Abohar,30.1334,74.2001,India,IN,IND,Punjab,,145302.0,1356846795
Kaithal,Kaithal,29.8015,76.3998,India,IN,IND,Haryāna,,144915.0,1356810758
Balasore,Balasore,21.5033,86.925,India,IN,IND,Odisha,,144373.0,1356515589
Mallapalli,Mallapalli,9.4461,76.6567,India,IN,IND,Kerala,,143677.0,1356908695
Koiridih,Koiridih,24.18,86.3,India,IN,IND,Jhārkhand,,143529.0,1356249967
Shillong,Shillong,25.5822,91.8944,India,IN,IND,Meghālaya,admin,143229.0,1356533936
Rewāri,Rewari,28.1833,76.6167,India,IN,IND,Haryāna,,143021.0,1356557800
Hazāribāgh,Hazaribagh,23.98,85.35,India,IN,IND,Jhārkhand,,142489.0,1356960055
Bhīmavaram,Bhimavaram,16.543,81.523,India,IN,IND,Andhra Pradesh,,142184.0,1356195520
Mandsaur,Mandsaur,24.03,75.08,India,IN,IND,Madhya Pradesh,,141667.0,1356467529
Villupuram,Villupuram,11.9401,79.4861,India,IN,IND,Tamil Nādu,,141036.0,1356999657
Harchandpur,Harchandpur,26.36,81.17,India,IN,IND,Uttar Pradesh,,140274.0,1356717769
Kumbakonam,Kumbakonam,10.9602,79.3845,India,IN,IND,Tamil Nādu,,140156.0,1356960436
Aul,Aul,20.67,86.64,India,IN,IND,Odisha,,139628.0,1356446437
Kolār,Kolar,13.1333,78.1333,India,IN,IND,Karnātaka,,138462.0,1356953848
Chicacole,Chicacole,18.3,83.9,India,IN,IND,Andhra Pradesh,,137944.0,1356141471
Bānkura,Bankura,23.25,87.07,India,IN,IND,West Bengal,,137386.0,1356582158
Mandya,Mandya,12.52,76.9,India,IN,IND,Karnātaka,,137358.0,1356039212
Dehri,Dehri,24.91,84.18,India,IN,IND,Bihār,,137231.0,1356452600
Durgauti,Durgauti,25.2114,83.5308,India,IN,IND,Bihār,,136962.0,1356254485
Mainpuri,Mainpuri,27.23,79.02,India,IN,IND,Uttar Pradesh,,136557.0,1356156341
Talaivāsal,Talaivasal,11.5867,78.7583,India,IN,IND,Tamil Nādu,,136026.0,1356044158
Dīsa,Disa,24.2501,72.1822,India,IN,IND,Gujarāt,,135869.0,1356984967
Raigarh,Raigarh,21.8974,83.395,India,IN,IND,Chhattīsgarh,,135363.0,1356458234
Siwān,Siwan,26.22,84.36,India,IN,IND,Bihār,,135066.0,1356238764
Kalol,Kalol,23.246,72.496,India,IN,IND,Gujarāt,,133737.0,1356235543
Hassan,Hassan,13.012,76.068,India,IN,IND,Karnātaka,,133436.0,1356007455
Lalitpur,Lalitpur,24.69,78.41,India,IN,IND,Uttar Pradesh,,133305.0,1356624160
Gondiā,Gondia,21.4598,80.195,India,IN,IND,Mahārāshtra,,132821.0,1356105759
Dalūpura,Dalupura,28.6004,77.3194,India,IN,IND,Delhi,,132628.0,1356492855
Naryāi ka Puri,Naryai ka Puri,26.52,78.35,India,IN,IND,Madhya Pradesh,,132072.0,1356440832
Palwal,Palwal,28.1447,77.3255,India,IN,IND,Haryāna,,131926.0,1356128481
Pālghāt,Palghat,10.775,76.651,India,IN,IND,Kerala,,130955.0,1356115164
Chittandikavundanūr,Chittandikavundanur,10.6129,76.8508,India,IN,IND,Tamil Nādu,,130736.0,1356162407
Ānand,Anand,22.556,72.951,India,IN,IND,Gujarāt,,130462.0,1356044073
Botād,Botad,22.17,71.67,India,IN,IND,Gujarāt,,130302.0,1356518433
Bongaigaon,Bongaigaon,26.4769,90.5583,India,IN,IND,Assam,,129894.0,1356037877
Mukeriān,Mukerian,31.95,75.62,India,IN,IND,Punjab,,129841.0,1356427915
Hanumāngarh,Hanumangarh,29.58,74.32,India,IN,IND,Rājasthān,,129654.0,1356133715
Jetpur,Jetpur,21.7542,70.6222,India,IN,IND,Gujarāt,,129653.0,1356272214
Arcot,Arcot,12.9047,79.3238,India,IN,IND,Tamil Nādu,,129640.0,1356293782
Kānchrāpāra,Kanchrapara,22.9456,88.4332,India,IN,IND,West Bengal,,129576.0,1356022687
Hoshangābād,Hoshangabad,22.7475,77.7274,India,IN,IND,Madhya Pradesh,,128599.0,1356003812
Chās,Chas,23.63,86.17,India,IN,IND,Jhārkhand,,128331.0,1356317326
Khanna,Khanna,30.7,76.22,India,IN,IND,Punjab,,128137.0,1356905575
Nagda,Nagda,23.4564,75.4131,India,IN,IND,Madhya Pradesh,,127484.0,1356765829
Hardoī,Hardoi,27.42,80.12,India,IN,IND,Uttar Pradesh,,126851.0,1356596710
Guntakal,Guntakal,15.17,77.38,India,IN,IND,Andhra Pradesh,,126270.0,1356140724
Pithampur,Pithampur,22.6197,75.6933,India,IN,IND,Madhya Pradesh,,126099.0,1356912433
Pātan,Patan,23.85,72.125,India,IN,IND,Gujarāt,,125497.0,1356500905
Basīrhat,Basirhat,22.6572,88.8942,India,IN,IND,West Bengal,,125254.0,1356109985
Hālīsahar,Halisahar,22.9469,88.4184,India,IN,IND,West Bengal,,124939.0,1356242644
Jagādhri,Jagadhri,30.168,77.301,India,IN,IND,Haryāna,,124894.0,1356688355
Sunām,Sunam,30.13,75.8,India,IN,IND,Punjab,,124590.0,1356036724
Rishra,Rishra,22.71,88.35,India,IN,IND,West Bengal,,124577.0,1356339732
Jhārsugra,Jharsugra,21.85,84.03,India,IN,IND,Odisha,,124500.0,1356155035
Pāli,Pali,23.35,81.05,India,IN,IND,Madhya Pradesh,,124175.0,1356107944
Nāndgaon,Nandgaon,20.307,74.657,India,IN,IND,Mahārāshtra,,123191.0,1356282779
Alwāl,Alwal,17.5047,78.5038,India,IN,IND,Telangāna,,123031.0,1356947057
Dimāpur,Dimapur,25.92,93.73,India,IN,IND,Nāgāland,,122834.0,1356155429
Sarangāpuram,Sarangapuram,18.9447,78.9936,India,IN,IND,Telangāna,,122368.0,1356264983
Bhadrakh,Bhadrakh,21.0545,86.5156,India,IN,IND,Odisha,,122119.0,1356245799
Dharmavaram,Dharmavaram,14.43,77.72,India,IN,IND,Andhra Pradesh,,121874.0,1356879569
Sivaganga,Sivaganga,9.8433,78.4809,India,IN,IND,Tamil Nādu,,121796.0,1356528232
Puruliya,Puruliya,23.34,86.36,India,IN,IND,West Bengal,,121067.0,1356350196
Ghazīpur,Ghazipur,25.58,83.57,India,IN,IND,Uttar Pradesh,,121020.0,1356773744
Bagaha,Bagaha,27.0992,84.09,India,IN,IND,Bihār,,120736.0,1356397208
Gudiyāttam,Gudiyattam,12.9476,78.87,India,IN,IND,Tamil Nādu,,120716.0,1356530159
Mahuva,Mahuva,21.0833,71.8,India,IN,IND,Gujarāt,,120685.0,1356440104
Gurdāspur,Gurdaspur,32.0333,75.4,India,IN,IND,Punjab,,120564.0,1356120401
Khurda,Khurda,20.18,85.62,India,IN,IND,Odisha,,120204.0,1356021518
Nokha,Nokha,27.6,73.42,India,IN,IND,Rājasthān,,120000.0,1356674096
Jandrapeta,Jandrapeta,15.8246,80.3521,India,IN,IND,Andhra Pradesh,,120000.0,1356205951
Hengken,Hengken,24.346,93.7,India,IN,IND,Manipur,,120000.0,1356683858
Yelahanka,Yelahanka,13.1007,77.5963,India,IN,IND,Karnātaka,,119891.0,1356308936
Darjeeling,Darjeeling,27.0375,88.2631,India,IN,IND,West Bengal,,118805.0,1356267176
Sopur,Sopur,34.3,74.47,India,IN,IND,Jammu and Kashmīr,,118608.0,1356978065
Chikmagalūr,Chikmagalur,13.313,75.737,India,IN,IND,Karnātaka,,118401.0,1356137222
Gudivāda,Gudivada,16.43,80.99,India,IN,IND,Andhra Pradesh,,118167.0,1356068699
Phagwāra,Phagwara,31.22,75.77,India,IN,IND,Punjab,,117954.0,1356342384
Pudukkottai,Pudukkottai,10.3833,78.8001,India,IN,IND,Tamil Nādu,,117745.0,1356619182
Adilābād,Adilabad,19.6667,78.5333,India,IN,IND,Telangāna,,117167.0,1356085840
Baripāda,Baripada,21.94,86.72,India,IN,IND,Odisha,,116874.0,1356029420
Yavatmāl,Yavatmal,20.24,78.06,India,IN,IND,Mahārāshtra,,116551.0,1356201218
Titāgarh,Titagarh,22.74,88.37,India,IN,IND,West Bengal,,116541.0,1356590173
Barnāla,Barnala,30.37,75.54,India,IN,IND,Punjab,,116450.0,1356892286
Chittaurgarh,Chittaurgarh,24.88,74.63,India,IN,IND,Rājasthān,,116406.0,1356110002
Narasaraopet,Narasaraopet,16.236,80.0498,India,IN,IND,Andhra Pradesh,,116250.0,1356923354
Kovilpatti,Kovilpatti,9.1744,77.8688,India,IN,IND,Tamil Nādu,,115434.0,1356026173
Bijnor,Bijnor,29.37,78.13,India,IN,IND,Uttar Pradesh,,115381.0,1356562939
Dam Dam,Dam Dam,22.62,88.42,India,IN,IND,West Bengal,,114786.0,1356051452
Kaikkudi,Kaikkudi,9.893,78.7313,India,IN,IND,Tamil Nādu,,114306.0,1356219581
Balāngīr,Balangir,20.72,83.48,India,IN,IND,Odisha,,112544.0,1356034887
Shegaon,Shegaon,20.7944,76.6944,India,IN,IND,Mahārāshtra,,112539.0,1356687763
Mahāsamund,Mahasamund,21.11,82.1,India,IN,IND,Chhattīsgarh,,112228.0,1356258690
Rājpura,Rajpura,30.484,76.594,India,IN,IND,Punjab,,112193.0,1356280770
Bāgalkot,Bagalkot,16.1817,75.6958,India,IN,IND,Karnātaka,,112090.0,1356504504
Osmānābād,Osmanabad,18.3194,76.0736,India,IN,IND,Mahārāshtra,,112085.0,1356005329
Kaliānpur,Kalianpur,26.5191,80.2498,India,IN,IND,Uttar Pradesh,,112014.0,1356957753
Shujālpur,Shujalpur,23.4,76.72,India,IN,IND,Madhya Pradesh,,112000.0,1356623938
Sāhibganj,Sahibganj,25.25,87.65,India,IN,IND,Jhārkhand,,111954.0,1356080912
Champdani,Champdani,22.802,88.346,India,IN,IND,West Bengal,,111251.0,1356132208
Nandurbar,Nandurbar,21.37,74.25,India,IN,IND,Mahārāshtra,,111000.0,1356692923
Purwa Utar,Purwa Utar,26.068,83.184,India,IN,IND,Uttar Pradesh,,110983.0,1356404695
Muktsar,Muktsar,30.4743,74.5166,India,IN,IND,Punjab,,110424.0,1356134091
Ferozepore,Ferozepore,30.9166,74.6,India,IN,IND,Punjab,,110313.0,1356060515
Mancherāl,Mancheral,18.8714,79.4443,India,IN,IND,Telangāna,,110000.0,1356990383
Sehore,Sehore,23.2,77.08,India,IN,IND,Madhya Pradesh,,109118.0,1356587614
Bangaon,Bangaon,23.07,88.82,India,IN,IND,West Bengal,,108864.0,1356624441
Khopoli,Khopoli,18.789,73.343,India,IN,IND,Mahārāshtra,,108648.0,1356831647
Islāmābād,Islamabad,33.7353,75.1478,India,IN,IND,Jammu and Kashmīr,,108505.0,1356324247
Khardah,Khardah,22.72,88.38,India,IN,IND,West Bengal,,108496.0,1356765227
Mungeli,Mungeli,22.07,81.68,India,IN,IND,Chhattīsgarh,,108387.0,1356114358
Tādpatri,Tadpatri,14.92,78.02,India,IN,IND,Andhra Pradesh,,108171.0,1356318314
Gharbara,Gharbara,28.47,77.51,India,IN,IND,Uttar Pradesh,,107676.0,1356603709
Sultānpur,Sultanpur,26.2583,82.0722,India,IN,IND,Uttar Pradesh,,107640.0,1356067042
Shikohābād,Shikohabad,27.1,78.6,India,IN,IND,Uttar Pradesh,,107404.0,1356626392
Jalpāiguri,Jalpaiguri,26.52,88.73,India,IN,IND,West Bengal,,107341.0,1356763479
Shāmli,Shamli,29.45,77.32,India,IN,IND,Uttar Pradesh,,107233.0,1356018667
Bhilai Karanja,Bhilai Karanja,21.2198,81.4575,India,IN,IND,Chhattīsgarh,,107170.0,1356926860
Suriāpet,Suriapet,17.1415,79.6236,India,IN,IND,Telangāna,,106805.0,1356067301
Wardha,Wardha,20.7417,78.6056,India,IN,IND,Mahārāshtra,,106444.0,1356053524
Rānībennur,Ranibennur,14.6167,75.6167,India,IN,IND,Karnātaka,,106406.0,1356823654
Barnoi,Barnoi,32.43,75.43,India,IN,IND,Jammu and Kashmīr,,106169.0,1356325675
Sītāmarhi,Sitamarhi,26.6,85.48,India,IN,IND,Bihār,,106093.0,1356186196
Kishanganj,Kishanganj,26.0794,87.9372,India,IN,IND,West Bengal,,105782.0,1356127495
Hindaun,Hindaun,26.74,77.03,India,IN,IND,Rājasthān,,105690.0,1356608940
Semāri,Semari,24.0555,73.8566,India,IN,IND,Rājasthān,,105686.0,1356010896
Gangāwati,Gangawati,15.43,76.53,India,IN,IND,Karnātaka,,105529.0,1356899767
Nautanwa,Nautanwa,27.43,83.42,India,IN,IND,Uttar Pradesh,,105345.0,1356061939
Jamālpur,Jamalpur,25.3,86.5,India,IN,IND,Bihār,,105221.0,1356530461
Makrāna,Makrana,27.0409,74.7273,India,IN,IND,Rājasthān,,105080.0,1356115611
Sheopur,Sheopur,25.67,76.7,India,IN,IND,Madhya Pradesh,,105026.0,1356713793
Ballia,Ballia,25.7604,84.1471,India,IN,IND,Uttar Pradesh,,104424.0,1356194087
Tādepallegūdem,Tadepallegudem,16.815,81.526,India,IN,IND,Andhra Pradesh,,104032.0,1356576541
Bānsbāria,Bansbaria,22.97,88.4,India,IN,IND,West Bengal,,103920.0,1356897672
Būndi,Bundi,25.44,75.64,India,IN,IND,Rājasthān,,103286.0,1356402465
Amarāvati,Amaravati,16.5131,80.5165,India,IN,IND,Andhra Pradesh,admin,103000.0,1356002501
Negapatam,Negapatam,10.7672,79.8449,India,IN,IND,Tamil Nādu,,102905.0,1356879770
Buxar,Buxar,25.5605,83.9805,India,IN,IND,Bihār,,102861.0,1356331714
Kurichchi,Kurichchi,10.9609,76.9738,India,IN,IND,Tamil Nādu,,102765.0,1356159322
Kheda,Kheda,22.75,72.68,India,IN,IND,Gujarāt,,102587.0,1356153866
Tezpur,Tezpur,26.63,92.8,India,IN,IND,Assam,,102505.0,1356299437
Sundarnagar,Sundarnagar,31.53,76.88,India,IN,IND,Himāchal Pradesh,,102401.0,1356852734
Seoni,Seoni,22.08,79.53,India,IN,IND,Madhya Pradesh,,102343.0,1356071437
Aurangābād,Aurangabad,24.7,84.35,India,IN,IND,Bihār,,102244.0,1356920493
Rishīkesh,Rishikesh,30.1083,78.2972,India,IN,IND,Uttarākhand,,102138.0,1356965119
Kapūrthala,Kapurthala,31.38,75.38,India,IN,IND,Punjab,,101854.0,1356092924
Dhamtari,Dhamtari,20.71,81.55,India,IN,IND,Chhattīsgarh,,101677.0,1356754128
Rāneswar,Raneswar,24.0311,87.4197,India,IN,IND,Jhārkhand,,101667.0,1356773402
Brājarājnagar,Brajarajnagar,21.8167,83.9167,India,IN,IND,Odisha,,101585.0,1356019758
Sūjāngarh,Sujangarh,27.7,74.47,India,IN,IND,Rājasthān,,101528.0,1356081471
Bhadreswar,Bhadreswar,22.82,88.35,India,IN,IND,West Bengal,,101477.0,1356320019
Chilakalūrupet,Chilakalurupet,16.0892,80.1672,India,IN,IND,Andhra Pradesh,,101398.0,1356065865
Jeypore,Jeypore,18.8563,82.5716,India,IN,IND,Odisha,,101145.0,1356121332
Kāranja,Karanja,20.4833,77.4833,India,IN,IND,Mahārāshtra,,100947.0,1356886242
Chanwari,Chanwari,23.1917,82.3542,India,IN,IND,Chhattīsgarh,,100800.0,1356321736
Port Blair,Port Blair,11.6683,92.7378,India,IN,IND,Andaman and Nicobar Islands,admin,100608.0,1356161713
Kalyani,Kalyani,22.975,88.4344,India,IN,IND,West Bengal,,100575.0,1356108133
Datia,Datia,25.67,78.47,India,IN,IND,Madhya Pradesh,,100466.0,1356903057
Madhavaram,Madhavaram,13.1482,80.2314,India,IN,IND,Tamil Nādu,,100442.0,1356330429
Gangtok,Gangtok,27.33,88.62,India,IN,IND,Sikkim,admin,100286.0,1356689564
Suramāla,Suramala,13.76,79.7,India,IN,IND,Andhra Pradesh,,100000.0,1356049007
Navalyal,Navalyal,16.48,74.78,India,IN,IND,Karnātaka,,100000.0,1356922956
Barod,Barod,27.8947,76.3681,India,IN,IND,Rājasthān,,100000.0,1356077338
Vāsco Da Gāma,Vasco Da Gama,15.3981,73.8111,India,IN,IND,Goa,,100000.0,1356688186
Khambhāliya,Khambhaliya,22.2,69.65,India,IN,IND,Gujarāt,,100000.0,1356128387
Abbigeri,Abbigeri,13.0767,77.525,India,IN,IND,Karnātaka,,100000.0,1356908177
Kundli,Kundli,28.99,77.022,India,IN,IND,Haryāna,,100000.0,1356558693
Luckeesarai,Luckeesarai,25.1678,86.0944,India,IN,IND,Bihār,,99979.0,1356958915
Kadaiyanallūr,Kadaiyanallur,9.0743,77.3419,India,IN,IND,Tamil Nādu,,99807.0,1356371792
Tinsukia,Tinsukia,27.5,95.367,India,IN,IND,Assam,,99507.0,1356391413
Tellicherry,Tellicherry,11.7481,75.4929,India,IN,IND,Kerala,,99386.0,1356231014
Itārsi,Itarsi,22.6115,77.7623,India,IN,IND,Madhya Pradesh,,99330.0,1356602700
Kohīma,Kohima,25.67,94.1,India,IN,IND,Nāgāland,admin,99039.0,1356332206
Khambhāt,Khambhat,22.3,72.62,India,IN,IND,Gujarāt,,98700.0,1356354348
Silvassa,Silvassa,20.2667,73.0167,India,IN,IND,Dādra and Nagar Haveli and Damān and Diu,,98266.0,1356217846
Rāmnagar,Ramnagar,29.395,79.1264,India,IN,IND,Uttarākhand,,97916.0,1356653209
Deoni Buzurg,Deoni Buzurg,18.2639,77.0822,India,IN,IND,Mahārāshtra,,97598.0,1356905462
Kallūru,Kalluru,15.8344,78.0292,India,IN,IND,Andhra Pradesh,,97483.0,1356411831
Bodināyakkanūr,Bodinayakkanur,10.0101,77.3511,India,IN,IND,Tamil Nādu,,96901.0,1356254878
Harihar,Harihar,14.5129,75.8072,India,IN,IND,Karnātaka,,96422.0,1356008032
Bachhraon,Bachhraon,28.93,78.22,India,IN,IND,Uttar Pradesh,,95999.0,1356855458
Amalner,Amalner,21.05,75.05,India,IN,IND,Mahārāshtra,,95994.0,1356850132
Sardārshahr,Sardarshahr,28.4401,74.4908,India,IN,IND,Rājasthān,,95911.0,1356932502
Dhuliān,Dhulian,24.681,87.954,India,IN,IND,West Bengal,,95706.0,1356241829
Paramagudi,Paramagudi,9.5494,78.5891,India,IN,IND,Tamil Nādu,,95579.0,1356185369
Zerakpur,Zerakpur,30.65,76.82,India,IN,IND,Punjab,,95553.0,1356277173
Tandwa,Tandwa,26.55,82.65,India,IN,IND,Uttar Pradesh,,95516.0,1356683773
Tiruchengodu,Tiruchengodu,11.379,77.8949,India,IN,IND,Tamil Nādu,,95335.0,1356749372
Pedagādi,Pedagadi,17.6615,83.2104,India,IN,IND,Andhra Pradesh,,95291.0,1356235887
Nagīna,Nagina,29.443,78.433,India,IN,IND,Uttar Pradesh,,95246.0,1356185479
Chākdaha,Chakdaha,23.08,88.52,India,IN,IND,West Bengal,,95203.0,1356089316
Closepet,Closepet,12.723,77.286,India,IN,IND,Karnātaka,,95167.0,1356069377
Emmiganūr,Emmiganur,15.7333,77.4833,India,IN,IND,Andhra Pradesh,,95149.0,1356089591
Yalamakūru,Yalamakuru,15.5103,77.5249,India,IN,IND,Andhra Pradesh,,95149.0,1356154626
Vāniyambādi,Vaniyambadi,12.6825,78.6167,India,IN,IND,Tamil Nādu,,95061.0,1356737709
Tiruttani,Tiruttani,13.18,79.63,India,IN,IND,Tamil Nādu,,95014.0,1356102827
Kangan,Kangan,34.263,74.903,India,IN,IND,Jammu and Kashmīr,,94874.0,1356028772
Bhadohi,Bhadohi,25.42,82.57,India,IN,IND,Uttar Pradesh,,94620.0,1356863173
Allinagaram,Allinagaram,10.0119,77.4786,India,IN,IND,Tamil Nādu,,94453.0,1356113956
Marmagao,Marmagao,15.4,73.8,India,IN,IND,Goa,,94393.0,1356764529
Dhār,Dhar,22.5972,75.3042,India,IN,IND,Madhya Pradesh,,93917.0,1356266651
Akot,Akot,21.1,77.06,India,IN,IND,Mahārāshtra,,92637.0,1356644864
Contai,Contai,21.78,87.75,India,IN,IND,West Bengal,,92226.0,1356643000
Kot Kapūra,Kot Kapura,30.5833,74.9,India,IN,IND,Punjab,,91979.0,1356007164
Kārwār,Karwar,14.8,74.13,India,IN,IND,Karnātaka,,91458.0,1356118021
Māndvi,Mandvi,22.8333,69.3556,India,IN,IND,Gujarāt,,91330.0,1356046879
Rāyachoti,Rayachoti,14.0583,78.7517,India,IN,IND,Andhra Pradesh,,91234.0,1356147853
Pāloncha,Paloncha,17.6018,80.7051,India,IN,IND,Telangāna,,91196.0,1356171257
Lachhmangarh Sīkar,Lachhmangarh Sikar,27.8225,75.0253,India,IN,IND,Rājasthān,,90992.0,1356216971
Rāmagiri Udayagiri,Ramagiri Udayagiri,19.1619,84.144,India,IN,IND,Odisha,,90774.0,1356046855
Ponnāni,Ponnani,10.77,75.9,India,IN,IND,Kerala,,90491.0,1356710596
Jāmtāra,Jamtara,23.9633,86.8014,India,IN,IND,Jhārkhand,,90426.0,1356076405
Pollāchi,Pollachi,10.659,77.008,India,IN,IND,Tamil Nādu,,90180.0,1356420688
Kāvali,Kavali,14.913,79.9929,India,IN,IND,Andhra Pradesh,,90099.0,1356816305
Sankeshwar,Sankeshwar,16.27,74.48,India,IN,IND,Karnātaka,,89627.0,1356062129
Kadiri,Kadiri,14.12,78.17,India,IN,IND,Andhra Pradesh,,89429.0,1356308559
Phusro,Phusro,23.77,85.99,India,IN,IND,Jhārkhand,,89178.0,1356193741
Kairāna,Kairana,29.3953,77.2053,India,IN,IND,Uttar Pradesh,,89000.0,1356768694
Saundatti,Saundatti,15.7833,75.1167,India,IN,IND,Karnātaka,,88955.0,1356668148
Rāsipuram,Rasipuram,11.47,78.17,India,IN,IND,Tamil Nādu,,88584.0,1356036977
Najībābād,Najibabad,29.6128,78.3425,India,IN,IND,Uttar Pradesh,,88535.0,1356943602
Nirmal,Nirmal,19.1,78.35,India,IN,IND,Telangāna,,88433.0,1356031223
Nirāla,Nirala,19.8143,78.1662,India,IN,IND,Mahārāshtra,,88433.0,1356830965
Ootacamund,Ootacamund,11.41,76.7,India,IN,IND,Tamil Nādu,,88430.0,1356809681
Jangipur,Jangipur,24.4691,88.1032,India,IN,IND,West Bengal,,88165.0,1356655968
Sangrūr,Sangrur,30.2506,75.8442,India,IN,IND,Punjab,,88043.0,1356578624
Mettupālaiyam,Mettupalaiyam,11.2341,76.9067,India,IN,IND,Tamil Nādu,,87905.0,1356679430
Jumri Tilaiyā,Jumri Tilaiya,24.4289,85.5355,India,IN,IND,Jhārkhand,,87867.0,1356900897
Aruppukkottai,Aruppukkottai,9.5139,78.1002,India,IN,IND,Tamil Nādu,,87722.0,1356144326
Farīdkot,Faridkot,30.67,74.76,India,IN,IND,Punjab,,87695.0,1356743545
Madgaon,Madgaon,15.2736,73.9581,India,IN,IND,Goa,,87650.0,1356337752
Palangotu Adwār,Palangotu Adwar,32.7888,76.0009,India,IN,IND,Himāchal Pradesh,,87535.0,1356068456
Jamūī,Jamui,24.9278,86.2239,India,IN,IND,Bihār,,87357.0,1356076412
Kumārapālaiyam,Kumarapalaiyam,11.4416,77.6907,India,IN,IND,Tamil Nādu,,86945.0,1356168265
Hānsi,Hansi,29.1,75.97,India,IN,IND,Haryāna,,86770.0,1356181619
Shahdol,Shahdol,23.28,81.35,India,IN,IND,Madhya Pradesh,,86681.0,1356191462
Anakāpalle,Anakapalle,17.6913,83.0039,India,IN,IND,Andhra Pradesh,,86519.0,1356285975
Nīmbāhera,Nimbahera,24.62,74.68,India,IN,IND,Rājasthān,,86453.0,1356139514
Nachchāndupatti,Nachchandupatti,10.3238,78.7233,India,IN,IND,Tamil Nādu,,86422.0,1356174622
Seoni Mālwa,Seoni Malwa,22.4508,77.4681,India,IN,IND,Madhya Pradesh,,86195.0,1356893622
Sārni,Sarni,22.104,78.173,India,IN,IND,Madhya Pradesh,,86141.0,1356600179
Bāsoda,Basoda,23.8515,77.9365,India,IN,IND,Madhya Pradesh,,85716.0,1356486235
Maratturai,Maratturai,11.1536,79.5329,India,IN,IND,Tamil Nādu,,85632.0,1356242663
Karād,Karad,17.285,74.184,India,IN,IND,Mahārāshtra,,85500.0,1356656959
Chinnachauku,Chinnachauku,14.4732,78.8451,India,IN,IND,Andhra Pradesh,,85442.0,1356975526
Garulia,Garulia,22.82,88.37,India,IN,IND,West Bengal,,85336.0,1356885496
Krishnagiri,Krishnagiri,12.5317,78.2174,India,IN,IND,Tamil Nādu,,85254.0,1356128688
Harda Khās,Harda Khas,22.3441,77.0954,India,IN,IND,Madhya Pradesh,,85136.0,1356762440
Mhow,Mhow,22.55,75.76,India,IN,IND,Madhya Pradesh,,85023.0,1356097509
Dhorāji,Dhoraji,21.7337,70.4499,India,IN,IND,Gujarāt,,84545.0,1356595606
Vīrappanchathiram,Virappanchathiram,11.3553,77.6678,India,IN,IND,Tamil Nādu,,84453.0,1356169564
Lāharpur,Laharpur,27.72,80.9,India,IN,IND,Uttar Pradesh,,84000.0,1356525825
Diphu,Diphu,25.83,93.43,India,IN,IND,Assam,,84000.0,1356140802
Channapatna,Channapatna,12.6514,77.2067,India,IN,IND,Karnātaka,,83921.0,1356894522
Bhawānipatna,Bhawanipatna,19.91,83.128,India,IN,IND,Odisha,,83756.0,1356317899
Pilkhua,Pilkhua,28.712,77.6545,India,IN,IND,Uttar Pradesh,,83736.0,1356121422
Samadiāla,Samadiala,21.337,71.31,India,IN,IND,Gujarāt,,83720.0,1356166137
Tiruppattūr,Tiruppattur,12.4915,78.5684,India,IN,IND,Tamil Nādu,,83612.0,1356818110
Gokulgarh,Gokulgarh,28.2468,76.6176,India,IN,IND,Haryāna,,83310.0,1356118349
Sirsilla,Sirsilla,18.38,78.83,India,IN,IND,Telangāna,,83186.0,1356360144
Mānsa,Mansa,29.9906,75.3996,India,IN,IND,Punjab,,82956.0,1356518024
Chingleput,Chingleput,12.6918,79.9766,India,IN,IND,Tamil Nādu,,82608.0,1356261740
Saunda,Saunda,23.66,85.35,India,IN,IND,Jhārkhand,,81915.0,1356188296
Ashoknagar,Ashoknagar,24.58,77.73,India,IN,IND,Madhya Pradesh,,81828.0,1356679678
Kātoya,Katoya,23.65,88.13,India,IN,IND,West Bengal,,81615.0,1356487359
Kadi,Kadi,23.3009,72.3322,India,IN,IND,Gujarāt,,81404.0,1356474902
Mannārgudi,Mannargudi,10.6653,79.4521,India,IN,IND,Tamil Nādu,,81150.0,1356628918
Balrāmpur,Balrampur,27.43,82.18,India,IN,IND,Uttar Pradesh,,81054.0,1356150506
Khamānon Kalān,Khamanon Kalan,30.82,76.35,India,IN,IND,Punjab,,80991.0,1356562278
Bargarh,Bargarh,21.3333,83.6167,India,IN,IND,Odisha,,80625.0,1356834678
Dahegām,Dahegam,23.17,72.82,India,IN,IND,Gujarāt,,80532.0,1356022392
Kāmāreddipet,Kamareddipet,18.3205,78.337,India,IN,IND,Telangāna,,80315.0,1356010343
Arni,Arni,12.6677,79.2853,India,IN,IND,Tamil Nādu,,80275.0,1356433730
Bolpur,Bolpur,23.67,87.72,India,IN,IND,West Bengal,,80210.0,1356123985
Peruvancha,Peruvancha,17.1719,80.5839,India,IN,IND,Telangāna,,80199.0,1356294882
Gumlā,Gumla,23.0444,84.5417,India,IN,IND,Jhārkhand,,80129.0,1356058585
Simdega,Simdega,22.62,84.52,India,IN,IND,Jhārkhand,,80129.0,1356073158
Manmād,Manmad,20.251,74.439,India,IN,IND,Mahārāshtra,,80058.0,1356593226
Piro,Piro,25.33,84.42,India,IN,IND,Bihār,,80000.0,1356786496
Kottagūdem,Kottagudem,17.55,80.63,India,IN,IND,Telangāna,,79819.0,1356124457
Dobni Para,Dobni Para,22.8347,74.2556,India,IN,IND,Madhya Pradesh,,79185.0,1356550673
Gokāk,Gokak,16.1667,74.8333,India,IN,IND,Karnātaka,,79121.0,1356269894
Tīkamgarh,Tikamgarh,24.7472,78.85,India,IN,IND,Madhya Pradesh,,79106.0,1356652037
Arāria,Araria,26.15,87.52,India,IN,IND,Bihār,,79021.0,1356297542
Arkonam,Arkonam,13.0778,79.6667,India,IN,IND,Tamil Nādu,,78395.0,1356031273
Tanuku,Tanuku,16.7566,81.677,India,IN,IND,Andhra Pradesh,,77962.0,1356546052
Koch Bihār,Koch Bihar,26.3242,89.451,India,IN,IND,West Bengal,,77935.0,1356121274
Kuniyamuttūr,Kuniyamuttur,10.9638,76.9525,India,IN,IND,Tamil Nādu,,77748.0,1356159324
Kambam,Kambam,9.7375,77.2823,India,IN,IND,Tamil Nādu,,77736.0,1356864573
Bodhan,Bodhan,18.67,77.9,India,IN,IND,Telangāna,,77573.0,1356506985
Tirkākara,Tirkakara,10.035,76.329,India,IN,IND,Kerala,,77319.0,1356972490
Baj Baj,Baj Baj,22.4828,88.1818,India,IN,IND,West Bengal,,76837.0,1356102140
Nipāni,Nipani,16.399,74.3829,India,IN,IND,Karnātaka,,76666.0,1356358365
Fāzilka,Fazilka,30.403,74.025,India,IN,IND,Punjab,,76492.0,1356509839
Shājāpur,Shajapur,23.4264,76.2778,India,IN,IND,Madhya Pradesh,,76319.0,1356454991
Keshod,Keshod,21.3,70.25,India,IN,IND,Gujarāt,,76193.0,1356488794
Chintāmani,Chintamani,13.4,78.066,India,IN,IND,Karnātaka,,76068.0,1356761079
Yanam,Yanam,16.7333,82.2167,India,IN,IND,Andhra Pradesh,,76000.0,1356982123
Surendranagar,Surendranagar,22.7,71.6833,India,IN,IND,Gujarāt,,75755.0,1356002804
Malappuram,Malappuram,11.042,76.0815,India,IN,IND,Kerala,,75740.0,1356088136
Garhi,Garhi,28.6317,77.3186,India,IN,IND,Uttar Pradesh,,75544.0,1356249734
Tindivanam,Tindivanam,12.2267,79.6504,India,IN,IND,Tamil Nādu,,75405.0,1356132369
Srīvilliputtūr,Srivilliputtur,9.512,77.633,India,IN,IND,Tamil Nādu,,75396.0,1356411981
Bhadarwāh,Bhadarwah,32.98,75.7137,India,IN,IND,Jammu and Kashmīr,,75376.0,1356209475
Rānāghāt,Ranaghat,23.18,88.58,India,IN,IND,West Bengal,,75365.0,1356577877
Dhrāngadhra,Dhrangadhra,22.98,71.47,India,IN,IND,Gujarāt,,75133.0,1356143071
Gangammapeta,Gangammapeta,18.498,83.9642,India,IN,IND,Andhra Pradesh,,75017.0,1356582081
Khejroli,Khejroli,27.37,75.57,India,IN,IND,Rājasthān,,75000.0,1356851484
Tirumangalam,Tirumangalam,9.8216,77.9891,India,IN,IND,Tamil Nādu,,75000.0,1356214298
Pardigūda,Pardiguda,17.3974,78.5783,India,IN,IND,Telangāna,,75000.0,1356530500
Jaorā,Jaora,23.63,75.13,India,IN,IND,Madhya Pradesh,,74907.0,1356111524
Tura,Tura,25.52,90.22,India,IN,IND,Meghālaya,,74858.0,1356555974
Ambājogāi,Ambajogai,18.73,76.38,India,IN,IND,Mahārāshtra,,74844.0,1356117450
Dabra,Dabra,25.8857,78.3322,India,IN,IND,Madhya Pradesh,,74807.0,1356520849
Wandiwāsh,Wandiwash,12.5,79.62,India,IN,IND,Tamil Nādu,,74320.0,1356564734
Gūdūr,Gudur,14.1473,79.8477,India,IN,IND,Andhra Pradesh,,74037.0,1356336545
Hāveri,Haveri,14.7935,75.4045,India,IN,IND,Karnātaka,,73805.0,1356283006
Tarn Tāran,Tarn Taran,31.4519,74.9278,India,IN,IND,Punjab,,73638.0,1356155717
Mangalagiri,Mangalagiri,16.43,80.55,India,IN,IND,Andhra Pradesh,,73613.0,1356861607
Vriddhāchalam,Vriddhachalam,11.5,79.33,India,IN,IND,Tamil Nādu,,73585.0,1356313384
Kallakkurichchi,Kallakkurichchi,11.738,78.962,India,IN,IND,Tamil Nādu,,73528.0,1356128673
Kāsipālaiyam,Kasipalaiyam,11.3156,77.7092,India,IN,IND,Tamil Nādu,,73425.0,1356169570
Pattukkottai,Pattukkottai,10.43,79.32,India,IN,IND,Tamil Nādu,,73135.0,1356044693
Gobindgarh,Gobindgarh,30.6709,76.3019,India,IN,IND,Punjab,,73131.0,1356126630
Siruguppa,Siruguppa,15.6,77.0,India,IN,IND,Karnātaka,,72503.0,1356620756
Sangāreddi,Sangareddi,17.6294,78.0917,India,IN,IND,Telangāna,,72344.0,1356177714
Virudunagar,Virudunagar,9.568,77.9624,India,IN,IND,Tamil Nādu,,72296.0,1356157444
Warora,Warora,20.23,79.0008,India,IN,IND,Mahārāshtra,,72126.0,1356657499
Chaklāsi,Chaklasi,22.65,72.93,India,IN,IND,Gujarāt,,72000.0,1356043788
Nilanga,Nilanga,18.1161,76.7525,India,IN,IND,Mahārāshtra,,72000.0,1356358329
Quilāndi,Quilandi,11.439,75.695,India,IN,IND,Kerala,,71873.0,1356719358
Mandlā,Mandla,22.6,80.38,India,IN,IND,Madhya Pradesh,,71579.0,1356069599
Rāyadrug,Rayadrug,14.6997,76.8524,India,IN,IND,Andhra Pradesh,,71445.0,1356086451
Bilāra,Bilara,26.1792,73.7056,India,IN,IND,Rājasthān,,71396.0,1356567691
Rāyagada,Rayagada,19.17,83.42,India,IN,IND,Odisha,,71308.0,1356978742
Parappanangādi,Parappanangadi,11.0497,75.8575,India,IN,IND,Kerala,,71239.0,1356812567
Ratangarh,Ratangarh,28.0787,74.6219,India,IN,IND,Rājasthān,,71124.0,1356344775
Tāndūr,Tandur,17.2576,77.5875,India,IN,IND,Telangāna,,71108.0,1356472437
Mārkāpur,Markapur,15.73,79.26,India,IN,IND,Andhra Pradesh,,71092.0,1356101278
Malaut,Malaut,30.19,74.499,India,IN,IND,Punjab,,70958.0,1356603442
Kodungallūr,Kodungallur,10.2338,76.1946,India,IN,IND,Kerala,,70868.0,1356492886
Neyyāttinkara,Neyyattinkara,8.4,77.08,India,IN,IND,Kerala,,70850.0,1356391337
Fatehābād,Fatehabad,29.52,75.45,India,IN,IND,Haryāna,,70777.0,1356065839
Bāpatla,Bapatla,15.9044,80.4675,India,IN,IND,Andhra Pradesh,,70777.0,1356828422
Kalamasseri,Kalamasseri,10.052,76.3158,India,IN,IND,Kerala,,70776.0,1356614388
Badvel,Badvel,14.75,79.05,India,IN,IND,Andhra Pradesh,,70626.0,1356145368
Vālpārai,Valparai,10.3276,76.9553,India,IN,IND,Tamil Nādu,,70589.0,1356065507
Sankaranayinār Kovil,Sankaranayinar Kovil,9.16,77.55,India,IN,IND,Tamil Nādu,,70574.0,1356966080
Sūratgarh,Suratgarh,29.3177,73.8989,India,IN,IND,Rājasthān,,70536.0,1356840891
Dandeli,Dandeli,15.2667,74.6167,India,IN,IND,Karnātaka,,70342.0,1356782464
Nāndūra Buzurg,Nandura Buzurg,20.8333,76.4597,India,IN,IND,Mahārāshtra,,70200.0,1356987352
Gaura,Gaura,25.4961,85.9709,India,IN,IND,Bihār,,70081.0,1356861053
Bijaynagar,Bijaynagar,25.93,74.6386,India,IN,IND,Rājasthān,,70000.0,1356404338
Satyamangalam,Satyamangalam,11.5167,77.25,India,IN,IND,Tamil Nādu,,70000.0,1356304050
Madhipura,Madhipura,25.92,86.792,India,IN,IND,Bihār,,70000.0,1356220190
Kodoli,Kodoli,16.88,74.2,India,IN,IND,Mahārāshtra,,70000.0,1356952242
Avaniyāpuram,Avaniyapuram,9.8818,78.1125,India,IN,IND,Tamil Nādu,,69967.0,1356236929
Basavakalyān,Basavakalyan,17.8728,76.9497,India,IN,IND,Karnātaka,,69717.0,1356923425
Farīdpur,Faridpur,28.2086,79.5381,India,IN,IND,Uttar Pradesh,,69700.0,1356565391
Tripunittura,Tripunittura,9.9439,76.3494,India,IN,IND,Kerala,,69390.0,1356068495
Nowrangapur,Nowrangapur,19.23,82.55,India,IN,IND,Odisha,,69307.0,1356752279
Dharmasāgaram,Dharmasagaram,17.9933,79.4428,India,IN,IND,Telangāna,,69043.0,1356379504
Varisshiyakuni,Varisshiyakuni,11.6325,75.584,India,IN,IND,Kerala,,68970.0,1356864441
Pālghar,Palghar,19.6969,72.7654,India,IN,IND,Mahārāshtra,,68931.0,1356868621
Pakribarawān,Pakribarawan,24.9516,85.7347,India,IN,IND,Bihār,,68780.0,1356513036
Kāyankulam,Kayankulam,9.172,76.501,India,IN,IND,Kerala,,68634.0,1356157010
Parādīp Garh,Paradip Garh,20.316,86.61,India,IN,IND,Odisha,,68585.0,1356331567
Ilkal,Ilkal,15.9592,76.1135,India,IN,IND,Karnātaka,,68534.0,1356096421
Nihtaur,Nihtaur,29.33,78.38,India,IN,IND,Uttar Pradesh,,68500.0,1356110156
Anjangaon,Anjangaon,21.15,77.28,India,IN,IND,Mahārāshtra,,68380.0,1356712792
Renukūt,Renukut,24.2,83.03,India,IN,IND,Uttar Pradesh,,68000.0,1356918335
Nābha,Nabha,30.37,76.15,India,IN,IND,Punjab,,67972.0,1356183052
Siuri,Siuri,23.91,87.527,India,IN,IND,West Bengal,,67864.0,1356042495
Rājsamand,Rajsamand,25.07,73.88,India,IN,IND,Rājasthān,,67798.0,1356835645
Bishnupur,Bishnupur,23.075,87.317,India,IN,IND,West Bengal,,67783.0,1356443025
Modāsa,Modasa,23.47,73.3,India,IN,IND,Gujarāt,,67648.0,1356294511
Gauravaram,Gauravaram,17.1,80.6,India,IN,IND,Telangāna,,67521.0,1356316929
Sausar,Sausar,21.65,78.78,India,IN,IND,Madhya Pradesh,,67459.0,1356174613
Dhenkānāl,Dhenkanal,20.67,85.6,India,IN,IND,Odisha,,67414.0,1356304880
Urun-Islāmpur,Urun-Islampur,17.05,74.267,India,IN,IND,Mahārāshtra,,67391.0,1356106833
Gopālganj,Gopalganj,26.47,84.43,India,IN,IND,Bihār,,67339.0,1356098593
Dhārāpuram,Dharapuram,10.7314,77.5189,India,IN,IND,Tamil Nādu,,67007.0,1356467104
Guruvāyūr,Guruvayur,10.5946,76.0369,India,IN,IND,Kerala,,67006.0,1356146032
Jagoniguda,Jagoniguda,17.32,78.52,India,IN,IND,Telangāna,,66982.0,1356097157
Mīrpeta,Mirpeta,17.32,78.52,India,IN,IND,Telangāna,,66982.0,1356216861
Phalodi,Phalodi,27.131,72.364,India,IN,IND,Rājasthān,,66978.0,1356972193
Beypore,Beypore,11.18,75.82,India,IN,IND,Kerala,,66883.0,1356592326
Siddipet,Siddipet,18.1018,78.852,India,IN,IND,Telangāna,,66737.0,1356671720
Koratla,Koratla,18.8215,78.7119,India,IN,IND,Telangāna,,66504.0,1356581279
Hasanpur,Hasanpur,28.72,78.28,India,IN,IND,Uttar Pradesh,,66340.0,1356082728
Sahaswān,Sahaswan,28.068,78.751,India,IN,IND,Uttar Pradesh,,66204.0,1356981844
Arāmbāgh,Arambagh,22.88,87.78,India,IN,IND,West Bengal,,66175.0,1356169521
Pidugurālla,Piduguralla,16.4793,79.8863,India,IN,IND,Andhra Pradesh,,66167.0,1356026783
Puliyankudi,Puliyankudi,9.1725,77.3956,India,IN,IND,Tamil Nādu,,66000.0,1356638840
Sangamner,Sangamner,19.5678,74.2115,India,IN,IND,Mahārāshtra,,65804.0,1356669414
Gohna,Gohna,29.13,76.9,India,IN,IND,Haryāna,,65708.0,1356118267
Pulivendla,Pulivendla,14.4194,78.225,India,IN,IND,Andhra Pradesh,,65706.0,1356099701
Kānhangād,Kanhangad,12.3167,75.0667,India,IN,IND,Kerala,,65499.0,1356114855
Jaisalmer,Jaisalmer,26.913,70.915,India,IN,IND,Rājasthān,,65471.0,1356575402
Kurabūr,Kurabur,13.4,78.006,India,IN,IND,Karnātaka,,65456.0,1356492161
Giddarbāha,Giddarbaha,30.2,74.67,India,IN,IND,Punjab,,65370.0,1356706088
Tamlūk,Tamluk,22.3,87.92,India,IN,IND,West Bengal,,65306.0,1356893735
Sinnar,Sinnar,19.85,74.0,India,IN,IND,Mahārāshtra,,65299.0,1356138889
Vaijāpur,Vaijapur,19.9267,74.7275,India,IN,IND,Mahārāshtra,,65296.0,1356386676
Jagraon,Jagraon,30.78,75.48,India,IN,IND,Punjab,,65240.0,1356951702
Alīpur Duār,Alipur Duar,26.489,89.527,India,IN,IND,West Bengal,,65232.0,1356472105
Dhūri,Dhuri,30.3685,75.8679,India,IN,IND,Punjab,,65215.0,1356294772
Rāth,Rath,25.58,79.57,India,IN,IND,Uttar Pradesh,,65056.0,1356300745
Keitumkawn,Keitumkawn,23.31,92.85,India,IN,IND,Mizoram,,64937.0,1356267635
Narapalli,Narapalli,17.4875,78.6012,India,IN,IND,Telangāna,,64542.0,1356002369
Pālitāna,Palitana,21.52,71.83,India,IN,IND,Gujarāt,,64497.0,1356100837
Dharmapuri,Dharmapuri,12.1211,78.1582,India,IN,IND,Tamil Nādu,,64444.0,1356724448
Idappādi,Idappadi,11.5835,77.8341,India,IN,IND,Tamil Nādu,,64435.0,1356448099
Hiriyūr,Hiriyur,13.9446,76.6172,India,IN,IND,Karnātaka,,64423.0,1356254728
Sirsi,Sirsi,28.64,78.64,India,IN,IND,Uttar Pradesh,,64345.0,1356633864
Kodād,Kodad,16.9978,79.9653,India,IN,IND,Telangāna,,64234.0,1356852582
Tādepalle,Tadepalle,16.4803,80.6186,India,IN,IND,Andhra Pradesh,,64149.0,1356511543
Armūr,Armur,18.79,78.29,India,IN,IND,Telangāna,,64023.0,1356043277
Bankra,Bankra,22.63,88.3,India,IN,IND,West Bengal,,63957.0,1356096653
Nawalgarh,Nawalgarh,27.8458,75.268,India,IN,IND,Rājasthān,,63948.0,1356085018
Tohāna,Tohana,29.7,75.9,India,IN,IND,Haryāna,,63871.0,1356505021
Khagaul,Khagaul,25.579,85.0456,India,IN,IND,Bihār,,63763.0,1356155902
Chakpi Karong,Chakpi Karong,24.3167,93.9833,India,IN,IND,Manipur,,63730.0,1356394313
Sundapālaiyam,Sundapalaiyam,11.0014,76.8732,India,IN,IND,Tamil Nādu,,63724.0,1356463067
Jatani,Jatani,20.17,85.7,India,IN,IND,Odisha,,63697.0,1356087327
Chik Ballāpur,Chik Ballapur,13.43,77.72,India,IN,IND,Karnātaka,,63652.0,1356871177
Athni,Athni,16.73,75.07,India,IN,IND,Karnātaka,,63625.0,1356105261
Dhuburi,Dhuburi,26.02,90.0,India,IN,IND,Assam,,63338.0,1356620816
Gadwāl,Gadwal,16.23,77.8,India,IN,IND,Telangāna,,63177.0,1356741221
Visnagar,Visnagar,23.7,72.55,India,IN,IND,Gujarāt,,63073.0,1356690813
Pāmūru,Pamuru,15.097,79.409,India,IN,IND,Andhra Pradesh,,63017.0,1356991450
Sheikhpura,Sheikhpura,25.1403,85.8508,India,IN,IND,Bihār,,62927.0,1356900289
Sirsi,Sirsi,14.6194,74.8375,India,IN,IND,Karnātaka,,62882.0,1356142917
Wāshīm,Washim,20.1113,77.133,India,IN,IND,Mahārāshtra,,62863.0,1356185959
Nānpāra,Nanpara,27.87,81.5,India,IN,IND,Uttar Pradesh,,62782.0,1356453583
Bāri,Bari,26.63,77.62,India,IN,IND,Rājasthān,,62721.0,1356361109
Rānipet,Ranipet,12.9247,79.3333,India,IN,IND,Tamil Nādu,,62360.0,1356874157
Kesamudram,Kesamudram,17.6875,79.8944,India,IN,IND,Telangāna,,62323.0,1356260742
Nagari,Nagari,13.3214,79.5856,India,IN,IND,Andhra Pradesh,,62253.0,1356993418
Sherkot,Sherkot,29.35,78.58,India,IN,IND,Uttar Pradesh,,62226.0,1356441053
Rāghogarh,Raghogarh,24.4442,77.1986,India,IN,IND,Madhya Pradesh,,62163.0,1356037142
Chidambaram,Chidambaram,11.407,79.6912,India,IN,IND,Tamil Nādu,,62153.0,1356547124
Narwāna,Narwana,29.6167,76.1117,India,IN,IND,Haryāna,,62090.0,1356363650
Okha,Okha,22.4667,69.0667,India,IN,IND,Gujarāt,,62052.0,1356176730
Bhabhua,Bhabhua,25.05,83.62,India,IN,IND,Bihār,,61999.0,1356880067
Nanjangūd,Nanjangud,12.12,76.68,India,IN,IND,Karnātaka,,61961.0,1356697205
Siddhapur,Siddhapur,23.9167,72.3833,India,IN,IND,Gujarāt,,61867.0,1356103735
Jhārgrām,Jhargram,22.45,86.98,India,IN,IND,West Bengal,,61712.0,1356046912
Rāmanāthapuram,Ramanathapuram,9.3639,78.8395,India,IN,IND,Tamil Nādu,,61440.0,1356182496
Trikonavattam,Trikonavattam,8.9,76.65,India,IN,IND,Kerala,,61287.0,1356164351
Halvad,Halvad,23.02,71.18,India,IN,IND,Gujarāt,,61247.0,1356123243
Udamalpet,Udamalpet,10.5855,77.2513,India,IN,IND,Tamil Nādu,,61133.0,1356413814
Wanparti,Wanparti,16.361,78.0627,India,IN,IND,Telangāna,,60949.0,1356934970
Chāmrājnagar,Chamrajnagar,11.926,76.9402,India,IN,IND,Karnātaka,,60810.0,1356007832
Kukarmunda,Kukarmunda,21.5167,74.1333,India,IN,IND,Gujarāt,,60598.0,1356400276
Dumraon,Dumraon,25.5526,84.1515,India,IN,IND,Bihār,,60463.0,1356621212
Panruti,Panruti,11.77,79.55,India,IN,IND,Tamil Nādu,,60323.0,1356830695
Velampālaiyam,Velampalaiyam,11.1376,77.3106,India,IN,IND,Tamil Nādu,,60296.0,1356163714
Tirukkoyilūr,Tirukkoyilur,11.9675,79.2056,India,IN,IND,Tamil Nādu,,60212.0,1356662137
Rāzampeta,Razampeta,14.1954,79.159,India,IN,IND,Andhra Pradesh,,60188.0,1356160843
Nedumangād,Nedumangad,8.6033,77.0028,India,IN,IND,Kerala,,60161.0,1356104296
Gunupur,Gunupur,19.08,83.82,India,IN,IND,Odisha,,60000.0,1356531908
Mehnājpur,Mehnajpur,25.6722,83.1181,India,IN,IND,Uttar Pradesh,,60000.0,1356082425
Thatri,Thatri,33.1453,75.7911,India,IN,IND,Jammu and Kashmīr,,59955.0,1356306028
Chandralapādu,Chandralapadu,16.715,80.2089,India,IN,IND,Andhra Pradesh,,59943.0,1356193821
Ponnūru,Ponnuru,16.0667,80.5667,India,IN,IND,Andhra Pradesh,,59913.0,1356219968
Kathua,Kathua,32.3694,75.5254,India,IN,IND,Jammu and Kashmīr,,59866.0,1356105038
North Lakhimpur,North Lakhimpur,27.2414,94.1056,India,IN,IND,Assam,,59814.0,1356628778
Vinukonda,Vinukonda,16.05,79.75,India,IN,IND,Andhra Pradesh,,59725.0,1356819642
Gohadi,Gohadi,26.4328,78.442,India,IN,IND,Madhya Pradesh,,59706.0,1356074811
Khagaria,Khagaria,25.5022,86.4671,India,IN,IND,Bihār,,59691.0,1356254291
Pāchora,Pachora,20.67,75.35,India,IN,IND,Mahārāshtra,,59609.0,1356037558
Tiptūr,Tiptur,13.26,76.48,India,IN,IND,Karnātaka,,59543.0,1356059008
Gopichettipālaiyam,Gopichettipalaiyam,11.4549,77.4365,India,IN,IND,Tamil Nādu,,59523.0,1356481097
Itānagar,Itanagar,27.1,93.62,India,IN,IND,Arunāchal Pradesh,admin,59490.0,1356023817
Dhone,Dhone,15.396,77.872,India,IN,IND,Andhra Pradesh,,59272.0,1356669210
Rājgarh,Rajgarh,28.64,75.38,India,IN,IND,Rājasthān,,59193.0,1356123600
Panna,Panna,24.27,80.17,India,IN,IND,Madhya Pradesh,,59091.0,1356085520
Zahirābād,Zahirabad,17.6814,77.6074,India,IN,IND,Telangāna,,58857.0,1356771040
Wani,Wani,20.0556,78.9533,India,IN,IND,Mahārāshtra,,58840.0,1356212376
Binnāguri,Binnaguri,26.7641,89.0558,India,IN,IND,West Bengal,,58840.0,1356498752
Upleta,Upleta,21.73,70.28,India,IN,IND,Gujarāt,,58775.0,1356920234
Narasapur,Narasapur,16.4361,81.7016,India,IN,IND,Andhra Pradesh,,58770.0,1356412895
Sonabedha,Sonabedha,18.73,82.83,India,IN,IND,Odisha,,58647.0,1356061023
Pipariā,Piparia,22.757,78.355,India,IN,IND,Madhya Pradesh,,58578.0,1356825857
Una,Una,20.82,71.03,India,IN,IND,Gujarāt,,58528.0,1356734476
Sardhana,Sardhana,29.145,77.61,India,IN,IND,Uttar Pradesh,,58490.0,1356727750
Hastināpur,Hastinapur,29.17,78.02,India,IN,IND,Uttar Pradesh,,58452.0,1356877930
Sandīla,Sandila,27.08,80.52,India,IN,IND,Uttar Pradesh,,58346.0,1356996737
Tiruvālūr,Tiruvalur,10.773,79.637,India,IN,IND,Tamil Nādu,,58301.0,1356119061
Sillod,Sillod,20.3,75.65,India,IN,IND,Mahārāshtra,,58230.0,1356127258
Mulbāgal,Mulbagal,13.1635,78.3935,India,IN,IND,Karnātaka,,58123.0,1356535403
Hunsūr,Hunsur,12.3036,76.2927,India,IN,IND,Karnātaka,,57948.0,1356412744
Pānskura,Panskura,22.417,87.7,India,IN,IND,West Bengal,,57932.0,1356744342
Nanjakkād,Nanjakkad,9.2069,76.6319,India,IN,IND,Kerala,,57931.0,1356160771
Rāmpur Hat,Rampur Hat,24.17,87.78,India,IN,IND,West Bengal,,57833.0,1356074159
Khandāla,Khandala,18.7481,73.4072,India,IN,IND,Mahārāshtra,,57698.0,1356889561
Lonāvale,Lonavale,18.7481,73.4072,India,IN,IND,Mahārāshtra,,57698.0,1356087772
Bilimora,Bilimora,20.75,72.95,India,IN,IND,Gujarāt,,57583.0,1356597388
Kothāpet,Kothapet,19.3333,79.4833,India,IN,IND,Telangāna,,57583.0,1356072921
Maduraivayal,Maduraivayal,13.0631,80.1719,India,IN,IND,Tamil Nādu,,57563.0,1356036953
Sīra,Sira,13.745,76.909,India,IN,IND,Karnātaka,,57554.0,1356563968
Palāsa,Palasa,18.7731,84.4078,India,IN,IND,Andhra Pradesh,,57507.0,1356231347
Chintalapalli,Chintalapalli,18.331,79.674,India,IN,IND,Telangāna,,57434.0,1356038074
Lohārdagā,Lohardaga,23.4331,84.6799,India,IN,IND,Jhārkhand,,57411.0,1356815700
Mācherla,Macherla,16.48,79.43,India,IN,IND,Andhra Pradesh,,57290.0,1356348515
Bīmgal,Bimgal,18.7,78.4667,India,IN,IND,Telangāna,,57262.0,1356278004
Kandukūr,Kandukur,15.2167,79.9042,India,IN,IND,Andhra Pradesh,,57246.0,1356179414
Keonjhargarh,Keonjhargarh,21.63,85.58,India,IN,IND,Odisha,,57232.0,1356695582
Kollegāl,Kollegal,12.1539,77.101,India,IN,IND,Karnātaka,,57149.0,1356246344
Unjha,Unjha,23.8,72.4,India,IN,IND,Gujarāt,,57108.0,1356738663
Bail-Hongal,Bail-Hongal,15.8137,74.8589,India,IN,IND,Karnātaka,,57057.0,1356104757
Lunglei,Lunglei,22.88,92.73,India,IN,IND,Mizoram,,57011.0,1356318741
Nasīrabād,Nasirabad,26.3,74.73,India,IN,IND,Rājasthān,,56980.0,1356888183
Gūdalur,Gudalur,11.5014,76.4916,India,IN,IND,Tamil Nādu,,56886.0,1356995125
Sāmalkot,Samalkot,17.0531,82.1695,India,IN,IND,Andhra Pradesh,,56864.0,1356044530
Karīmganj,Karimganj,24.87,92.35,India,IN,IND,Assam,,56854.0,1356078103
Bobbili,Bobbili,18.5667,83.3667,India,IN,IND,Andhra Pradesh,,56819.0,1356820046
Kālna,Kalna,23.22,88.37,India,IN,IND,West Bengal,,56722.0,1356051768
Sattenapalle,Sattenapalle,16.3962,80.1497,India,IN,IND,Andhra Pradesh,,56721.0,1356153330
Vrindāvan,Vrindavan,27.58,77.7,India,IN,IND,Uttar Pradesh,,56618.0,1356168243
Diglipur,Diglipur,13.2667,93.0,India,IN,IND,Andaman and Nicobar Islands,,56597.0,1356537734
Naugaon Sādāt,Naugaon Sadat,28.9833,78.4167,India,IN,IND,Uttar Pradesh,,56493.0,1356577967
Sendhwa,Sendhwa,21.6847,75.0953,India,IN,IND,Madhya Pradesh,,56485.0,1356657449
Talegaon Dābhāde,Talegaon Dabhade,18.72,73.68,India,IN,IND,Mahārāshtra,,56435.0,1356444873
Poonamallee,Poonamallee,13.0465,80.11,India,IN,IND,Tamil Nādu,,56237.0,1356180476
Gangārāmpur,Gangarampur,25.4,88.52,India,IN,IND,West Bengal,,56217.0,1356994707
Tiruvallūr,Tiruvallur,13.1231,79.912,India,IN,IND,Tamil Nādu,,56074.0,1356625145
Mandapeta,Mandapeta,16.87,81.93,India,IN,IND,Andhra Pradesh,,56063.0,1356648879
Tirur,Tirur,10.9,75.92,India,IN,IND,Kerala,,56058.0,1356646583
Pithorāgarh,Pithoragarh,29.58,80.22,India,IN,IND,Uttarākhand,,56044.0,1356198469
Kengri,Kengri,12.9122,77.4827,India,IN,IND,Karnātaka,,56040.0,1356059285
Ropar,Ropar,30.9664,76.5331,India,IN,IND,Punjab,,56000.0,1356959681
Ajodhya,Ajodhya,26.7992,82.2044,India,IN,IND,Uttar Pradesh,,55890.0,1356623948
Belampalli,Belampalli,19.0756,79.4881,India,IN,IND,Telangāna,,55841.0,1356972240
Kharar,Kharar,30.74,76.65,India,IN,IND,Punjab,,55821.0,1356563444
Viramgām,Viramgam,23.12,72.03,India,IN,IND,Gujarāt,,55821.0,1356782098
Biswān,Biswan,27.5,81.0,India,IN,IND,Uttar Pradesh,,55780.0,1356917084
Kannamangalam,Kannamangalam,10.05,77.05,India,IN,IND,Kerala,,55738.0,1356160247
Atchampeta,Atchampeta,15.5412,78.9503,India,IN,IND,Andhra Pradesh,,55722.0,1356275253
Kāndi,Kandi,23.95,88.03,India,IN,IND,West Bengal,,55632.0,1356979141
Raxaul,Raxaul,26.9833,84.85,India,IN,IND,Bihār,,55537.0,1356205939
Barwāni,Barwani,22.03,74.9,India,IN,IND,Madhya Pradesh,,55504.0,1356935870
Erumaippatti,Erumaippatti,11.58,77.85,India,IN,IND,Tamil Nādu,,55385.0,1356169533
Harpanahalli,Harpanahalli,14.7877,75.9886,India,IN,IND,Karnātaka,,55317.0,1356150852
Periya Semūr,Periya Semur,11.37,77.6908,India,IN,IND,Tamil Nādu,,55282.0,1356169558
Madhupur,Madhupur,24.26,86.65,India,IN,IND,Jhārkhand,,55238.0,1356044128
Chālil,Chalil,11.7519,75.5959,India,IN,IND,Kerala,,55216.0,1356286910
Challakere,Challakere,14.312,76.651,India,IN,IND,Karnātaka,,55194.0,1356147299
Puthiyangādi,Puthiyangadi,12.0189,75.2588,India,IN,IND,Puducherry,,55149.0,1356955342
Nāmakkal,Namakkal,11.2167,78.1667,India,IN,IND,Tamil Nādu,,55145.0,1356002991
Māngrol,Mangrol,21.12,70.12,India,IN,IND,Gujarāt,,55094.0,1356213913
Chonthrhu,Chonthrhu,32.4865,75.9941,India,IN,IND,Himāchal Pradesh,,55083.0,1356595926
Bhīmunipatnam,Bhimunipatnam,17.8846,83.4393,India,IN,IND,Andhra Pradesh,,55082.0,1356889289
Fālākāta,Falakata,26.53,89.2,India,IN,IND,West Bengal,,55039.0,1356059125
Polūr,Polur,12.5119,79.1258,India,IN,IND,Tamil Nādu,,55000.0,1356267180
Bhongīr,Bhongir,17.51,78.89,India,IN,IND,Telangāna,,55000.0,1356326602
Tāsgaon,Tasgaon,17.03,74.6,India,IN,IND,Mahārāshtra,,55000.0,1356421633
Nāndod,Nandod,21.8706,73.5028,India,IN,IND,Gujarāt,,54923.0,1356800561
Pithāpuram,Pithapuram,17.1167,82.2667,India,IN,IND,Andhra Pradesh,,54859.0,1356440541
Khurai,Khurai,24.0437,78.3301,India,IN,IND,Madhya Pradesh,,54794.0,1356021522
Punganūru,Punganuru,13.3667,78.5833,India,IN,IND,Andhra Pradesh,,54746.0,1356796945
Ghātāl,Ghatal,22.67,87.72,India,IN,IND,West Bengal,,54591.0,1356435927
Sāgar,Sagar,14.1667,75.0333,India,IN,IND,Karnātaka,,54550.0,1356424629
Mūndka,Mundka,28.6794,77.0284,India,IN,IND,Delhi,,54541.0,1356773697
Islāmpur,Islampur,26.27,88.2,India,IN,IND,West Bengal,,54340.0,1356028148
Sidhi,Sidhi,24.42,81.88,India,IN,IND,Madhya Pradesh,,54331.0,1356440000
Rāhuri,Rahuri,19.38,74.65,India,IN,IND,Mahārāshtra,,54325.0,1356541503
Kāsaragod,Kasaragod,12.5,75.0,India,IN,IND,Kerala,,54172.0,1356423448
Puttūr,Puttur,13.45,79.55,India,IN,IND,Andhra Pradesh,,54092.0,1356396930
Jalor,Jalor,25.35,72.62,India,IN,IND,Rājasthān,,54081.0,1356488284
Samāna,Samana,30.15,76.19,India,IN,IND,Punjab,,54072.0,1356972840
Kunnamkulam,Kunnamkulam,10.65,76.08,India,IN,IND,Kerala,,54071.0,1356769956
Palmaner,Palmaner,13.2,78.75,India,IN,IND,Andhra Pradesh,,54035.0,1356813856
Deolāli,Deolali,19.951,73.834,India,IN,IND,Mahārāshtra,,54027.0,1356029407
Umred,Umred,20.85,79.33,India,IN,IND,Mahārāshtra,,53971.0,1356332003
Sohna,Sohna,28.25,77.07,India,IN,IND,Haryāna,,53962.0,1356866942
Pārvatipuram,Parvatipuram,18.78,83.425,India,IN,IND,Andhra Pradesh,,53844.0,1356791674
Mansāla,Mansala,15.9417,77.4281,India,IN,IND,Andhra Pradesh,,53819.0,1356670969
Ullāl,Ullal,12.7584,74.8752,India,IN,IND,Karnātaka,,53808.0,1356227509
Dholka,Dholka,22.72,72.47,India,IN,IND,Gujarāt,,53792.0,1356709185
Ottappālam,Ottappalam,10.77,76.38,India,IN,IND,Kerala,,53790.0,1356181054
Manjeri,Manjeri,11.1202,76.12,India,IN,IND,Kerala,,53650.0,1356408570
Ashta,Ashta,23.0175,76.7221,India,IN,IND,Madhya Pradesh,,53628.0,1356002731
Ilindu Kothi,Ilindu Kothi,32.1461,76.2784,India,IN,IND,Himāchal Pradesh,,53543.0,1356856952
Kāliyāganj,Kaliyaganj,25.63,88.32,India,IN,IND,West Bengal,,53530.0,1356116477
Jaggayyapeta,Jaggayyapeta,16.892,80.0976,India,IN,IND,Andhra Pradesh,,53530.0,1356537421
Goālpāra,Goalpara,26.17,90.62,India,IN,IND,Assam,,53430.0,1356089059
Shāhpur,Shahpur,16.7,76.83,India,IN,IND,Karnātaka,,53366.0,1356480887
Amalāpuram,Amalapuram,16.5787,82.0061,India,IN,IND,Andhra Pradesh,,53231.0,1356997622
Bakhtiyārpur,Bakhtiyarpur,25.459,85.539,India,IN,IND,Bihār,,53223.0,1356003710
Arsikere,Arsikere,13.3139,76.2369,India,IN,IND,Karnātaka,,53216.0,1356006431
Patancheruvu,Patancheruvu,17.5333,78.2645,India,IN,IND,Telangāna,,53160.0,1356686498
Vikārābād,Vikarabad,17.33,77.9,India,IN,IND,Telangāna,,53143.0,1356904767
Bāruipur,Baruipur,22.3654,88.4325,India,IN,IND,West Bengal,,53128.0,1356275520
Puttūr,Puttur,12.7648,75.1842,India,IN,IND,Karnātaka,,53061.0,1356466163
Manglaur,Manglaur,29.8,77.87,India,IN,IND,Uttarākhand,,52971.0,1356014281
Tilhar,Tilhar,27.9628,79.7383,India,IN,IND,Uttar Pradesh,,52909.0,1356864780
Sultānganj,Sultanganj,25.246,86.738,India,IN,IND,Bihār,,52892.0,1356568049
Tiruvalla,Tiruvalla,9.3856,76.5756,India,IN,IND,Kerala,,52883.0,1356161410
Mandi Dabwāli,Mandi Dabwali,29.9477,74.7322,India,IN,IND,Punjab,,52873.0,1356069601
Venkatagiri,Venkatagiri,13.9667,79.5833,India,IN,IND,Andhra Pradesh,,52688.0,1356644043
Sihor,Sihor,21.7,71.97,India,IN,IND,Gujarāt,,52603.0,1356675162
Nerkunram,Nerkunram,13.0619,80.2094,India,IN,IND,Tamil Nādu,,52570.0,1356858169
Badūria,Baduria,22.74,88.79,India,IN,IND,West Bengal,,52493.0,1356034082
Sironj,Sironj,24.1031,77.6905,India,IN,IND,Madhya Pradesh,,52460.0,1356323821
Jangaon,Jangaon,17.7227,79.1518,India,IN,IND,Telangāna,,52394.0,1356403400
Daudnagar,Daudnagar,25.03,84.4,India,IN,IND,Bihār,,52364.0,1356738424
Jiyyammavalasa,Jiyyammavalasa,18.8186,83.5797,India,IN,IND,Andhra Pradesh,,52360.0,1356361410
Mandamāri,Mandamari,18.9822,79.4811,India,IN,IND,Telangāna,,52352.0,1356193430
Lakhminia,Lakhminia,25.4126,86.3253,India,IN,IND,Bihār,,52328.0,1356101691
Korāput,Koraput,18.812,82.7105,India,IN,IND,Odisha,,52203.0,1356742628
Mudhol,Mudhol,16.35,75.2833,India,IN,IND,Karnātaka,,52199.0,1356197896
Phaltan,Phaltan,17.98,74.43,India,IN,IND,Mahārāshtra,,52118.0,1356097873
Diu,Diu,20.7158,70.9858,India,IN,IND,Dādra and Nagar Haveli and Damān and Diu,,52074.0,1356923516
Todupulai,Todupulai,9.8972,76.7139,India,IN,IND,Kerala,,52045.0,1356886530
Khattan,Khattan,33.3773,75.7254,India,IN,IND,Jammu and Kashmīr,,51991.0,1356522570
Vaisampākkal,Vaisampakkal,9.4562,76.5241,India,IN,IND,Kerala,,51960.0,1356160724
Kumarankari,Kumarankari,9.4596,76.4986,India,IN,IND,Kerala,,51960.0,1356160637
Arwal,Arwal,25.2442,84.6631,India,IN,IND,Bihār,,51849.0,1356697722
Burla,Burla,21.5098,83.8726,India,IN,IND,Odisha,,51749.0,1356301513
Gādarwāra,Gadarwara,22.9235,78.7849,India,IN,IND,Madhya Pradesh,,51736.0,1356199910
Kālpi,Kalpi,26.12,79.73,India,IN,IND,Uttar Pradesh,,51670.0,1356999222
Irinjālakuda,Irinjalakuda,10.3424,76.2112,India,IN,IND,Kerala,,51585.0,1356196702
Tirupparangunram,Tirupparangunram,9.8815,78.0731,India,IN,IND,Tamil Nādu,,51543.0,1356018714
Zangāreddigūdem,Zangareddigudem,17.1229,81.2953,India,IN,IND,Andhra Pradesh,,51507.0,1356877137
Peranāmpattu,Peranampattu,12.9387,78.7028,India,IN,IND,Tamil Nādu,,51271.0,1356208271
Rongat,Rongat,12.4667,92.9333,India,IN,IND,Andaman and Nicobar Islands,,51247.0,1356004057
Dabhoi,Dabhoi,22.1376,73.4162,India,IN,IND,Gujarāt,,51240.0,1356266503
Bhavāni,Bhavani,11.4455,77.6821,India,IN,IND,Tamil Nādu,,51186.0,1356666227
Puthuppariyāram,Puthuppariyaram,10.8036,76.6221,India,IN,IND,Kerala,,51185.0,1356160476
Sidlaghatta,Sidlaghatta,13.39,77.86,India,IN,IND,Karnātaka,,51159.0,1356672381
Marpalli,Marpalli,17.5389,77.7708,India,IN,IND,Telangāna,,51090.0,1356470150
Bowringpet,Bowringpet,12.9912,78.178,India,IN,IND,Karnātaka,,51087.0,1356617296
Aurangābād,Aurangabad,27.894,77.369,India,IN,IND,Haryāna,,51050.0,1356561673
Hodal,Hodal,27.894,77.369,India,IN,IND,Haryāna,,51050.0,1356607451
Fatwa,Fatwa,25.5096,85.305,India,IN,IND,Bihār,,51047.0,1356835845
Pardwāl,Pardwal,32.3286,76.1153,India,IN,IND,Himāchal Pradesh,,50920.0,1356125796
Metpalli,Metpalli,18.8492,78.6262,India,IN,IND,Telangāna,,50902.0,1356583037
Repalle,Repalle,16.0172,80.8294,India,IN,IND,Andhra Pradesh,,50866.0,1356083696
Kuchaiburi,Kuchaiburi,22.27,86.17,India,IN,IND,Odisha,,50798.0,1356785102
Vyāra,Vyara,21.12,73.4,India,IN,IND,Gujarāt,,50789.0,1356850056
Sibsāgar,Sibsagar,26.98,94.63,India,IN,IND,Assam,,50781.0,1356506584
Mahmudābād,Mahmudabad,27.3,81.12,India,IN,IND,Uttar Pradesh,,50777.0,1356107149
Bikramganj,Bikramganj,25.2107,84.2551,India,IN,IND,Bihār,,50698.0,1356504956
Chinnamanūr,Chinnamanur,9.8422,77.3857,India,IN,IND,Tamil Nādu,,50635.0,1356280366
Ānaiyūr,Anaiyur,9.9615,78.1118,India,IN,IND,Tamil Nādu,,50569.0,1356235431
Kosamba,Kosamba,21.48,72.95,India,IN,IND,Gujarāt,,50568.0,1356115362
Jaspur,Jaspur,29.2833,78.8167,India,IN,IND,Uttarākhand,,50523.0,1356100934
Forbesganj,Forbesganj,26.3,87.265,India,IN,IND,Bihār,,50475.0,1356077404
Laksar,Laksar,29.749,78.024,India,IN,IND,Uttarākhand,,50450.0,1356563386
Bar Bigha,Bar Bigha,25.2186,85.7332,India,IN,IND,Bihār,,50424.0,1356047864
Tūndla,Tundla,27.2146,78.2368,India,IN,IND,Uttar Pradesh,,50423.0,1356798262
Bāghpat,Baghpat,28.95,77.22,India,IN,IND,Uttar Pradesh,,50310.0,1356272989
Bhawānīpur Rājdhām,Bhawanipur Rajdham,25.6501,87.1396,India,IN,IND,Bihār,,50234.0,1356738539
Bhadrāchalam,Bhadrachalam,17.6688,80.8936,India,IN,IND,Telangāna,,50087.0,1356456973
Biaora,Biaora,23.9163,76.9112,India,IN,IND,Madhya Pradesh,,50061.0,1356147862
Sojat,Sojat,25.92,73.67,India,IN,IND,Rājasthān,,50061.0,1356521444
Tammampatti,Tammampatti,11.4381,78.4836,India,IN,IND,Tamil Nādu,,50000.0,1356881648
Sujānpur,Sujanpur,32.3127,75.6012,India,IN,IND,Punjab,,50000.0,1356488985
Shiv,Shiv,26.1831,71.25,India,IN,IND,Rājasthān,,50000.0,1356291966
Bhattu Kolān,Bhattu Kolan,29.3872,75.3422,India,IN,IND,Haryāna,,50000.0,1356976973
Sihorā,Sihora,23.4871,80.104,India,IN,IND,Madhya Pradesh,,49988.0,1356579413
Chatrā,Chatra,24.2064,84.8708,India,IN,IND,Jhārkhand,,49985.0,1356105725
Parāsia,Parasia,22.1913,78.759,India,IN,IND,Madhya Pradesh,,49979.0,1356420197
Hilsa,Hilsa,25.32,85.28,India,IN,IND,Bihār,,49863.0,1356503158
Nohar,Nohar,29.18,74.77,India,IN,IND,Rājasthān,,49835.0,1356119870
Bhainsa,Bhainsa,19.1,77.9667,India,IN,IND,Telangāna,,49764.0,1356798697
Perintalmanna,Perintalmanna,10.9765,76.2269,India,IN,IND,Kerala,,49723.0,1356811920
Padrauna,Padrauna,26.9042,83.9808,India,IN,IND,Uttar Pradesh,,49723.0,1356332075
Perambalūr,Perambalur,11.23,78.88,India,IN,IND,Tamil Nādu,,49648.0,1356684065
Kizhake Chālakudi,Kizhake Chalakudi,10.3,76.33,India,IN,IND,Kerala,,49525.0,1356982203
Sulleru,Sulleru,18.5333,83.2167,India,IN,IND,Andhra Pradesh,,49500.0,1356399027
Peddāpuram,Peddapuram,17.08,82.13,India,IN,IND,Andhra Pradesh,,49477.0,1356924364
Payyoli,Payyoli,11.5333,75.6667,India,IN,IND,Kerala,,49470.0,1356134337
Mājalgaon,Majalgaon,19.15,76.2333,India,IN,IND,Mahārāshtra,,49453.0,1356596085
Prattipādu,Prattipadu,16.1878,80.3392,India,IN,IND,Andhra Pradesh,,49390.0,1356837402
Kapadvanj,Kapadvanj,23.02,73.07,India,IN,IND,Gujarāt,,49308.0,1356950077
Tennala,Tennala,11.0,75.9333,India,IN,IND,Kerala,,49214.0,1356288264
Rāmnagar,Ramnagar,25.28,83.03,India,IN,IND,Uttar Pradesh,,49142.0,1356053460
Naugachhia,Naugachhia,25.4,87.1,India,IN,IND,Bihār,,49069.0,1356566210
Nizāmpur,Nizampur,21.1117,74.33,India,IN,IND,Mahārāshtra,,49004.0,1356047238
Jaggisettigūdem,Jaggisettigudem,17.1167,81.3,India,IN,IND,Andhra Pradesh,,48994.0,1356368347
Godda,Godda,24.827,87.2125,India,IN,IND,Jhārkhand,,48850.0,1356975722
Bādurpalle,Badurpalle,17.5468,78.365,India,IN,IND,Telangāna,,48835.0,1356883509
Koduvalli,Koduvalli,11.3594,75.9111,India,IN,IND,Kerala,,48678.0,1356744281
Guntakal Junction,Guntakal Junction,15.1711,77.3624,India,IN,IND,Andhra Pradesh,,48658.0,1356011161
Gooty,Gooty,15.121,77.634,India,IN,IND,Andhra Pradesh,,48658.0,1356133077
Bantvāl,Bantval,12.8905,75.0349,India,IN,IND,Karnātaka,,48615.0,1356472512
Kīlvishāram,Kilvisharam,12.9143,79.2854,India,IN,IND,Tamil Nādu,,48519.0,1356082976
Khairābād,Khairabad,27.53,80.75,India,IN,IND,Uttar Pradesh,,48490.0,1356065763
Jasdan,Jasdan,22.03,71.2,India,IN,IND,Gujarāt,,48483.0,1356284058
Upperu,Upperu,16.6427,77.4874,India,IN,IND,Telangāna,,48473.0,1356924393
Mangalapādi,Mangalapadi,12.6431,74.9194,India,IN,IND,Kerala,,48441.0,1356025082
Vite,Vite,17.2711,74.5378,India,IN,IND,Mahārāshtra,,48289.0,1356006065
Homnābād,Homnabad,17.7707,77.1252,India,IN,IND,Karnātaka,,48202.0,1356768839
Joshīmath,Joshimath,30.555,79.565,India,IN,IND,Uttarākhand,,48202.0,1356268711
Gumia,Gumia,23.8106,85.8232,India,IN,IND,Jhārkhand,,48141.0,1356019122
Bokāro,Bokaro,23.7871,85.9564,India,IN,IND,Jhārkhand,,48086.0,1356531281
Nāngal Township,Nangal Township,31.385,76.375,India,IN,IND,Punjab,,48000.0,1356311138
Sadāseopet,Sadaseopet,17.6203,77.9539,India,IN,IND,Telangāna,,47960.0,1356040284
Hoskote,Hoskote,13.0721,77.7892,India,IN,IND,Karnātaka,,47946.0,1356676321
Jalandhar Cantonment,Jalandhar Cantonment,31.286,75.615,India,IN,IND,Punjab,,47845.0,1356104211
Bhatkal,Bhatkal,13.9853,74.5553,India,IN,IND,Karnātaka,,47748.0,1356324455
Dūngarpur,Dungarpur,23.84,73.72,India,IN,IND,Rājasthān,,47706.0,1356350758
Chandrāwāda,Chandrawada,21.6525,69.6746,India,IN,IND,Gujarāt,,47699.0,1356767879
Dumka,Dumka,24.42,87.34,India,IN,IND,Jhārkhand,,47584.0,1356153239
Changanācheri,Changanacheri,9.4667,76.55,India,IN,IND,Kerala,,47485.0,1356848735
Umarkhed,Umarkhed,19.6014,77.6888,India,IN,IND,Mahārāshtra,,47458.0,1356164903
Atarra,Atarra,25.28,80.57,India,IN,IND,Uttar Pradesh,,47419.0,1356292876
Azhikkōd,Azhikkod,11.9076,75.3446,India,IN,IND,Kerala,,47323.0,1356066384
Azhikkal,Azhikkal,11.9076,75.3446,India,IN,IND,Kerala,,47323.0,1356663082
Vikramasingapuram,Vikramasingapuram,8.67,77.33,India,IN,IND,Tamil Nādu,,47241.0,1356054066
Jiāganj,Jiaganj,24.23,88.27,India,IN,IND,West Bengal,,47228.0,1356818151
Manappārai,Manapparai,10.6075,78.4253,India,IN,IND,Tamil Nādu,,47216.0,1356338778
Mattanūr,Mattanur,11.931,75.572,India,IN,IND,Kerala,,47078.0,1356016342
Hagaribommanahalli,Hagaribommanahalli,15.04,76.2,India,IN,IND,Karnātaka,,47042.0,1356395805
Pallipālaiyam,Pallipalaiyam,11.3679,77.7435,India,IN,IND,Tamil Nādu,,47038.0,1356169579
Nandikotkūr,Nandikotkur,15.867,78.267,India,IN,IND,Andhra Pradesh,,46953.0,1356046899
Selu,Selu,19.4551,76.4372,India,IN,IND,Mahārāshtra,,46915.0,1356131508
Mēla Gūdalūr,Mela Gudalur,9.6806,77.2462,India,IN,IND,Tamil Nādu,,46900.0,1356715167
Punalūr,Punalur,9.017,76.926,India,IN,IND,Kerala,,46702.0,1356688710
Kampli,Kampli,15.4063,76.6001,India,IN,IND,Karnātaka,,46701.0,1356155899
Nellikkuppam,Nellikkuppam,11.7667,79.6833,India,IN,IND,Tamil Nādu,,46679.0,1356710287
Padra,Padra,22.23,73.08,India,IN,IND,Gujarāt,,46660.0,1356528617
Obra,Obra,24.42,82.98,India,IN,IND,Uttar Pradesh,,46574.0,1356100800
Aland,Aland,17.5642,76.5685,India,IN,IND,Karnātaka,,46523.0,1356608267
Vuyyūru,Vuyyuru,16.3667,80.85,India,IN,IND,Andhra Pradesh,,46490.0,1356510065
Kadinamkulam,Kadinamkulam,8.6,76.8167,India,IN,IND,Kerala,,46476.0,1356162518
Mānvi,Manvi,15.9833,77.05,India,IN,IND,Karnātaka,,46465.0,1356314428
Nilambūr,Nilambur,11.2769,76.2258,India,IN,IND,Kerala,,46366.0,1356722613
Bhālki,Bhalki,18.0435,77.206,India,IN,IND,Karnātaka,,46322.0,1356429834
Anandpur,Anandpur,21.2141,86.1249,India,IN,IND,Odisha,,46263.0,1356018392
Jammalamadugu,Jammalamadugu,14.85,78.38,India,IN,IND,Andhra Pradesh,,46069.0,1356030028
Garhwa,Garhwa,24.16,83.8075,India,IN,IND,Jhārkhand,,46059.0,1356464330
Sikandra Rao,Sikandra Rao,27.7,78.4,India,IN,IND,Uttar Pradesh,,46038.0,1356029003
Nawāshahr,Nawashahr,31.1167,76.1333,India,IN,IND,Punjab,,46023.0,1356582611
Rānāvāv,Ranavav,21.68,69.75,India,IN,IND,Gujarāt,,46018.0,1356228797
Bihāt,Bihat,25.4253,86.0208,India,IN,IND,Bihār,,46012.0,1356815038
Coonoor,Coonoor,11.345,76.795,India,IN,IND,Tamil Nādu,,45954.0,1356833070
Thoubāl,Thoubal,24.63,94.02,India,IN,IND,Manipur,,45947.0,1356830949
Dharmaragar,Dharmaragar,24.3785,92.1783,India,IN,IND,Tripura,,45887.0,1356861084
Pākaur,Pakaur,24.63,87.85,India,IN,IND,Jhārkhand,,45840.0,1356035089
Shertallai,Shertallai,9.6869,76.3361,India,IN,IND,Kerala,,45827.0,1356986621
Nawai,Nawai,26.3824,75.924,India,IN,IND,Rājasthān,,45787.0,1356336915
Gollalagunta,Gollalagunta,17.1672,82.2847,India,IN,IND,Andhra Pradesh,,45768.0,1356024704
Rājgarh,Rajgarh,24.03,76.88,India,IN,IND,Madhya Pradesh,,45726.0,1356819197
Farrukhnagar,Farrukhnagar,17.0778,78.2011,India,IN,IND,Telangāna,,45675.0,1356373389
Chattamangalam,Chattamangalam,11.296,75.915,India,IN,IND,Kerala,,45628.0,1356230310
Kumta,Kumta,14.4264,74.4122,India,IN,IND,Karnātaka,,45538.0,1356514231
Warud,Warud,21.4167,78.4,India,IN,IND,Mahārāshtra,,45482.0,1356146392
Ganapathivattam,Ganapathivattam,11.67,76.28,India,IN,IND,Kerala,,45417.0,1356875394
Gobārdānga,Gobardanga,22.87,88.76,India,IN,IND,West Bengal,,45377.0,1356963190
Chalungalpādam,Chalungalpadam,9.549,76.3237,India,IN,IND,Kerala,,45102.0,1356162984
Arantāngi,Arantangi,10.1686,78.992,India,IN,IND,Tamil Nādu,,45056.0,1356529940
Nāyudupet,Nayudupet,13.9,79.9,India,IN,IND,Andhra Pradesh,,45055.0,1356576109
Sundargarh,Sundargarh,22.12,84.03,India,IN,IND,Odisha,,45036.0,1356122746
Mahālingpur,Mahalingpur,16.38,75.12,India,IN,IND,Karnātaka,,45000.0,1356541199
Bhāyala,Bhayala,22.8335,72.3643,India,IN,IND,Gujarāt,,45000.0,1356126184
Nalegaon,Nalegaon,18.4167,76.8167,India,IN,IND,Mahārāshtra,,45000.0,1356973813
Muddebihāl,Muddebihal,16.33,76.13,India,IN,IND,Karnātaka,,45000.0,1356094712
Kedgaon,Kedgaon,18.43,74.35,India,IN,IND,Mahārāshtra,,45000.0,1356779261
Sachīn,Sachin,21.08,72.88,India,IN,IND,Gujarāt,,45000.0,1356607032
Ālamūru,Alamuru,16.7833,81.9,India,IN,IND,Andhra Pradesh,,45000.0,1356170039
Dīg,Dig,27.47,77.33,India,IN,IND,Rājasthān,,44999.0,1356670212
Barnagar,Barnagar,23.0489,75.378,India,IN,IND,Madhya Pradesh,,44996.0,1356118388
Charkhi Dādri,Charkhi Dadri,28.59,76.27,India,IN,IND,Haryāna,,44892.0,1356411988
Guledagudda,Guledagudda,16.0502,75.79,India,IN,IND,Karnātaka,,44868.0,1356735858
Rāmeswaram,Rameswaram,9.288,79.313,India,IN,IND,Tamil Nādu,,44856.0,1356465756
Melūr,Melur,10.0313,78.3381,India,IN,IND,Tamil Nādu,,44722.0,1356060351
Dhupgāri,Dhupgari,26.5889,89.0069,India,IN,IND,West Bengal,,44719.0,1356217672
Dowlaiswaram,Dowlaiswaram,16.9556,81.7931,India,IN,IND,Andhra Pradesh,,44637.0,1356803824
Sainthia,Sainthia,23.9451,87.6803,India,IN,IND,West Bengal,,44601.0,1356561407
Jangamguda,Jangamguda,17.6238,78.6251,India,IN,IND,Telangāna,,44562.0,1356005015
Shekhupur,Shekhupur,28.35,79.02,India,IN,IND,Uttar Pradesh,,44475.0,1356692392
Ellenabad,Ellenabad,29.45,74.65,India,IN,IND,Haryāna,,44452.0,1356057911
Karvārakundu,Karvarakundu,11.1167,76.3333,India,IN,IND,Kerala,,44434.0,1356096530
Rāpūr,Rapur,14.2015,79.5351,India,IN,IND,Andhra Pradesh,,44424.0,1356388256
Siyāna,Siyana,28.6269,78.0607,India,IN,IND,Uttar Pradesh,,44415.0,1356843565
Angul,Angul,20.8381,85.0956,India,IN,IND,Odisha,,44390.0,1356441869
Rājaldesar,Rajaldesar,28.03,74.47,India,IN,IND,Rājasthān,,44385.0,1356850348
Dalli Rājhara,Dalli Rajhara,20.58,81.08,India,IN,IND,Chhattīsgarh,,44363.0,1356542563
Nandigāma,Nandigama,16.7833,80.3,India,IN,IND,Andhra Pradesh,,44359.0,1356012566
Barwāh,Barwah,22.2539,76.0385,India,IN,IND,Madhya Pradesh,,44297.0,1356059503
Medak,Medak,18.046,78.263,India,IN,IND,Telangāna,,44255.0,1356054282
Talipparamba,Talipparamba,12.0368,75.3601,India,IN,IND,Kerala,,44247.0,1356781430
Jora,Jora,26.3421,77.8092,India,IN,IND,Madhya Pradesh,,44235.0,1356211132
Ananipalle,Ananipalle,13.4902,79.2895,India,IN,IND,Andhra Pradesh,,44219.0,1356390426
Majurwa,Majurwa,26.1036,86.9193,India,IN,IND,Bihār,,44214.0,1356897478
Raisen,Raisen,23.33,77.8,India,IN,IND,Madhya Pradesh,,44162.0,1356132089
Jānakammapeta,Janakammapeta,15.0125,79.8439,India,IN,IND,Andhra Pradesh,,44059.0,1356032942
Sihora,Sihora,23.0,80.12,India,IN,IND,Madhya Pradesh,,44048.0,1356044182
Murshidābād,Murshidabad,24.18,88.27,India,IN,IND,West Bengal,,44019.0,1356366405
Ahmadpur,Ahmadpur,18.7,76.9333,India,IN,IND,Mahārāshtra,,44000.0,1356151690
Seohāra,Seohara,29.22,78.58,India,IN,IND,Uttar Pradesh,,43985.0,1356800742
Wānkāner,Wankaner,22.6161,70.9531,India,IN,IND,Gujarāt,,43881.0,1356694528
Addanki,Addanki,15.8167,79.9833,India,IN,IND,Andhra Pradesh,,43850.0,1356837121
Nidadavole,Nidadavole,16.92,81.67,India,IN,IND,Andhra Pradesh,,43809.0,1356862958
Anekal,Anekal,12.7105,77.6967,India,IN,IND,Karnātaka,,43767.0,1356802211
Kottangara,Kottangara,8.9167,76.6333,India,IN,IND,Kerala,,43732.0,1356163740
Porsa,Porsa,26.67,78.37,India,IN,IND,Madhya Pradesh,,43695.0,1356503653
Bodupāl,Bodupal,17.4139,78.5783,India,IN,IND,Telangāna,,43692.0,1356074103
Rāmachandrapuram,Ramachandrapuram,16.85,82.02,India,IN,IND,Andhra Pradesh,,43657.0,1356290874
Chembra,Chembra,11.042,75.911,India,IN,IND,Kerala,,43632.0,1356089705
Shōranūr,Shoranur,10.77,76.28,India,IN,IND,Kerala,,43533.0,1356075746
Nilothi,Nilothi,28.8167,76.8667,India,IN,IND,Haryāna,,43371.0,1356727665
Jambusar,Jambusar,22.05,72.8,India,IN,IND,Gujarāt,,43344.0,1356963400
Kōttōppādam,Kottoppadam,10.9979,76.3914,India,IN,IND,Kerala,,43283.0,1356352710
Ambāsamudram,Ambasamudram,8.7037,77.4527,India,IN,IND,Tamil Nādu,,43215.0,1356103053
Yeola,Yeola,20.042,74.489,India,IN,IND,Mahārāshtra,,43205.0,1356655107
Kāyalpattanam,Kayalpattanam,8.5638,78.1246,India,IN,IND,Tamil Nādu,,43116.0,1356546663
Rudauli,Rudauli,26.75,81.75,India,IN,IND,Uttar Pradesh,,43091.0,1356247478
Dhāka,Dhaka,26.72,85.33,India,IN,IND,Bihār,,43074.0,1356006454
Barhiya,Barhiya,25.2833,86.0333,India,IN,IND,Bihār,,43032.0,1356881084
Kattivākkam,Kattivakkam,13.2167,80.3167,India,IN,IND,Tamil Nādu,,43018.0,1356595058
Saoner,Saoner,21.3858,78.9201,India,IN,IND,Mahārāshtra,,43000.0,1356237945
Periyakulam,Periyakulam,10.1239,77.5475,India,IN,IND,Tamil Nādu,,42976.0,1356498668
Bairāgnia,Bairagnia,26.7381,85.2736,India,IN,IND,Bihār,,42895.0,1356258895
Pirthīpur,Pirthipur,25.1853,78.665,India,IN,IND,Madhya Pradesh,,42883.0,1356426276
Mahbūbābād,Mahbubabad,17.6167,80.0167,India,IN,IND,Telangāna,,42851.0,1356014527
Limbdi,Limbdi,22.5685,71.7949,India,IN,IND,Gujarāt,,42769.0,1356357949
Thol,Thol,23.0674,72.5121,India,IN,IND,Gujarāt,,42699.0,1356681416
Barpeta,Barpeta,26.32,91.0,India,IN,IND,Assam,,42649.0,1356659123
Kharik,Kharik,25.3679,87.0026,India,IN,IND,Bihār,,42638.0,1356788245
Sālār,Salar,23.7748,88.1026,India,IN,IND,West Bengal,,42594.0,1356546647
Jājpur,Jajpur,21.214,86.107,India,IN,IND,Odisha,,42555.0,1356107882
Allūru,Alluru,15.1336,78.4975,India,IN,IND,Andhra Pradesh,,42545.0,1356074737
Kadalur,Kadalur,11.1333,75.8167,India,IN,IND,Kerala,,42516.0,1356058623
Jambughoda,Jambughoda,22.3667,73.7167,India,IN,IND,Gujarāt,,42476.0,1356054890
Kārsiyāng,Karsiyang,26.8778,88.2772,India,IN,IND,West Bengal,,42446.0,1356532333
Bhatpalli,Bhatpalli,18.4293,79.8635,India,IN,IND,Telangāna,,42387.0,1356737115
Thān,Than,22.5667,71.1833,India,IN,IND,Gujarāt,,42351.0,1356711533
Laungowāl,Laungowal,30.2167,75.6833,India,IN,IND,Punjab,,42346.0,1356675083
Akbarpur,Akbarpur,26.4333,82.5403,India,IN,IND,Uttar Pradesh,,42248.0,1356710855
Palladam,Palladam,10.99,77.2,India,IN,IND,Tamil Nādu,,42225.0,1356233434
Kārmegh,Karmegh,26.5307,86.4263,India,IN,IND,Bihār,,42203.0,1356646949
Anakaputtur,Anakaputtur,12.9823,80.1282,India,IN,IND,Tamil Nādu,,42131.0,1356301119
Dildārnagar,Dildarnagar,25.4309,83.6665,India,IN,IND,Uttar Pradesh,,42121.0,1356868786
Kālol,Kalol,22.606,73.463,India,IN,IND,Gujarāt,,42100.0,1356923566
Pratāpgarh,Pratapgarh,24.03,74.78,India,IN,IND,Rājasthān,,42079.0,1356078917
Nāthdwāra,Nathdwara,24.93,73.82,India,IN,IND,Rājasthān,,42016.0,1356606458
Muttayyāpuram,Muttayyapuram,8.7498,78.1311,India,IN,IND,Tamil Nādu,,41993.0,1356214142
Nāikankudi,Naikankudi,9.843,77.1519,India,IN,IND,Kerala,,41980.0,1356231114
Barauli,Barauli,26.3815,84.5872,India,IN,IND,Bihār,,41877.0,1356793711
Diamond Harbour,Diamond Harbour,22.191,88.1905,India,IN,IND,West Bengal,,41802.0,1356247896
Sūrampatti,Surampatti,11.3411,77.6956,India,IN,IND,Tamil Nādu,,41782.0,1356169572
Nārāyanpet,Narayanpet,16.7445,77.496,India,IN,IND,Telangāna,,41752.0,1356282239
Saidpur Dabra,Saidpur Dabra,25.3207,87.1793,India,IN,IND,Bihār,,41734.0,1356771686
Berubāri,Berubari,26.3603,88.7152,India,IN,IND,West Bengal,,41593.0,1356337976
Rājgīr,Rajgir,25.03,85.42,India,IN,IND,Bihār,,41587.0,1356823690
Indi,Indi,17.1773,75.9526,India,IN,IND,Karnātaka,,41556.0,1356047992
Rajaori,Rajaori,33.3767,74.3122,India,IN,IND,Jammu and Kashmīr,,41552.0,1356109150
Nalhāti,Nalhati,24.294,87.839,India,IN,IND,West Bengal,,41534.0,1356705146
Sānand,Sanand,22.98,72.38,India,IN,IND,Gujarāt,,41530.0,1356038288
Kodīnar,Kodinar,20.86,70.8,India,IN,IND,Gujarāt,,41492.0,1356105422
Sagauli,Sagauli,26.7639,84.7434,India,IN,IND,Bihār,,41490.0,1356836241
Golāghāt,Golaghat,26.52,93.97,India,IN,IND,Assam,,41489.0,1356013906
