city,city_ascii,lat,lng,country,iso2,iso3,admin_name,capital,population,id
Antananarivo,Antananarivo,-18.91,47.525,Madagascar,MG,MDG,Antananarivo,primary,2300000.0,1450978461
Androtsy,Androtsy,-24.1,46.3,Madagascar,MG,MDG,Toliara,,809313.0,1450017816
Betsiboka,Betsiboka,-16.95,46.83,Madagascar,MG,MDG,Mahajanga,,394561.0,1450524066
Antsirabe,Antsirabe,-19.8667,47.0333,Madagascar,MG,MDG,Antananarivo,minor,265018.0,1450791699
Mahajanga,Mahajanga,-15.7167,46.3167,Madagascar,MG,MDG,Mahajanga,admin,246022.0,1450421961
Toamasina,Toamasina,-18.155,49.41,Madagascar,MG,MDG,Toamasina,admin,225116.0,1450540529
Fianarantsoa,Fianarantsoa,-21.4536,47.0858,Madagascar,MG,MDG,Fianarantsoa,admin,191776.0,1450070223
Toliara,Toliara,-23.35,43.6667,Madagascar,MG,MDG,Toliara,admin,168756.0,1450593748
Antsiranana,Antsiranana,-12.3,49.2833,Madagascar,MG,MDG,Antsiranana,admin,129320.0,1450106928
Ambovombe,Ambovombe,-25.1764,46.0833,Madagascar,MG,MDG,Toliara,minor,114230.0,1450135666
Ambohimangakely,Ambohimangakely,-18.9167,47.6,Madagascar,MG,MDG,Antananarivo,,91056.0,1450074776
Sambava,Sambava,-14.2667,50.1667,Madagascar,MG,MDG,Antsiranana,minor,84039.0,1450004590
Antehiroka,Antehiroka,-18.85,47.4833,Madagascar,MG,MDG,Antananarivo,,80360.0,1450838187
Belo Tsiribihina,Belo Tsiribihina,-19.7,44.55,Madagascar,MG,MDG,Toliara,,72000.0,1450104370
Imerintsiatosika,Imerintsiatosika,-18.9833,47.3167,Madagascar,MG,MDG,Antananarivo,,69953.0,1450857841
Antalaha,Antalaha,-14.8833,50.25,Madagascar,MG,MDG,Antsiranana,,67888.0,1450649394
Ankazoabokely,Ankazoabokely,-21.5036,45.2094,Madagascar,MG,MDG,Toliara,,67337.0,1450489692
Tôlan̈aro,Tolanaro,-25.0325,46.9833,Madagascar,MG,MDG,Toliara,minor,67284.0,1450217836
Madirovalo,Madirovalo,-16.4333,46.5333,Madagascar,MG,MDG,Mahajanga,,66000.0,1450602387
Ambilobe,Ambilobe,-13.2,49.05,Madagascar,MG,MDG,Antsiranana,,62346.0,1450374226
Analavory,Analavory,-18.9667,46.7167,Madagascar,MG,MDG,Antananarivo,,62130.0,1450643533
Ambanja,Ambanja,-13.6786,48.4522,Madagascar,MG,MDG,Antsiranana,,60321.0,1450987919
Andoharanofotsy,Andoharanofotsy,-18.975,47.5333,Madagascar,MG,MDG,Antananarivo,,58878.0,1450381707
Antsalova,Antsalova,-18.6667,44.6167,Madagascar,MG,MDG,Mahajanga,,58280.0,1450407330
Ambahikily,Ambahikily,-21.6,43.6667,Madagascar,MG,MDG,Toliara,,58027.0,1450105131
Antsinanantsena,Antsinanantsena,-18.8333,47.55,Madagascar,MG,MDG,Antananarivo,,57363.0,1450343987
Moramanga,Moramanga,-18.9469,48.2303,Madagascar,MG,MDG,Toamasina,,57084.0,1450998453
Antanifotsy,Antanifotsy,-19.68,47.33,Madagascar,MG,MDG,Antananarivo,,54448.0,1450226310
Ankadinondry-Sakay,Ankadinondry-Sakay,-19.0,46.4639,Madagascar,MG,MDG,Antananarivo,,54217.0,1450977196
Morondava,Morondava,-20.2847,44.3175,Madagascar,MG,MDG,Toliara,minor,53510.0,1450721607
Ampanihy,Ampanihy,-24.6833,44.75,Madagascar,MG,MDG,Toliara,,52053.0,1450328270
Ambohibary,Ambohibary,-19.6167,47.15,Madagascar,MG,MDG,Antananarivo,,52000.0,1450162671
Tanjombato,Tanjombato,-18.95,47.5167,Madagascar,MG,MDG,Antananarivo,,50373.0,1450363732
Ampitatafika,Ampitatafika,-18.9333,47.475,Madagascar,MG,MDG,Fianarantsoa,,50373.0,1450438823
Ejeda,Ejeda,-24.35,44.5167,Madagascar,MG,MDG,Toliara,,49915.0,1450979491
Ambatondrazaka,Ambatondrazaka,-17.8256,48.4289,Madagascar,MG,MDG,Toamasina,minor,47649.0,1450068349
Saranambana,Saranambana,-17.25,49.1833,Madagascar,MG,MDG,Toamasina,,47000.0,1450668500
Faratsiho,Faratsiho,-19.4,46.95,Madagascar,MG,MDG,Antananarivo,,46569.0,1450194641
Amboasary,Amboasary,-25.05,46.3833,Madagascar,MG,MDG,Toliara,,45989.0,1450064335
Tsiroanomandidy,Tsiroanomandidy,-18.7698,46.05,Madagascar,MG,MDG,Antananarivo,minor,44461.0,1450080598
Manakara,Manakara,-22.15,48.0,Madagascar,MG,MDG,Fianarantsoa,minor,44237.0,1450925890
Talatamaty,Talatamaty,-18.8333,47.45,Madagascar,MG,MDG,Antananarivo,,44082.0,1450675935
Maroantsetra,Maroantsetra,-15.4333,49.75,Madagascar,MG,MDG,Toamasina,,42529.0,1450485257
Morarano Chrome,Morarano Chrome,-17.75,48.1667,Madagascar,MG,MDG,Toamasina,,42147.0,1450652075
Fenoarivo Atsinanana,Fenoarivo Atsinanana,-17.3814,49.4092,Madagascar,MG,MDG,Toamasina,minor,41734.0,1450763584
Ambohitrimanjaka,Ambohitrimanjaka,-18.8667,47.4333,Madagascar,MG,MDG,Antananarivo,,41604.0,1450986963
Ambositra,Ambositra,-20.5167,47.25,Madagascar,MG,MDG,Fianarantsoa,minor,41078.0,1450276194
Soavinandriana,Soavinandriana,-19.1667,46.7333,Madagascar,MG,MDG,Antananarivo,,40045.0,1450397314
Matsoandakana,Matsoandakana,-14.9667,49.25,Madagascar,MG,MDG,Mahajanga,,40000.0,1450774810
Benenitra,Benenitra,-23.4522,45.0781,Madagascar,MG,MDG,Toliara,,39766.0,1450877393
Ihosy,Ihosy,-22.4036,46.1258,Madagascar,MG,MDG,Fianarantsoa,minor,39556.0,1450600411
Marovoay,Marovoay,-16.1111,46.6439,Madagascar,MG,MDG,Mahajanga,,39290.0,1450283819
Androka,Androka,-25.1167,44.45,Madagascar,MG,MDG,Toliara,,39168.0,1450742982
Ambatomainty,Ambatomainty,-17.6833,48.2167,Madagascar,MG,MDG,Toamasina,,39000.0,1450199483
Vangaindrano,Vangaindrano,-23.35,47.6,Madagascar,MG,MDG,Fianarantsoa,,38537.0,1450641606
Antsohihy,Antsohihy,-14.8762,47.9834,Madagascar,MG,MDG,Mahajanga,minor,38253.0,1450240411
Mahanoro,Mahanoro,-19.9,48.8,Madagascar,MG,MDG,Toamasina,,37800.0,1450211146
Ambatofinandrahana,Ambatofinandrahana,-20.55,46.8,Madagascar,MG,MDG,Fianarantsoa,,37409.0,1450850777
Andilamena,Andilamena,-17.0167,48.5833,Madagascar,MG,MDG,Toamasina,,37229.0,1450560153
Mandoto,Mandoto,-19.5667,46.2833,Madagascar,MG,MDG,Antananarivo,,37000.0,1450317527
Manazary,Manazary,-19.05,46.8667,Madagascar,MG,MDG,Antananarivo,,37000.0,1450957138
Anosiala,Anosiala,-18.7833,47.4167,Madagascar,MG,MDG,Antananarivo,,36863.0,1450613112
Ikongo,Ikongo,-21.8833,47.4333,Madagascar,MG,MDG,Fianarantsoa,,36684.0,1450895695
Vohipeno,Vohipeno,-17.1667,49.3,Madagascar,MG,MDG,Toamasina,,36000.0,1450859907
Ampasina-Maningory,Ampasina-Maningory,-17.2167,49.4167,Madagascar,MG,MDG,Toamasina,,36000.0,1450030003
Ambohibary,Ambohibary,-18.9,48.2333,Madagascar,MG,MDG,Toamasina,,35923.0,1450987733
Vavatenina,Vavatenina,-17.4667,49.2,Madagascar,MG,MDG,Toamasina,,35750.0,1450949458
Mahabo,Mahabo,-20.3833,44.6667,Madagascar,MG,MDG,Toliara,,35532.0,1450310874
Mahasolo,Mahasolo,-19.1167,46.3667,Madagascar,MG,MDG,Antananarivo,,35152.0,1450644716
Mananara Avaratra,Mananara Avaratra,-16.1667,49.7667,Madagascar,MG,MDG,Toamasina,,35148.0,1450802138
Ikalamavony,Ikalamavony,-21.15,46.5833,Madagascar,MG,MDG,Fianarantsoa,,35114.0,1450926732
Firavahana,Firavahana,-18.6333,46.8667,Madagascar,MG,MDG,Antananarivo,,35000.0,1450613090
Fotadrevo,Fotadrevo,-24.05,45.0167,Madagascar,MG,MDG,Toliara,,35000.0,1450481485
Farafangana,Farafangana,-22.8167,47.8167,Madagascar,MG,MDG,Fianarantsoa,minor,34676.0,1450306255
Andapa,Andapa,-14.65,49.65,Madagascar,MG,MDG,Antsiranana,,34616.0,1450290201
Betafo,Betafo,-19.84,46.855,Madagascar,MG,MDG,Antananarivo,,34336.0,1450624332
Ankazomiriotra,Ankazomiriotra,-19.65,46.5,Madagascar,MG,MDG,Antananarivo,,34000.0,1450000270
Maromandia,Maromandia,-14.2167,48.0833,Madagascar,MG,MDG,Mahajanga,,34000.0,1450666158
Mahasoabe,Mahasoabe,-21.5833,47.2167,Madagascar,MG,MDG,Fianarantsoa,,34000.0,1450903895
Amparafaravola,Amparafaravola,-17.5833,48.2167,Madagascar,MG,MDG,Toamasina,,33299.0,1450596201
Didy,Didy,-18.1167,48.5333,Madagascar,MG,MDG,Toamasina,,33039.0,1450048536
Ambodimanga II,Ambodimanga II,-17.2667,49.1667,Madagascar,MG,MDG,Toamasina,,33000.0,1450874988
Vohitromby,Vohitromby,-23.3,47.5333,Madagascar,MG,MDG,Fianarantsoa,,33000.0,1450355473
Kiranomena,Kiranomena,-18.2833,46.05,Madagascar,MG,MDG,Antananarivo,,32354.0,1450873803
Antsohimbondrona,Antsohimbondrona,-13.0833,48.85,Madagascar,MG,MDG,Antsiranana,,32080.0,1450655799
Andriba,Andriba,-17.5833,46.9333,Madagascar,MG,MDG,Mahajanga,,32000.0,1450511055
Bekoratsaka,Bekoratsaka,-16.1,47.5,Madagascar,MG,MDG,Mahajanga,,32000.0,1450752674
Vohilava,Vohilava,-21.0667,48.0,Madagascar,MG,MDG,Fianarantsoa,,32000.0,1450947026
Itampolo,Itampolo,-24.6833,43.95,Madagascar,MG,MDG,Toliara,,32000.0,1450567522
Ambano,Ambano,-19.8,47.0333,Madagascar,MG,MDG,Antananarivo,,32000.0,1450997295
Sakaraha,Sakaraha,-22.9167,44.5497,Madagascar,MG,MDG,Toliara,,31183.0,1450732335
Ambatomiady,Ambatomiady,-19.6833,47.4167,Madagascar,MG,MDG,Antananarivo,,31140.0,1450424927
Manaratsandry,Manaratsandry,-16.1833,46.5,Madagascar,MG,MDG,Mahajanga,,31056.0,1450445247
Vohitrandriana,Vohitrandriana,-20.75,48.2667,Madagascar,MG,MDG,Fianarantsoa,,31000.0,1450279828
Andranovory,Andranovory,-23.1333,44.1333,Madagascar,MG,MDG,Toliara,,31000.0,1450787147
Andranomanelatra,Andranomanelatra,-19.7833,47.1,Madagascar,MG,MDG,Antananarivo,,30000.0,1450464375
Tsitondroina,Tsitondroina,-21.3,45.9833,Madagascar,MG,MDG,Fianarantsoa,,30000.0,1450441433
Ambinanitelo,Ambinanitelo,-15.35,49.5833,Madagascar,MG,MDG,Toamasina,,30000.0,1450149490
Ambalavao,Ambalavao,-21.8333,46.9333,Madagascar,MG,MDG,Fianarantsoa,,30000.0,1450812103
Antsampandrano,Antsampandrano,-19.9167,47.5667,Madagascar,MG,MDG,Antananarivo,,29788.0,1450559854
Mananasy-Tsitakondaza,Mananasy-Tsitakondaza,-19.15,46.65,Madagascar,MG,MDG,Antananarivo,,29763.0,1450104138
Antsahalava,Antsahalava,-19.5833,47.4667,Madagascar,MG,MDG,Antananarivo,,29556.0,1450903969
Fandriana,Fandriana,-20.2333,47.3833,Madagascar,MG,MDG,Fianarantsoa,,29232.0,1450916986
Andoharanomaitso,Andoharanomaitso,-21.4667,46.95,Madagascar,MG,MDG,Fianarantsoa,,28708.0,1450341443
Fenoarivobe,Fenoarivobe,-18.4497,46.5617,Madagascar,MG,MDG,Antananarivo,,28616.0,1450638055
Mampikony,Mampikony,-16.0917,47.6472,Madagascar,MG,MDG,Mahajanga,,28593.0,1450443116
Ambatolampy,Ambatolampy,-19.3861,47.4292,Madagascar,MG,MDG,Antananarivo,,28500.0,1450037305
Arivonimamo,Arivonimamo,-19.0333,47.1667,Madagascar,MG,MDG,Antananarivo,,28324.0,1450000014
Tsinjoarivo,Tsinjoarivo,-19.6333,47.6833,Madagascar,MG,MDG,Antananarivo,,28108.0,1450592265
Sahavato,Sahavato,-20.6,48.3333,Madagascar,MG,MDG,Fianarantsoa,,28000.0,1450860730
Imito,Imito,-20.4167,47.3167,Madagascar,MG,MDG,Fianarantsoa,,28000.0,1450451117
Sandrandahy,Sandrandahy,-20.35,47.3,Madagascar,MG,MDG,Fianarantsoa,,28000.0,1450900156
Ambohijanahary,Ambohijanahary,-17.4,48.3667,Madagascar,MG,MDG,Toamasina,,28000.0,1450399017
Tsinjoarivo,Tsinjoarivo,-18.9333,46.3167,Madagascar,MG,MDG,Antananarivo,,27934.0,1450298456
Ambohitompoina,Ambohitompoina,-19.75,47.5667,Madagascar,MG,MDG,Antananarivo,,27899.0,1450129746
Ampasimanolotra,Ampasimanolotra,-18.8194,49.0736,Madagascar,MG,MDG,Toamasina,,27865.0,1450133972
Ambodibonara,Ambodibonara,-20.3388,48.5177,Madagascar,MG,MDG,Toamasina,,27597.0,1450738968
Marolambo,Marolambo,-20.05,48.1167,Madagascar,MG,MDG,Toamasina,,27509.0,1450683142
Behara,Behara,-24.95,46.3833,Madagascar,MG,MDG,Toliara,,27285.0,1450740958
Ambohijanaka,Ambohijanaka,-18.9833,47.55,Madagascar,MG,MDG,Antananarivo,,27088.0,1450475347
Vohipaho,Vohipaho,-23.55,47.5,Madagascar,MG,MDG,Fianarantsoa,,27000.0,1450398664
Tsaravary,Tsaravary,-21.25,48.3,Madagascar,MG,MDG,Fianarantsoa,,27000.0,1450274736
Miandrarivo,Miandrarivo,-19.4333,46.75,Madagascar,MG,MDG,Antananarivo,,27000.0,1450672454
Mandabe,Mandabe,-21.05,44.9333,Madagascar,MG,MDG,Toliara,,27000.0,1450718280
Andranomavo,Andranomavo,-16.5667,45.5833,Madagascar,MG,MDG,Mahajanga,,27000.0,1450968548
Antsiatsiaka,Antsiatsiaka,-17.0,49.2,Madagascar,MG,MDG,Toamasina,,27000.0,1450414497
Alakamisy Itenina,Alakamisy Itenina,-21.6333,47.15,Madagascar,MG,MDG,Fianarantsoa,,27000.0,1450665249
Ambinanisakana,Ambinanisakana,-16.95,49.5833,Madagascar,MG,MDG,Toamasina,,26990.0,1450453303
Soanierana Ivongo,Soanierana Ivongo,-16.9167,49.5833,Madagascar,MG,MDG,Toamasina,,26990.0,1450631531
Ambodiangezoka,Ambodiangezoka,-14.6,49.5,Madagascar,MG,MDG,Antsiranana,,26673.0,1450741103
Beramanja,Beramanja,-13.3333,48.8667,Madagascar,MG,MDG,Antsiranana,,26273.0,1450322357
Anosipatrana,Anosipatrana,-18.9333,47.5,Madagascar,MG,MDG,Antananarivo,,26107.0,1450506869
Mahitsy,Mahitsy,-18.75,47.35,Madagascar,MG,MDG,Antananarivo,,26056.0,1450344593
Ambatomborona,Ambatomborona,-19.4,47.1167,Madagascar,MG,MDG,Antananarivo,,26000.0,1450670028
Malaimbandy,Malaimbandy,-20.3333,45.6,Madagascar,MG,MDG,Toliara,,26000.0,1450415415
Mahambo,Mahambo,-17.4833,49.4667,Madagascar,MG,MDG,Toamasina,,26000.0,1450449223
Ambatofotsy,Ambatofotsy,-21.75,47.4833,Madagascar,MG,MDG,Fianarantsoa,,26000.0,1450519366
Tsarazaza,Tsarazaza,-20.1333,47.2333,Madagascar,MG,MDG,Fianarantsoa,,26000.0,1450665251
Maevatanana,Maevatanana,-16.95,46.8333,Madagascar,MG,MDG,Mahajanga,minor,25928.0,1450402111
Andasibe,Andasibe,-17.3333,48.9,Madagascar,MG,MDG,Toamasina,,25831.0,1450830509
Maintirano,Maintirano,-18.0667,44.0167,Madagascar,MG,MDG,Mahajanga,minor,25788.0,1450625023
Fenoarivo,Fenoarivo,-18.9333,47.4333,Madagascar,MG,MDG,Antananarivo,,25675.0,1450445815
Mananjary,Mananjary,-21.2311,48.3419,Madagascar,MG,MDG,Fianarantsoa,,25222.0,1450681595
Ampahana,Ampahana,-14.75,50.2167,Madagascar,MG,MDG,Antsiranana,,25000.0,1450937375
Fidirana,Fidirana,-19.5,46.5667,Madagascar,MG,MDG,Antananarivo,,25000.0,1450335762
Mahatalaky,Mahatalaky,-24.7833,47.0833,Madagascar,MG,MDG,Toliara,,25000.0,1450981094
Ankazomborona,Ankazomborona,-16.1167,46.75,Madagascar,MG,MDG,Mahajanga,,25000.0,1450164210
Antsirabe Avaratra,Antsirabe Avaratra,-13.9667,49.9667,Madagascar,MG,MDG,Antsiranana,,25000.0,1450349546
Tsaratanana,Tsaratanana,-16.7972,47.6528,Madagascar,MG,MDG,Mahajanga,,24971.0,1450412492
Sahasoa,Sahasoa,-21.9833,45.95,Madagascar,MG,MDG,Fianarantsoa,,24877.0,1450687379
Anivorano Avaratra,Anivorano Avaratra,-12.7333,49.2333,Madagascar,MG,MDG,Antsiranana,,24838.0,1450739750
Ambohimasina,Ambohimasina,-19.65,46.7333,Madagascar,MG,MDG,Antananarivo,,24352.0,1450467942
Mahaiza,Mahaiza,-19.9,46.8167,Madagascar,MG,MDG,Antananarivo,,24244.0,1450126479
Ambalamanasy II,Ambalamanasy II,-14.5167,49.5833,Madagascar,MG,MDG,Antsiranana,,24211.0,1450605901
Anjozorobe,Anjozorobe,-18.4033,47.85,Madagascar,MG,MDG,Antananarivo,,24117.0,1450597043
Soamanandrariny,Soamanandrariny,-19.65,47.2833,Madagascar,MG,MDG,Antananarivo,,24003.0,1450764328
Ambatotsipihina,Ambatotsipihina,-19.6333,47.75,Madagascar,MG,MDG,Antananarivo,,24003.0,1450556369
Ambohimandroso,Ambohimandroso,-19.5167,47.4167,Madagascar,MG,MDG,Antananarivo,,24000.0,1450713375
Lopary,Lopary,-23.1833,47.6667,Madagascar,MG,MDG,Fianarantsoa,,24000.0,1450854735
Antonibe,Antonibe,-15.1167,47.4,Madagascar,MG,MDG,Mahajanga,,24000.0,1450316334
Antanimieva,Antanimieva,-22.2333,43.7667,Madagascar,MG,MDG,Toliara,,24000.0,1450718789
Miarinarivo,Miarinarivo,-17.65,49.1,Madagascar,MG,MDG,Toamasina,,24000.0,1450268766
Tsiatosika,Tsiatosika,-21.2,48.2333,Madagascar,MG,MDG,Fianarantsoa,,24000.0,1450500490
Ambohimahamasina,Ambohimahamasina,-21.9333,47.1833,Madagascar,MG,MDG,Fianarantsoa,,23949.0,1450478240
Miantso,Miantso,-18.7167,47.15,Madagascar,MG,MDG,Antananarivo,,23691.0,1450952879
Antanimasaka,Antanimasaka,-16.2333,46.5167,Madagascar,MG,MDG,Mahajanga,,23331.0,1450865141
Ambohimiadana,Ambohimiadana,-19.2333,47.7833,Madagascar,MG,MDG,Antananarivo,,23320.0,1450165876
Tsaratanana,Tsaratanana,-21.1833,47.6333,Madagascar,MG,MDG,Fianarantsoa,,23252.0,1450726969
Mangidy,Mangidy,-21.25,46.8,Madagascar,MG,MDG,Fianarantsoa,,23033.0,1450650738
Ambohitrarivo,Ambohitrarivo,-17.4667,48.35,Madagascar,MG,MDG,Toamasina,,23000.0,1450446247
Mahela,Mahela,-20.9667,48.45,Madagascar,MG,MDG,Fianarantsoa,,23000.0,1450069784
Farahalana,Farahalana,-14.4333,50.1667,Madagascar,MG,MDG,Antsiranana,,23000.0,1450865823
Analamisampy,Analamisampy,-22.4667,43.65,Madagascar,MG,MDG,Toliara,,23000.0,1450834889
Ambohitoaka,Ambohitoaka,-16.0167,47.65,Madagascar,MG,MDG,Mahajanga,,23000.0,1450398424
Miantsoarivo,Miantsoarivo,-19.2,47.4,Madagascar,MG,MDG,Antananarivo,,23000.0,1450237098
Ankaramy,Ankaramy,-13.9833,48.2,Madagascar,MG,MDG,Mahajanga,,23000.0,1450209200
Marovato,Marovato,-15.9,48.05,Madagascar,MG,MDG,Mahajanga,,23000.0,1450492624
Ankilizato,Ankilizato,-20.4,45.05,Madagascar,MG,MDG,Toliara,,23000.0,1450796220
Andalatanosy,Andalatanosy,-24.6667,45.6,Madagascar,MG,MDG,Toliara,,23000.0,1450638418
Ivato,Ivato,-20.6167,47.2,Madagascar,MG,MDG,Fianarantsoa,,22745.0,1450605437
Andoany,Andoany,-13.4,48.2666,Madagascar,MG,MDG,Antsiranana,,22680.0,1450689047
Morombe,Morombe,-21.75,43.3667,Madagascar,MG,MDG,Toliara,,22625.0,1450018559
Boriziny,Boriziny,-15.567,47.621,Madagascar,MG,MDG,Mahajanga,,22573.0,1450881800
Betsizaraina,Betsizaraina,-19.95,48.75,Madagascar,MG,MDG,Toamasina,,22409.0,1450919460
Manakambahiny,Manakambahiny,-17.8,48.3333,Madagascar,MG,MDG,Toamasina,,22000.0,1450199709
Ambodimotso Atsimo,Ambodimotso Atsimo,-15.3833,48.6,Madagascar,MG,MDG,Mahajanga,,22000.0,1450354042
Ampasimanjeva,Ampasimanjeva,-21.7333,48.0333,Madagascar,MG,MDG,Fianarantsoa,,22000.0,1450896480
Iarintsena,Iarintsena,-21.8167,46.8667,Madagascar,MG,MDG,Fianarantsoa,,22000.0,1450516080
Andranovorivato,Andranovorivato,-21.6333,46.9833,Madagascar,MG,MDG,Fianarantsoa,,22000.0,1450284938
Bemanonga,Bemanonga,-20.2833,44.35,Madagascar,MG,MDG,Toliara,,22000.0,1450905761
Vohimasina,Vohimasina,-21.7333,48.1333,Madagascar,MG,MDG,Fianarantsoa,,22000.0,1450287658
Andilanatoby,Andilanatoby,-17.9333,48.2333,Madagascar,MG,MDG,Toamasina,,22000.0,1450217709
Alakamisy-Ambohimaha,Alakamisy-Ambohimaha,-21.3167,47.2167,Madagascar,MG,MDG,Fianarantsoa,,22000.0,1450325718
Ambalaroka,Ambalaroka,-22.1333,47.7333,Madagascar,MG,MDG,Fianarantsoa,,22000.0,1450936637
Jafaro,Jafaro,-24.9167,45.5167,Madagascar,MG,MDG,Toliara,,22000.0,1450577279
Ankiabe-Salohy,Ankiabe-Salohy,-15.6,48.7167,Madagascar,MG,MDG,Mahajanga,,22000.0,1450727399
Antsakabary,Antsakabary,-15.05,48.9333,Madagascar,MG,MDG,Mahajanga,,22000.0,1450047713
Ampanotokana,Ampanotokana,-18.7167,47.3,Madagascar,MG,MDG,Antananarivo,,21969.0,1450337048
Ambatomanoina,Ambatomanoina,-18.3167,47.6167,Madagascar,MG,MDG,Antananarivo,,21779.0,1450369214
Lakato,Lakato,-19.1833,48.4333,Madagascar,MG,MDG,Toamasina,,21609.0,1450863135
Ambohitromby,Ambohitromby,-18.9667,46.3167,Madagascar,MG,MDG,Antananarivo,,21466.0,1450386250
Ambinanindrano,Ambinanindrano,-20.6833,47.5667,Madagascar,MG,MDG,Fianarantsoa,,21364.0,1450392046
Fierenana,Fierenana,-18.55,45.85,Madagascar,MG,MDG,Antananarivo,,21224.0,1450253158
Morafeno,Morafeno,-15.4833,48.2,Madagascar,MG,MDG,Mahajanga,,21000.0,1450032930
Sitampiky,Sitampiky,-16.6667,46.1,Madagascar,MG,MDG,Mahajanga,,21000.0,1450688807
Ambalavato,Ambalavato,-22.9667,47.4667,Madagascar,MG,MDG,Fianarantsoa,,21000.0,1450281811
Tongobory,Tongobory,-23.5167,44.3333,Madagascar,MG,MDG,Toliara,,21000.0,1450220493
Tsarasaotra,Tsarasaotra,-20.4333,47.2333,Madagascar,MG,MDG,Fianarantsoa,,21000.0,1450387787
Ambohipandrano,Ambohipandrano,-19.15,47.3667,Madagascar,MG,MDG,Antananarivo,,21000.0,1450475583
Andolofotsy,Andolofotsy,-18.75,46.6333,Madagascar,MG,MDG,Antananarivo,,21000.0,1450054125
Soanindrariny,Soanindrariny,-19.9,47.2333,Madagascar,MG,MDG,Antananarivo,,21000.0,1450013819
Ankililoaka,Ankililoaka,-22.7667,43.6167,Madagascar,MG,MDG,Toliara,,21000.0,1450496497
Tsiamalao,Tsiamalao,-15.05,48.45,Madagascar,MG,MDG,Mahajanga,,21000.0,1450394904
Fiadanana,Fiadanana,-20.4333,48.3833,Madagascar,MG,MDG,Fianarantsoa,,21000.0,1450442831
Antanambao,Antanambao,-19.6667,47.3333,Madagascar,MG,MDG,Antananarivo,,21000.0,1450771777
Sahamadio,Sahamadio,-22.5167,47.5667,Madagascar,MG,MDG,Fianarantsoa,,21000.0,1450499923
Miorimivalana,Miorimivalana,-17.2167,49.2,Madagascar,MG,MDG,Toamasina,,21000.0,1450765179
Ambohimanambola,Ambohimanambola,-19.8,46.6167,Madagascar,MG,MDG,Antananarivo,,21000.0,1450223551
Ampasimatera,Ampasimatera,-15.9333,47.75,Madagascar,MG,MDG,Mahajanga,,21000.0,1450446865
Karianga,Karianga,-22.4167,47.3667,Madagascar,MG,MDG,Fianarantsoa,,21000.0,1450185068
Matanga,Matanga,-23.5167,47.55,Madagascar,MG,MDG,Fianarantsoa,,21000.0,1450994250
Ankaraobato,Ankaraobato,-18.9,47.4667,Madagascar,MG,MDG,Antananarivo,,20969.0,1450653846
Ambohimanga,Ambohimanga,-18.7667,47.5667,Madagascar,MG,MDG,Antananarivo,,20872.0,1450695670
Vinany,Vinany,-19.6167,46.4833,Madagascar,MG,MDG,Antananarivo,,20844.0,1450526902
Ambondro,Ambondro,-25.25,45.8333,Madagascar,MG,MDG,Toliara,,20796.0,1450087173
Miandrivazo,Miandrivazo,-19.5239,45.4573,Madagascar,MG,MDG,Toliara,,20631.0,1450332104
Beforona,Beforona,-18.9667,48.5833,Madagascar,MG,MDG,Toamasina,,20380.0,1450730932
Alatsinainy-Bakaro,Alatsinainy-Bakaro,-19.3167,47.6833,Madagascar,MG,MDG,Antananarivo,,20370.0,1450565382
Mahaditra,Mahaditra,-21.75,47.1,Madagascar,MG,MDG,Fianarantsoa,,20068.0,1450574593
Ampasimena,Ampasimena,-24.3667,47.1667,Madagascar,MG,MDG,Toliara,,20000.0,1450235896
Mandrosohasina,Mandrosohasina,-19.5833,47.1667,Madagascar,MG,MDG,Antananarivo,,20000.0,1450360215
Ambalakirajy,Ambalakirajy,-15.8333,48.5,Madagascar,MG,MDG,Mahajanga,,20000.0,1450763595
Rantabe,Rantabe,-15.7,49.65,Madagascar,MG,MDG,Toamasina,,20000.0,1450394708
Mandiavato,Mandiavato,-19.0833,47.0167,Madagascar,MG,MDG,Antananarivo,,20000.0,1450557492
Ambatosoratra,Ambatosoratra,-17.6167,48.5167,Madagascar,MG,MDG,Toamasina,,20000.0,1450886984
Antsampandrano,Antsampandrano,-19.5333,47.5833,Madagascar,MG,MDG,Antananarivo,,20000.0,1450604562
Tsararafa,Tsararafa,-22.7333,47.8167,Madagascar,MG,MDG,Fianarantsoa,,20000.0,1450899440
Analapatsy,Analapatsy,-24.25,47.2,Madagascar,MG,MDG,Toliara,,20000.0,1450179269
Tsarabaria,Tsarabaria,-13.75,49.95,Madagascar,MG,MDG,Antsiranana,,20000.0,1450130867
Soavina Antanety,Soavina Antanety,-19.8,46.7333,Madagascar,MG,MDG,Antananarivo,,20000.0,1450021851
Bekatra Maromiandra,Bekatra Maromiandra,-22.1,47.7167,Madagascar,MG,MDG,Fianarantsoa,,20000.0,1450240946
Vasiana,Vasiana,-19.6333,46.2333,Madagascar,MG,MDG,Antananarivo,,19992.0,1450035563
Ampefy,Ampefy,-19.0419,46.7328,Madagascar,MG,MDG,Antananarivo,,19949.0,1450915627
Doany,Doany,-14.3667,49.5167,Madagascar,MG,MDG,Antsiranana,,19928.0,1450623389
Nosy Varika,Nosy Varika,-20.5833,48.5333,Madagascar,MG,MDG,Fianarantsoa,,19787.0,1450317495
Andaingo Gara,Andaingo Gara,-18.2,48.2833,Madagascar,MG,MDG,Toamasina,,19656.0,1450562250
Gogogogo,Gogogogo,-24.2667,44.8,Madagascar,MG,MDG,Toliara,,19454.0,1450629172
Amboanana,Amboanana,-19.15,47.1667,Madagascar,MG,MDG,Antananarivo,,19217.0,1450418380
Ambatomirahavavy,Ambatomirahavavy,-18.9333,47.3833,Madagascar,MG,MDG,Antananarivo,,19163.0,1450466321
Ampanety,Ampanety,-18.975,47.4944,Madagascar,MG,MDG,Antananarivo,,19135.0,1450696660
Itaosy,Itaosy,-18.9167,47.4667,Madagascar,MG,MDG,Antananarivo,,19041.0,1450526917
Befandriana Atsimo,Befandriana Atsimo,-22.1,43.8833,Madagascar,MG,MDG,Toliara,,19000.0,1450758154
Anjahabe,Anjahabe,-16.3667,46.6167,Madagascar,MG,MDG,Mahajanga,,19000.0,1450925843
Ambalanirana,Ambalanirana,-18.75,46.5,Madagascar,MG,MDG,Antananarivo,,19000.0,1450592549
Ambatomena,Ambatomena,-19.85,47.25,Madagascar,MG,MDG,Antananarivo,,19000.0,1450833007
Mitsinjo,Mitsinjo,-16.0,45.8667,Madagascar,MG,MDG,Mahajanga,,19000.0,1450222035
Belamoty,Belamoty,-23.55,44.8,Madagascar,MG,MDG,Toliara,,19000.0,1450066289
Vohimasy,Vohimasy,-22.1,47.7833,Madagascar,MG,MDG,Fianarantsoa,,19000.0,1450885065
Ampataka,Ampataka,-23.35,47.4667,Madagascar,MG,MDG,Fianarantsoa,,19000.0,1450220197
Ifanirea,Ifanirea,-22.1833,47.4667,Madagascar,MG,MDG,Fianarantsoa,,19000.0,1450435831
Tanambe,Tanambe,-17.3667,48.45,Madagascar,MG,MDG,Toamasina,,19000.0,1450750659
Ambodinonoka,Ambodinonoka,-20.9833,47.8833,Madagascar,MG,MDG,Fianarantsoa,,19000.0,1450637374
Miarinavaratra,Miarinavaratra,-20.2167,47.5167,Madagascar,MG,MDG,Fianarantsoa,,19000.0,1450849602
Ambatosia,Ambatosia,-14.6667,48.65,Madagascar,MG,MDG,Mahajanga,,19000.0,1450014138
Mahazoarivo,Mahazoarivo,-22.3167,47.5833,Madagascar,MG,MDG,Fianarantsoa,,19000.0,1450077325
Manantenina,Manantenina,-24.2833,47.3167,Madagascar,MG,MDG,Toliara,,19000.0,1450085416
Bezaha,Bezaha,-23.5,44.5,Madagascar,MG,MDG,Toliara,,19000.0,1450987255
Ranomena,Ranomena,-23.4167,47.2667,Madagascar,MG,MDG,Fianarantsoa,,19000.0,1450229424
Fihaonana,Fihaonana,-18.6,47.2,Madagascar,MG,MDG,Antananarivo,,18846.0,1450022062
Antotohazo,Antotohazo,-18.4667,47.0833,Madagascar,MG,MDG,Antananarivo,,18774.0,1450165853
Tsivory,Tsivory,-24.0683,46.0756,Madagascar,MG,MDG,Toliara,,18694.0,1450216088
Antombana,Antombana,-15.0,50.1667,Madagascar,MG,MDG,Antsiranana,,18592.0,1450620743
Talata-Volonondry,Talata-Volonondry,-18.75,47.65,Madagascar,MG,MDG,Antananarivo,,18314.0,1450123818
Antanambao,Antanambao,-15.1667,50.3667,Madagascar,MG,MDG,Antsiranana,,18232.0,1450199403
Kiangara,Kiangara,-17.9667,47.0333,Madagascar,MG,MDG,Antananarivo,,18197.0,1450262091
Antsampanimahazo,Antsampanimahazo,-19.64,47.158,Madagascar,MG,MDG,Antananarivo,,18000.0,1450189710
Antanambe,Antanambe,-16.4333,49.85,Madagascar,MG,MDG,Toamasina,,18000.0,1450702701
Manampatrana,Manampatrana,-21.65,47.5833,Madagascar,MG,MDG,Fianarantsoa,,18000.0,1450823569
Alakamisy,Alakamisy,-20.2,47.3167,Madagascar,MG,MDG,Fianarantsoa,,18000.0,1450227437
Maroteza,Maroteza,-22.3,47.2,Madagascar,MG,MDG,Fianarantsoa,,18000.0,1450569140
Bemahatazana-Belobaka,Bemahatazana-Belobaka,-19.35,46.0,Madagascar,MG,MDG,Antananarivo,,18000.0,1450930842
Vohilengo,Vohilengo,-17.3,49.4167,Madagascar,MG,MDG,Toamasina,,18000.0,1450602843
Amboahangibe,Amboahangibe,-14.1333,49.8167,Madagascar,MG,MDG,Antsiranana,,18000.0,1450703164
Mahazoma,Mahazoma,-17.1667,46.5667,Madagascar,MG,MDG,Mahajanga,,18000.0,1450338910
Ambongo,Ambongo,-23.45,47.2667,Madagascar,MG,MDG,Fianarantsoa,,18000.0,1450621707
Alatsinainy Ialamarina,Alatsinainy Ialamarina,-21.5333,47.3,Madagascar,MG,MDG,Fianarantsoa,,18000.0,1450949627
Analaiva,Analaiva,-20.3333,44.5,Madagascar,MG,MDG,Toliara,,18000.0,1450809706
Maroaloka,Maroaloka,-25.1667,46.2,Madagascar,MG,MDG,Toliara,,18000.0,1450615223
Belobaka,Belobaka,-18.9833,45.6833,Madagascar,MG,MDG,Antananarivo,,18000.0,1450102483
Ankofa,Ankofa,-15.4,49.65,Madagascar,MG,MDG,Toamasina,,18000.0,1450855797
Matsakabanja,Matsakabanja,-15.9167,45.8333,Madagascar,MG,MDG,Mahajanga,,18000.0,1450113608
Ambovombe Afovoany,Ambovombe Afovoany,-20.7667,47.0833,Madagascar,MG,MDG,Fianarantsoa,,18000.0,1450912618
Tsianisiha,Tsianisiha,-22.9,43.5833,Madagascar,MG,MDG,Toliara,,18000.0,1450654837
Beantake,Beantake,-23.8,44.3,Madagascar,MG,MDG,Toliara,,18000.0,1450564654
Behenjy,Behenjy,-19.2,47.4833,Madagascar,MG,MDG,Antananarivo,,18000.0,1450616391
Tranoroa,Tranoroa,-24.7,45.0667,Madagascar,MG,MDG,Toliara,,18000.0,1450659939
Manambaro,Manambaro,-25.0333,46.8167,Madagascar,MG,MDG,Toliara,,17901.0,1450768903
Ambohitralanana,Ambohitralanana,-15.2333,50.45,Madagascar,MG,MDG,Antsiranana,,17850.0,1450680382
Fanandrana,Fanandrana,-18.1944,49.3792,Madagascar,MG,MDG,Toamasina,,17644.0,1450388677
Ambolomadinika,Ambolomadinika,-21.95,47.4333,Madagascar,MG,MDG,Fianarantsoa,,17616.0,1450992662
Morarano-Gara,Morarano-Gara,-18.71,48.27,Madagascar,MG,MDG,Toamasina,,17545.0,1450740976
Ambatolahy,Ambatolahy,-20.0,45.5333,Madagascar,MG,MDG,Toliara,,17482.0,1450548076
Anosiarivo,Anosiarivo,-19.9167,47.0333,Madagascar,MG,MDG,Antananarivo,,17423.0,1450015265
Betroka,Betroka,-23.2683,46.1044,Madagascar,MG,MDG,Toliara,,17327.0,1450282495
Ilaka Atsinanana,Ilaka Atsinanana,-19.5531,48.8408,Madagascar,MG,MDG,Toamasina,,17120.0,1450972250
Tsararivotra,Tsararivotra,-19.1714,47.55,Madagascar,MG,MDG,Antananarivo,,17024.0,1450649450
Marosangy,Marosangy,-21.0,48.3,Madagascar,MG,MDG,Fianarantsoa,,17000.0,1450773413
Tolongoina,Tolongoina,-21.55,47.5167,Madagascar,MG,MDG,Fianarantsoa,,17000.0,1450803657
Etrotroka,Etrotroka,-22.8833,47.6,Madagascar,MG,MDG,Fianarantsoa,,17000.0,1450566502
Ilakatra,Ilakatra,-22.35,47.6667,Madagascar,MG,MDG,Fianarantsoa,,17000.0,1450772547
Ambila,Ambila,-21.9833,47.95,Madagascar,MG,MDG,Fianarantsoa,,17000.0,1450155551
Marofoty,Marofoty,-22.9333,43.5667,Madagascar,MG,MDG,Toliara,,17000.0,1450797893
Ambohitrolomahitsy,Ambohitrolomahitsy,-18.7,47.6833,Madagascar,MG,MDG,Antananarivo,,17000.0,1450324872
Lazarivo,Lazarivo,-23.9,44.95,Madagascar,MG,MDG,Toliara,,17000.0,1450663627
Milanoa,Milanoa,-13.5833,49.7833,Madagascar,MG,MDG,Antsiranana,,17000.0,1450982964
Isoanala,Isoanala,-23.8333,45.7167,Madagascar,MG,MDG,Toliara,,17000.0,1450685823
Amboanjo,Amboanjo,-22.0,47.85,Madagascar,MG,MDG,Fianarantsoa,,17000.0,1450091390
Befotaka,Befotaka,-14.5333,48.0167,Madagascar,MG,MDG,Mahajanga,,17000.0,1450777604
Tsarahonenana,Tsarahonenana,-15.4833,48.4833,Madagascar,MG,MDG,Mahajanga,,17000.0,1450021972
Antanimora Atsinanana,Antanimora Atsinanana,-24.8167,45.6667,Madagascar,MG,MDG,Toliara,,17000.0,1450178860
Ankarongana,Ankarongana,-15.4167,48.9167,Madagascar,MG,MDG,Mahajanga,,17000.0,1450971281
Ambondromisotra,Ambondromisotra,-20.3333,46.9167,Madagascar,MG,MDG,Fianarantsoa,,17000.0,1450889572
Ambohitsimanova,Ambohitsimanova,-19.95,47.1167,Madagascar,MG,MDG,Antananarivo,,17000.0,1450894938
Anosivelo,Anosivelo,-22.7333,47.7667,Madagascar,MG,MDG,Fianarantsoa,,17000.0,1450013354
Manombo Atsimo,Manombo Atsimo,-22.95,43.4667,Madagascar,MG,MDG,Toliara,,17000.0,1450265584
Sahamadio,Sahamadio,-20.3,47.4,Madagascar,MG,MDG,Fianarantsoa,,17000.0,1450646070
Anosibe-Ifanja,Anosibe-Ifanja,-18.8667,46.75,Madagascar,MG,MDG,Antananarivo,,17000.0,1450904435
Beahitse,Beahitse,-24.1667,44.4333,Madagascar,MG,MDG,Toliara,,17000.0,1450908001
Antsahavaribe,Antsahavaribe,-13.9833,49.6167,Madagascar,MG,MDG,Antsiranana,,17000.0,1450824727
Ambohipihaonana,Ambohipihaonana,-19.4333,47.4167,Madagascar,MG,MDG,Antananarivo,,17000.0,1450648421
Mandritsara,Mandritsara,-15.8333,48.8167,Madagascar,MG,MDG,Mahajanga,,17000.0,1450981137
Ambolidibe Atsinanana,Ambolidibe Atsinanana,-15.1,48.8,Madagascar,MG,MDG,Mahajanga,,17000.0,1450065794
Sadabe,Sadabe,-18.6333,47.7,Madagascar,MG,MDG,Antananarivo,,17000.0,1450000063
Analanampotsy,Analanampotsy,-17.1667,49.4833,Madagascar,MG,MDG,Toamasina,,16987.0,1450341522
Andranofasika,Andranofasika,-16.3833,46.9,Madagascar,MG,MDG,Mahajanga,,16971.0,1450575484
Fetromby,Fetromby,-18.5833,48.9167,Madagascar,MG,MDG,Toamasina,,16894.0,1450802139
Antanambao Mahatsara,Antanambao Mahatsara,-19.3167,48.7833,Madagascar,MG,MDG,Toamasina,,16482.0,1450169284
Sabotsy,Sabotsy,-19.2333,47.6,Madagascar,MG,MDG,Antananarivo,,16471.0,1450925010
Ambohimanambola,Ambohimanambola,-18.95,47.6,Madagascar,MG,MDG,Antananarivo,,16418.0,1450250431
Sahatavy,Sahatavy,-17.4489,48.9953,Madagascar,MG,MDG,Toamasina,,16334.0,1450831507
Antsahanoro,Antsahanoro,-14.8333,50.1333,Madagascar,MG,MDG,Antsiranana,,16253.0,1450717425
Ambalabe,Ambalabe,-15.1667,50.4167,Madagascar,MG,MDG,Antsiranana,,16250.0,1450947423
Ampahimanga,Ampahimanga,-19.0833,47.2,Madagascar,MG,MDG,Antananarivo,,16184.0,1450235819
Ambarakaraka,Ambarakaraka,-13.5,48.8667,Madagascar,MG,MDG,Antsiranana,,16114.0,1450875169
Ranohira,Ranohira,-22.4333,45.35,Madagascar,MG,MDG,Toliara,,16041.0,1450777804
Mahavelona,Mahavelona,-18.5167,47.25,Madagascar,MG,MDG,Antananarivo,,16028.0,1450216247
Tsiningia,Tsiningia,-15.4833,47.45,Madagascar,MG,MDG,Mahajanga,,16000.0,1450406103
Antindra,Antindra,-14.1333,49.8167,Madagascar,MG,MDG,Antsiranana,,16000.0,1450679608
Andapafito,Andapafito,-16.9167,49.3833,Madagascar,MG,MDG,Toamasina,,16000.0,1450969130
Vohilengo,Vohilengo,-22.5333,47.6833,Madagascar,MG,MDG,Fianarantsoa,,16000.0,1450242299
Manompana,Manompana,-16.6833,49.7333,Madagascar,MG,MDG,Toamasina,,16000.0,1450170559
Bevonotra,Bevonotra,-14.05,49.6167,Madagascar,MG,MDG,Antsiranana,,16000.0,1450295554
Betanty,Betanty,-25.5667,45.5167,Madagascar,MG,MDG,Toliara,,16000.0,1450311726
Mandrosonoro,Mandrosonoro,-20.5833,46.0,Madagascar,MG,MDG,Fianarantsoa,,16000.0,1450073615
Ankazondandy,Ankazondandy,-18.6833,47.8167,Madagascar,MG,MDG,Antananarivo,,16000.0,1450557561
Androrangavola,Androrangavola,-20.5167,48.2333,Madagascar,MG,MDG,Fianarantsoa,,16000.0,1450693503
Fiadanana,Fiadanana,-20.8667,47.1833,Madagascar,MG,MDG,Fianarantsoa,,16000.0,1450506769
Alarobia,Alarobia,-18.9667,47.7333,Madagascar,MG,MDG,Antananarivo,,16000.0,1450929281
Inanantonana,Inanantonana,-19.65,46.6167,Madagascar,MG,MDG,Antananarivo,,16000.0,1450953986
Ambalatany,Ambalatany,-22.5333,47.6,Madagascar,MG,MDG,Fianarantsoa,,16000.0,1450788430
Andemaka,Andemaka,-22.3,47.75,Madagascar,MG,MDG,Fianarantsoa,,16000.0,1450024135
Vohiposa,Vohiposa,-20.9833,47.15,Madagascar,MG,MDG,Fianarantsoa,,16000.0,1450467200
Anjangoveratra,Anjangoveratra,-14.1333,50.0833,Madagascar,MG,MDG,Antsiranana,,16000.0,1450405493
Leanja,Leanja,-15.55,47.9333,Madagascar,MG,MDG,Mahajanga,,16000.0,1450058429
Fenoarivo,Fenoarivo,-23.1167,47.5667,Madagascar,MG,MDG,Fianarantsoa,,16000.0,1450612194
Fenoarivo,Fenoarivo,-20.8667,46.8833,Madagascar,MG,MDG,Fianarantsoa,,16000.0,1450147550
Bekitro,Bekitro,-24.55,45.3,Madagascar,MG,MDG,Toliara,,16000.0,1450444164
Ambohibe,Ambohibe,-17.45,49.1167,Madagascar,MG,MDG,Toamasina,,16000.0,1450755165
Tangainony,Tangainony,-22.7,47.75,Madagascar,MG,MDG,Fianarantsoa,,16000.0,1450508448
Antsenavolo,Antsenavolo,-21.4,48.05,Madagascar,MG,MDG,Fianarantsoa,,16000.0,1450984218
Analila,Analila,-14.45,49.05,Madagascar,MG,MDG,Mahajanga,,16000.0,1450364545
Mangabe,Mangabe,-16.7167,46.8167,Madagascar,MG,MDG,Mahajanga,,16000.0,1450285321
Ambohimalaza,Ambohimalaza,-18.9167,47.65,Madagascar,MG,MDG,Antananarivo,,15988.0,1450435158
Antadinga,Antadinga,-22.15,47.4167,Madagascar,MG,MDG,Fianarantsoa,,15977.0,1450101676
Ambohidrapeto,Ambohidrapeto,-18.9,47.4667,Madagascar,MG,MDG,Antananarivo,,15965.0,1450249621
Androy,Androy,-21.3333,47.2667,Madagascar,MG,MDG,Fianarantsoa,,15938.0,1450421324
Sahambala,Sahambala,-17.9417,49.1083,Madagascar,MG,MDG,Toamasina,,15850.0,1450273239
Vatomandry,Vatomandry,-19.3308,48.9781,Madagascar,MG,MDG,Toamasina,,15836.0,1450604534
Mandialaza,Mandialaza,-18.6167,48.0333,Madagascar,MG,MDG,Toamasina,,15835.0,1450052263
Ifanadiana,Ifanadiana,-21.3,47.6333,Madagascar,MG,MDG,Fianarantsoa,,15681.0,1450233083
Soavina,Soavina,-18.95,47.4833,Madagascar,MG,MDG,Antananarivo,,15658.0,1450506005
Marivorahona,Marivorahona,-13.0833,49.0833,Madagascar,MG,MDG,Antsiranana,,15654.0,1450497444
Isorana,Isorana,-21.3167,46.9333,Madagascar,MG,MDG,Fianarantsoa,,15472.0,1450788463
Amboavory,Amboavory,-17.3,48.5,Madagascar,MG,MDG,Toamasina,,15465.0,1450001958
Manohisoa,Manohisoa,-19.7833,46.7667,Madagascar,MG,MDG,Antananarivo,,15422.0,1450417871
Andrakata,Andrakata,-14.6167,49.7167,Madagascar,MG,MDG,Antsiranana,,15401.0,1450466560
Ambongamarina,Ambongamarina,-18.325,47.9542,Madagascar,MG,MDG,Antananarivo,,15382.0,1450442766
Anosy Avaratra,Anosy Avaratra,-18.8,47.55,Madagascar,MG,MDG,Antananarivo,,15243.0,1450108069
Mahaly,Mahaly,-24.1667,46.35,Madagascar,MG,MDG,Toliara,,15197.0,1450092739
Imerimandroso,Imerimandroso,-17.4333,48.5833,Madagascar,MG,MDG,Toamasina,,15195.0,1450128225
Ambohimierambe-Andranofito,Ambohimierambe-Andranofito,-19.7833,47.4333,Madagascar,MG,MDG,Antananarivo,,15127.0,1450911993
Andondabe,Andondabe,-17.7667,49.3847,Madagascar,MG,MDG,Toamasina,,15058.0,1450987708
Manambondro,Manambondro,-23.8,47.55,Madagascar,MG,MDG,Fianarantsoa,,15000.0,1450557454
Milenaka,Milenaka,-22.8333,43.5833,Madagascar,MG,MDG,Toliara,,15000.0,1450835609
Soalala,Soalala,-16.1,45.3167,Madagascar,MG,MDG,Mahajanga,,15000.0,1450631176
Ambodiriana,Ambodiriana,-19.5833,47.5333,Madagascar,MG,MDG,Antananarivo,,15000.0,1450970500
Befasy,Befasy,-20.5667,44.3667,Madagascar,MG,MDG,Toliara,,15000.0,1450031681
Kopoky,Kopoky,-25.2,45.2,Madagascar,MG,MDG,Toliara,,15000.0,1450764380
Ramainandro,Ramainandro,-19.3,47.0,Madagascar,MG,MDG,Antananarivo,,15000.0,1450704256
Ambinanindrano,Ambinanindrano,-20.65,47.8,Madagascar,MG,MDG,Fianarantsoa,,15000.0,1450049097
Ambatomanjaka,Ambatomanjaka,-18.8833,46.8667,Madagascar,MG,MDG,Antananarivo,,15000.0,1450557644
Andranovelona,Andranovelona,-19.65,47.6333,Madagascar,MG,MDG,Antananarivo,,15000.0,1450879443
Ianantsony,Ianantsony,-23.55,43.7667,Madagascar,MG,MDG,Toliara,,15000.0,1450210749
Analamary,Analamary,-24.2333,47.2167,Madagascar,MG,MDG,Toliara,,15000.0,1450722054
Imanombo,Imanombo,-24.4333,45.8167,Madagascar,MG,MDG,Toliara,,15000.0,1450493019
Beroy Atsimo,Beroy Atsimo,-23.9833,44.6667,Madagascar,MG,MDG,Toliara,,15000.0,1450415670
Alarobia Bemaha,Alarobia Bemaha,-20.2,46.8833,Madagascar,MG,MDG,Antananarivo,,15000.0,1450979840
Talata Ampano,Talata Ampano,-21.55,47.0333,Madagascar,MG,MDG,Fianarantsoa,,15000.0,1450352718
Ambatoharanana,Ambatoharanana,-17.3,49.1167,Madagascar,MG,MDG,Toamasina,,15000.0,1450149595
Sahave,Sahave,-21.0667,47.1167,Madagascar,MG,MDG,Fianarantsoa,,15000.0,1450964359
Bevoay,Bevoay,-24.4833,47.0167,Madagascar,MG,MDG,Toliara,,15000.0,1450951688
Anahidrano,Anahidrano,-15.0833,47.9333,Madagascar,MG,MDG,Mahajanga,,15000.0,1450053738
Ambahive,Ambahive,-22.2,47.7167,Madagascar,MG,MDG,Fianarantsoa,,15000.0,1450201009
Ifatsy,Ifatsy,-22.4,47.75,Madagascar,MG,MDG,Fianarantsoa,,15000.0,1450298054
Ankisabe,Ankisabe,-19.2833,46.4833,Madagascar,MG,MDG,Antananarivo,,15000.0,1450772097
Anjoma-Ramartina,Anjoma-Ramartina,-19.6333,45.9667,Madagascar,MG,MDG,Antananarivo,,15000.0,1450497768
Lokomby,Lokomby,-22.1833,47.75,Madagascar,MG,MDG,Fianarantsoa,,15000.0,1450028790
Behisatse,Behisatse,-21.8,45.1167,Madagascar,MG,MDG,Toliara,,15000.0,1450538114
Iharan̈a,Iharana,-13.35,50.0,Madagascar,MG,MDG,Antsiranana,,15000.0,1450849551
Manandona,Manandona,-20.05,47.0667,Madagascar,MG,MDG,Antananarivo,,15000.0,1450309894
Antanimenabaka,Antanimenabaka,-16.9333,48.4833,Madagascar,MG,MDG,Toamasina,,15000.0,1450330628
Marofototra,Marofototra,-20.8667,48.1667,Madagascar,MG,MDG,Fianarantsoa,,15000.0,1450760830
Tsiatajavona-Ankaratra,Tsiatajavona-Ankaratra,-19.3833,47.35,Madagascar,MG,MDG,Antananarivo,,15000.0,1450357089
Antsoso,Antsoso,-19.8167,46.8667,Madagascar,MG,MDG,Antananarivo,,15000.0,1450373078
Ambesisika,Ambesisika,-16.5167,46.8667,Madagascar,MG,MDG,Mahajanga,,15000.0,1450028481
Ankilimivory,Ankilimivory,-24.4667,44.9667,Madagascar,MG,MDG,Toliara,,15000.0,1450659823
Antanifotsy,Antanifotsy,-16.8667,49.6333,Madagascar,MG,MDG,Toamasina,,15000.0,1450612710
Anororo,Anororo,-17.5167,48.4333,Madagascar,MG,MDG,Toamasina,,14992.0,1450000237
Vinanivao,Vinanivao,-15.8833,50.2667,Madagascar,MG,MDG,Antsiranana,,14906.0,1450469991
Sahakevo,Sahakevo,-20.2833,47.8333,Madagascar,MG,MDG,Toamasina,,14885.0,1450256846
Fiadanana,Fiadanana,-18.2167,46.8833,Madagascar,MG,MDG,Antananarivo,,14784.0,1450707459
Vohipeno,Vohipeno,-22.35,47.8333,Madagascar,MG,MDG,Fianarantsoa,,14751.0,1450599708
Androrangavola,Androrangavola,-21.5,47.7167,Madagascar,MG,MDG,Fianarantsoa,,14709.0,1450623784
Ankadinandriana,Ankadinandriana,-19.0667,47.6667,Madagascar,MG,MDG,Antananarivo,,14684.0,1450861528
Mahatsinjo,Mahatsinjo,-17.7333,47.0333,Madagascar,MG,MDG,Mahajanga,,14675.0,1450180817
Ranomafana,Ranomafana,-18.9583,48.8417,Madagascar,MG,MDG,Toamasina,,14672.0,1450951573
Mangamila,Mangamila,-18.5667,47.8583,Madagascar,MG,MDG,Antananarivo,,14640.0,1450330746
Solila,Solila,-21.4167,46.6167,Madagascar,MG,MDG,Fianarantsoa,,14553.0,1450014035
Iakora,Iakora,-23.1,46.65,Madagascar,MG,MDG,Fianarantsoa,,14547.0,1450296994
Marofinaritra,Marofinaritra,-15.0333,50.1167,Madagascar,MG,MDG,Antsiranana,,14546.0,1450912826
Merimandroso,Merimandroso,-18.75,47.5167,Madagascar,MG,MDG,Antananarivo,,14545.0,1450984411
Ankaramena,Ankaramena,-25.0167,46.75,Madagascar,MG,MDG,Toliara,,14456.0,1450651511
Ampohibe,Ampohibe,-15.0333,50.3,Madagascar,MG,MDG,Antsiranana,,14433.0,1450141886
Mantaly,Mantaly,-13.1667,48.9667,Madagascar,MG,MDG,Antsiranana,,14420.0,1450370610
Belazao,Belazao,-19.8833,46.9667,Madagascar,MG,MDG,Antananarivo,,14332.0,1450189336
Ambohimanga Atsimo,Ambohimanga Atsimo,-20.8667,47.6,Madagascar,MG,MDG,Fianarantsoa,,14293.0,1450661685
Mahavanona,Mahavanona,-12.45,49.3667,Madagascar,MG,MDG,Antsiranana,,14235.0,1450051630
Beronono,Beronono,-18.2,47.5167,Madagascar,MG,MDG,Antananarivo,,14148.0,1450727787
Zazafotsy,Zazafotsy,-22.2,46.35,Madagascar,MG,MDG,Fianarantsoa,,14062.0,1450729734
Antohobe,Antohobe,-19.7667,46.0167,Madagascar,MG,MDG,Antananarivo,,14016.0,1450847933
Beraketa,Beraketa,-24.1833,45.6833,Madagascar,MG,MDG,Toliara,,14000.0,1450431295
Ambahita,Ambahita,-24.0,45.2667,Madagascar,MG,MDG,Toliara,,14000.0,1450954940
Mahavelona,Mahavelona,-19.1667,46.5167,Madagascar,MG,MDG,Antananarivo,,14000.0,1450370479
Marotsiraka,Marotsiraka,-24.2833,45.9833,Madagascar,MG,MDG,Toliara,,14000.0,1450433936
Mahajamba,Mahajamba,-15.7,47.1,Madagascar,MG,MDG,Mahajanga,,14000.0,1450063476
Ambatomarina,Ambatomarina,-20.5833,47.0167,Madagascar,MG,MDG,Fianarantsoa,,14000.0,1450490728
Antanambaobe,Antanambaobe,-16.25,49.6667,Madagascar,MG,MDG,Toamasina,,14000.0,1450819233
Kalandy,Kalandy,-15.75,48.7333,Madagascar,MG,MDG,Mahajanga,,14000.0,1450827177
Bekipay,Bekipay,-16.25,46.1333,Madagascar,MG,MDG,Mahajanga,,14000.0,1450117746
Marokarima,Marokarima,-21.2167,48.1333,Madagascar,MG,MDG,Fianarantsoa,,14000.0,1450279342
Fiadanana,Fiadanana,-20.3333,47.4333,Madagascar,MG,MDG,Fianarantsoa,,14000.0,1450293178
Mahatsinjony,Mahatsinjony,-21.4167,47.2,Madagascar,MG,MDG,Fianarantsoa,,14000.0,1450141568
Vanono,Vanono,-16.0333,49.45,Madagascar,MG,MDG,Toamasina,,14000.0,1450232049
Talata-Vohimena,Talata-Vohimena,-20.85,46.9667,Madagascar,MG,MDG,Fianarantsoa,,14000.0,1450903316
Vatolatsaka,Vatolatsaka,-23.3,44.3,Madagascar,MG,MDG,Toliara,,14000.0,1450731231
Belambo,Belambo,-19.4,47.5167,Madagascar,MG,MDG,Antananarivo,,14000.0,1450624771
Miarinarivo,Miarinarivo,-16.6167,48.25,Madagascar,MG,MDG,Toamasina,,14000.0,1450574333
Beharona,Beharona,-21.5167,44.3,Madagascar,MG,MDG,Toliara,,14000.0,1450572601
Ambohimitombo,Ambohimitombo,-20.7167,47.4333,Madagascar,MG,MDG,Fianarantsoa,,14000.0,1450710090
Tsarahasina,Tsarahasina,-15.7667,47.5833,Madagascar,MG,MDG,Mahajanga,,14000.0,1450231941
Bevato,Bevato,-18.6833,46.25,Madagascar,MG,MDG,Antananarivo,,14000.0,1450827914
Ankiliabo,Ankiliabo,-21.7,43.9,Madagascar,MG,MDG,Toliara,,14000.0,1450311896
Amborondra,Amborondra,-21.9167,47.7667,Madagascar,MG,MDG,Fianarantsoa,,14000.0,1450089809
Bealanana,Bealanana,-14.55,48.7333,Madagascar,MG,MDG,Antsiranana,,14000.0,1450073773
Sahalanona,Sahalanona,-22.05,47.6167,Madagascar,MG,MDG,Fianarantsoa,,14000.0,1450696602
Ambodihara,Ambodihara,-14.75,48.9833,Madagascar,MG,MDG,Mahajanga,,14000.0,1450973236
Ambohimiera,Ambohimiera,-21.05,47.5,Madagascar,MG,MDG,Fianarantsoa,,13983.0,1450697311
Ampasinambo,Ampasinambo,-20.5167,48.0,Madagascar,MG,MDG,Fianarantsoa,,13774.0,1450644953
Amboasary-Gara,Amboasary-Gara,-18.4333,48.2667,Madagascar,MG,MDG,Toamasina,,13601.0,1450032744
Andasibe,Andasibe,-18.9333,48.4167,Madagascar,MG,MDG,Toamasina,,13493.0,1450648431
Ambodilazana,Ambodilazana,-18.1194,49.1208,Madagascar,MG,MDG,Toamasina,,13304.0,1450502468
Ambohidronono,Ambohidronono,-18.75,48.0333,Madagascar,MG,MDG,Toamasina,,13206.0,1450192899
Mahaboboka,Mahaboboka,-22.9,44.3333,Madagascar,MG,MDG,Toliara,,13115.0,1450446461
Betatao,Betatao,-18.2,47.8833,Madagascar,MG,MDG,Antananarivo,,13112.0,1450435049
Miarinarivo,Miarinarivo,-18.9608,46.9,Madagascar,MG,MDG,Antananarivo,minor,13109.0,1450403783
Ampanavoana,Ampanavoana,-15.6667,50.2,Madagascar,MG,MDG,Antsiranana,,13009.0,1450838781
Ambararata,Ambararata,-15.0167,48.6333,Madagascar,MG,MDG,Mahajanga,,13000.0,1450169435
Marovandrika,Marovandrika,-22.5167,47.6667,Madagascar,MG,MDG,Fianarantsoa,,13000.0,1450169623
Morafeno,Morafeno,-21.1,48.2,Madagascar,MG,MDG,Fianarantsoa,,13000.0,1450422826
Andreba,Andreba,-14.5833,48.1833,Madagascar,MG,MDG,Mahajanga,,13000.0,1450633860
Marovato,Marovato,-25.5333,45.2667,Madagascar,MG,MDG,Toliara,,13000.0,1450393411
Ampitasimo,Ampitasimo,-17.7833,48.3833,Madagascar,MG,MDG,Toamasina,,13000.0,1450380832
Ambohimahavelona,Ambohimahavelona,-23.4333,43.8833,Madagascar,MG,MDG,Toliara,,13000.0,1450064416
Isaka-Ivondro,Isaka-Ivondro,-24.8,46.85,Madagascar,MG,MDG,Toliara,,13000.0,1450725316
Ambodiampana,Ambodiampana,-14.5333,49.8667,Madagascar,MG,MDG,Antsiranana,,13000.0,1450410168
Andranomamy,Andranomamy,-16.6,47.1333,Madagascar,MG,MDG,Mahajanga,,13000.0,1450780614
Ihorombe,Ihorombe,-23.0,47.5333,Madagascar,MG,MDG,Fianarantsoa,,13000.0,1450066210
Mahatsinjo,Mahatsinjo,-22.8,47.45,Madagascar,MG,MDG,Fianarantsoa,,13000.0,1450644475
Antongomena-Bevary,Antongomena-Bevary,-15.95,45.9333,Madagascar,MG,MDG,Mahajanga,,13000.0,1450046754
Antsirabe Afovoany,Antsirabe Afovoany,-15.95,48.9667,Madagascar,MG,MDG,Mahajanga,,13000.0,1450923807
Sahavalanina-Antenina,Sahavalanina-Antenina,-16.5667,49.25,Madagascar,MG,MDG,Toamasina,,13000.0,1450370161
Belemoka,Belemoka,-21.7833,47.6167,Madagascar,MG,MDG,Fianarantsoa,,13000.0,1450739147
Mavorano,Mavorano,-21.7833,47.9333,Madagascar,MG,MDG,Toliara,,13000.0,1450909135
Evato,Evato,-22.6,47.6833,Madagascar,MG,MDG,Fianarantsoa,,13000.0,1450349321
Tranovaho,Tranovaho,-25.3,44.9667,Madagascar,MG,MDG,Toliara,,13000.0,1450131232
Amborompotsy,Amborompotsy,-24.6667,44.95,Madagascar,MG,MDG,Toliara,,13000.0,1450600717
Ambalakindresy,Ambalakindresy,-21.1667,47.3333,Madagascar,MG,MDG,Fianarantsoa,,13000.0,1450729938
Ambahoabe,Ambahoabe,-16.7667,49.5,Madagascar,MG,MDG,Toamasina,,13000.0,1450430279
Vohitrindry,Vohitrindry,-22.3833,47.85,Madagascar,MG,MDG,Fianarantsoa,,13000.0,1450431689
Befandriana,Befandriana,-15.2667,48.5333,Madagascar,MG,MDG,Mahajanga,,13000.0,1450151702
Ampanefena,Ampanefena,-13.8667,49.9667,Madagascar,MG,MDG,Antsiranana,,13000.0,1450684282
Ankilivalo,Ankilivalo,-20.2833,44.6333,Madagascar,MG,MDG,Toliara,,13000.0,1450597906
Anjiajia,Anjiajia,-16.4833,46.9667,Madagascar,MG,MDG,Mahajanga,,13000.0,1450871087
Ambatondrakalavao,Ambatondrakalavao,-19.4333,47.5,Madagascar,MG,MDG,Antananarivo,,13000.0,1450037495
Kirano,Kirano,-21.8333,47.05,Madagascar,MG,MDG,Fianarantsoa,,13000.0,1450729863
Sakoabe,Sakoabe,-22.2,47.8333,Madagascar,MG,MDG,Fianarantsoa,,13000.0,1450793349
Maroviro,Maroviro,-21.2333,44.7333,Madagascar,MG,MDG,Toliara,,13000.0,1450225913
Ambakireny,Ambakireny,-17.6667,47.85,Madagascar,MG,MDG,Mahajanga,,13000.0,1450303775
Tsiately,Tsiately,-23.3167,47.6167,Madagascar,MG,MDG,Fianarantsoa,,13000.0,1450928724
Ambohitsilaozana,Ambohitsilaozana,-17.6833,48.45,Madagascar,MG,MDG,Toamasina,,13000.0,1450224032
Ambazoa,Ambazoa,-25.3139,45.8972,Madagascar,MG,MDG,Toliara,,13000.0,1450252226
Ambodisakoana,Ambodisakoana,-15.4167,47.9333,Madagascar,MG,MDG,Mahajanga,,13000.0,1450641793
Bemanevika,Bemanevika,-14.1333,50.1,Madagascar,MG,MDG,Antsiranana,,13000.0,1450530961
Ambondrona,Ambondrona,-21.2667,46.9833,Madagascar,MG,MDG,Fianarantsoa,,13000.0,1450002861
Ambatolampy,Ambatolampy,-18.9,46.1167,Madagascar,MG,MDG,Antananarivo,,13000.0,1450574788
Bejofo,Bejofo,-17.8333,48.2333,Madagascar,MG,MDG,Toamasina,,13000.0,1450197169
Manambolo,Manambolo,-15.2833,49.7,Madagascar,MG,MDG,Toamasina,,13000.0,1450568646
Mangindrano,Mangindrano,-14.2833,48.9667,Madagascar,MG,MDG,Mahajanga,,13000.0,1450075192
Ankilimalinika,Ankilimalinika,-22.95,43.5667,Madagascar,MG,MDG,Toliara,,13000.0,1450201063
Sandrakatsy,Sandrakatsy,-16.3333,49.6167,Madagascar,MG,MDG,Toamasina,,13000.0,1450889811
Marojala,Marojala,-14.4833,50.0333,Madagascar,MG,MDG,Antsiranana,,13000.0,1450598155
Ilafy,Ilafy,-17.8833,48.4167,Madagascar,MG,MDG,Toamasina,,13000.0,1450451732
Morarano,Morarano,-18.9,47.3167,Madagascar,MG,MDG,Antananarivo,,13000.0,1450596372
Mandritsara,Mandritsara,-19.55,47.05,Madagascar,MG,MDG,Antananarivo,,13000.0,1450508025
Befeta,Befeta,-21.2333,47.05,Madagascar,MG,MDG,Fianarantsoa,,13000.0,1450865101
Amboaboa,Amboaboa,-15.9333,48.7167,Madagascar,MG,MDG,Mahajanga,,13000.0,1450226220
Manambidala,Manambidala,-22.75,47.2667,Madagascar,MG,MDG,Fianarantsoa,,13000.0,1450982031
Andohajango,Andohajango,-15.9,48.5,Madagascar,MG,MDG,Mahajanga,,13000.0,1450979666
Manalalondo,Manalalondo,-19.25,47.1167,Madagascar,MG,MDG,Antananarivo,,12995.0,1450712810
Isalo,Isalo,-19.7333,45.4333,Madagascar,MG,MDG,Toliara,,12930.0,1450249721
Ambalarondra,Ambalarondra,-18.4667,48.9833,Madagascar,MG,MDG,Toamasina,,12884.0,1450882593
Sarahandrano,Sarahandrano,-14.7833,50.0167,Madagascar,MG,MDG,Antsiranana,,12758.0,1450771441
Antanandava,Antanandava,-19.0833,47.95,Madagascar,MG,MDG,Toamasina,,12755.0,1450889393
Vohimarina,Vohimarina,-21.64,46.8989,Madagascar,MG,MDG,Fianarantsoa,,12559.0,1450330004
Miary,Miary,-23.3,43.7333,Madagascar,MG,MDG,Toliara,,12500.0,1450255547
Anjahambe,Anjahambe,-17.3833,49.1333,Madagascar,MG,MDG,Toamasina,,12498.0,1450498223
Ambatomainty,Ambatomainty,-20.9,46.45,Madagascar,MG,MDG,Fianarantsoa,,12421.0,1450861894
Ambinanynony,Ambinanynony,-18.6,49.1167,Madagascar,MG,MDG,Toamasina,,12392.0,1450742943
Ampasimbe,Ampasimbe,-16.8167,49.0,Madagascar,MG,MDG,Toamasina,,12122.0,1450702079
Ambolomoty,Ambolomoty,-16.1667,46.7,Madagascar,MG,MDG,Mahajanga,,12000.0,1450504467
Fanambana,Fanambana,-13.55,49.9833,Madagascar,MG,MDG,Antsiranana,,12000.0,1450134019
Ivoamba,Ivoamba,-21.4,47.1667,Madagascar,MG,MDG,Fianarantsoa,,12000.0,1450902002
Ankafina Tsarafidy,Ankafina Tsarafidy,-21.2,47.25,Madagascar,MG,MDG,Fianarantsoa,,12000.0,1450188416
Ambohimandroso,Ambohimandroso,-21.8833,46.95,Madagascar,MG,MDG,Fianarantsoa,,12000.0,1450921754
Belobaka,Belobaka,-15.6833,46.4167,Madagascar,MG,MDG,Mahajanga,,12000.0,1450381333
Andonabe,Andonabe,-21.4667,47.95,Madagascar,MG,MDG,Fianarantsoa,,12000.0,1450863479
Sorombo,Sorombo,-22.1,47.9167,Madagascar,MG,MDG,Fianarantsoa,,12000.0,1450860360
Itondy,Itondy,-19.05,45.35,Madagascar,MG,MDG,Toliara,,12000.0,1450245222
Iarinarivo,Iarinarivo,-18.9167,47.4,Madagascar,MG,MDG,Antananarivo,,12000.0,1450317086
Saharefo,Saharefo,-21.6667,47.6833,Madagascar,MG,MDG,Fianarantsoa,,12000.0,1450980044
Vohindava,Vohindava,-22.4167,47.8667,Madagascar,MG,MDG,Fianarantsoa,,12000.0,1450616288
Beandrarezona,Beandrarezona,-14.4833,48.6833,Madagascar,MG,MDG,Mahajanga,,12000.0,1450161594
Andranovao,Andranovao,-17.6167,44.0667,Madagascar,MG,MDG,Mahajanga,,12000.0,1450946654
Sendrisoa,Sendrisoa,-22.0,46.95,Madagascar,MG,MDG,Fianarantsoa,,12000.0,1450761173
Maromiandra,Maromiandra,-21.6833,47.5167,Madagascar,MG,MDG,Fianarantsoa,,12000.0,1450367644
Ambalavero,Ambalavero,-21.8,47.7833,Madagascar,MG,MDG,Fianarantsoa,,12000.0,1450039308
Bekapaika,Bekapaika,-16.75,47.5667,Madagascar,MG,MDG,Mahajanga,,12000.0,1450291034
Anorombato,Anorombato,-22.0167,47.7833,Madagascar,MG,MDG,Fianarantsoa,,12000.0,1450314536
Ambaliha,Ambaliha,-14.4667,48.3,Madagascar,MG,MDG,Mahajanga,,12000.0,1450636460
Ambohinamboarina,Ambohinamboarina,-21.0333,47.05,Madagascar,MG,MDG,Fianarantsoa,,12000.0,1450981724
Anjanazana,Anjanazana,-15.3833,49.75,Madagascar,MG,MDG,Toamasina,,12000.0,1450456490
Andrembesoa,Andrembesoa,-20.15,46.65,Madagascar,MG,MDG,Antananarivo,,12000.0,1450749932
Mahazoarivo,Mahazoarivo,-21.3667,46.8167,Madagascar,MG,MDG,Fianarantsoa,,12000.0,1450209264
Anjiamangirana I,Anjiamangirana I,-15.1667,47.7833,Madagascar,MG,MDG,Mahajanga,,12000.0,1450794562
Nosiarina,Nosiarina,-14.2167,50.05,Madagascar,MG,MDG,Antsiranana,,12000.0,1450445188
Antanamalaza,Antanamalaza,-19.4,47.6333,Madagascar,MG,MDG,Antananarivo,,12000.0,1450027793
Andramy,Andramy,-17.9635,44.7855,Madagascar,MG,MDG,Mahajanga,,12000.0,1450011952
Basibasy,Basibasy,-22.1667,43.65,Madagascar,MG,MDG,Toliara,,12000.0,1450018880
Ampondra,Ampondra,-13.4167,49.95,Madagascar,MG,MDG,Antsiranana,,12000.0,1450375253
Antaritarika,Antaritarika,-25.4,45.75,Madagascar,MG,MDG,Toliara,,12000.0,1450216620
Befody,Befody,-20.7667,47.9333,Madagascar,MG,MDG,Fianarantsoa,,12000.0,1450027552
Maromby,Maromby,-24.35,46.5667,Madagascar,MG,MDG,Toliara,,12000.0,1450001423
Belampona,Belampona,-14.6833,49.5167,Madagascar,MG,MDG,Antsiranana,,11976.0,1450137921
Mahazoarivo,Mahazoarivo,-20.3833,47.4333,Madagascar,MG,MDG,Fianarantsoa,,11869.0,1450097923
Befandefa,Befandefa,-22.1333,43.3,Madagascar,MG,MDG,Toliara,,11812.0,1450026685
Ambatofisaka II,Ambatofisaka II,-20.0833,47.9,Madagascar,MG,MDG,Toamasina,,11724.0,1450651839
Soalandy,Soalandy,-18.9903,47.5,Madagascar,MG,MDG,Antananarivo,,11719.0,1450453632
Befotaka,Befotaka,-17.0839,48.9667,Madagascar,MG,MDG,Toamasina,,11666.0,1450744693
Isaka,Isaka,-21.15,47.0,Madagascar,MG,MDG,Fianarantsoa,,11642.0,1450450756
Ambohimahasoa,Ambohimahasoa,-21.1064,47.2161,Madagascar,MG,MDG,Fianarantsoa,,11606.0,1450769257
Mangabe,Mangabe,-16.95,49.3333,Madagascar,MG,MDG,Toamasina,,11583.0,1450932004
Lamosina,Lamosina,-21.64,46.8989,Madagascar,MG,MDG,Fianarantsoa,,11534.0,1450091422
Vohilava,Vohilava,-20.7,48.35,Madagascar,MG,MDG,Fianarantsoa,,11526.0,1450900027
Ramena,Ramena,-12.2333,49.35,Madagascar,MG,MDG,Antsiranana,,11521.0,1450441653
Besalampy,Besalampy,-16.75,44.4833,Madagascar,MG,MDG,Mahajanga,,11331.0,1450740445
Langarivo,Langarivo,-14.6,50.05,Madagascar,MG,MDG,Antsiranana,,11326.0,1450358888
Antsambalahy,Antsambalahy,-14.7167,49.9167,Madagascar,MG,MDG,Antsiranana,,11284.0,1450620282
Begogo,Begogo,-23.4833,46.7167,Madagascar,MG,MDG,Fianarantsoa,,11146.0,1450909068
Ambinanin’i Sakaleona,Ambinanin'i Sakaleona,-20.5333,48.55,Madagascar,MG,MDG,Fianarantsoa,,11133.0,1450503143
Antanandava,Antanandava,-17.4833,48.6833,Madagascar,MG,MDG,Toamasina,,11013.0,1450418513
Morafeno,Morafeno,-19.0833,47.1,Madagascar,MG,MDG,Antananarivo,,11000.0,1450482362
Ambotaka,Ambotaka,-21.75,48.05,Madagascar,MG,MDG,Fianarantsoa,,11000.0,1450933772
Kalafotsy,Kalafotsy,-22.2833,47.3167,Madagascar,MG,MDG,Fianarantsoa,,11000.0,1450967361
Antsoha,Antsoha,-15.7667,48.85,Madagascar,MG,MDG,Mahajanga,,11000.0,1450852008
Maroambihy,Maroambihy,-14.4667,49.7667,Madagascar,MG,MDG,Antsiranana,,11000.0,1450240187
Voloina,Voloina,-15.5667,49.6167,Madagascar,MG,MDG,Toamasina,,11000.0,1450914239
Ambatomasina,Ambatomasina,-18.7333,47.45,Madagascar,MG,MDG,Antananarivo,,11000.0,1450692474
Ambodiampana,Ambodiampana,-16.8167,49.5667,Madagascar,MG,MDG,Toamasina,,11000.0,1450144383
Antsakanalabe,Antsakanalabe,-15.4167,48.2833,Madagascar,MG,MDG,Mahajanga,,11000.0,1450726016
Antsahabe,Antsahabe,-14.8,48.3833,Madagascar,MG,MDG,Mahajanga,,11000.0,1450288533
Antakotako,Antakotako,-15.3167,49.8,Madagascar,MG,MDG,Toamasina,,11000.0,1450258709
Tsararano,Tsararano,-16.1667,46.6667,Madagascar,MG,MDG,Mahajanga,,11000.0,1450799664
Mahazony,Mahazony,-21.9833,47.0167,Madagascar,MG,MDG,Fianarantsoa,,11000.0,1450926043
Fotsialanana,Fotsialanana,-16.9333,49.4833,Madagascar,MG,MDG,Toamasina,,11000.0,1450034980
Ambinanindovoka,Ambinanindovoka,-21.9167,47.1,Madagascar,MG,MDG,Fianarantsoa,,11000.0,1450885987
Ranomafana,Ranomafana,-24.5667,46.9667,Madagascar,MG,MDG,Toliara,,11000.0,1450249574
Ankavandra,Ankavandra,-18.7722,45.2931,Madagascar,MG,MDG,Toliara,,11000.0,1450061634
Manambolosy,Manambolosy,-16.0333,49.6667,Madagascar,MG,MDG,Toamasina,,11000.0,1450154800
Ambohidranandriana,Ambohidranandriana,-19.8833,47.15,Madagascar,MG,MDG,Antananarivo,,11000.0,1450724401
Tsinjomitondraka,Tsinjomitondraka,-15.6667,47.1333,Madagascar,MG,MDG,Mahajanga,,11000.0,1450831039
Amporoforo,Amporoforo,-22.4667,47.8,Madagascar,MG,MDG,Fianarantsoa,,11000.0,1450014103
Ambodimangavolo,Ambodimangavolo,-17.5167,48.95,Madagascar,MG,MDG,Toamasina,,11000.0,1450962406
Analamitsivalana,Analamitsivalana,-20.3167,44.6833,Madagascar,MG,MDG,Toliara,,11000.0,1450477836
Bevata,Bevata,-23.2833,47.2833,Madagascar,MG,MDG,Fianarantsoa,,11000.0,1450498029
Antsambahara,Antsambahara,-14.5333,49.95,Madagascar,MG,MDG,Antsiranana,,11000.0,1450544862
Androndrona Anava,Androndrona Anava,-15.75,49.2,Madagascar,MG,MDG,Toamasina,,11000.0,1450535448
Sampona,Sampona,-25.15,46.3167,Madagascar,MG,MDG,Toliara,,11000.0,1450436674
Marolinta,Marolinta,-25.1,44.6167,Madagascar,MG,MDG,Toliara,,11000.0,1450336468
Andranomeva,Andranomeva,-15.8,47.7667,Madagascar,MG,MDG,Mahajanga,,11000.0,1450392051
Miandrarivo,Miandrarivo,-18.9167,45.9333,Madagascar,MG,MDG,Antananarivo,,11000.0,1450648621
Ambodimanary,Ambodimanary,-15.2167,48.0833,Madagascar,MG,MDG,Mahajanga,,11000.0,1450651140
Maroamalona,Maroamalona,-15.3,48.6667,Madagascar,MG,MDG,Mahajanga,,11000.0,1450211662
Marovantaza,Marovantaza,-15.3833,47.6667,Madagascar,MG,MDG,Mahajanga,,11000.0,1450960583
Marotandrano,Marotandrano,-16.1667,48.8333,Madagascar,MG,MDG,Mahajanga,,11000.0,1450460115
Antanandava,Antanandava,-15.85,48.8167,Madagascar,MG,MDG,Mahajanga,,11000.0,1450365453
Efatsy-Anandroza,Efatsy-Anandroza,-23.1167,47.6,Madagascar,MG,MDG,Fianarantsoa,,11000.0,1450536515
Manandroy,Manandroy,-21.1333,47.2667,Madagascar,MG,MDG,Fianarantsoa,,11000.0,1450182639
Tranomaro,Tranomaro,-24.6,46.4667,Madagascar,MG,MDG,Toliara,,11000.0,1450585965
Vinaninkarena,Vinaninkarena,-19.95,47.05,Madagascar,MG,MDG,Antananarivo,,11000.0,1450932095
Soaserana,Soaserana,-21.1167,44.2167,Madagascar,MG,MDG,Toliara,,11000.0,1450093331
Soamanova,Soamanova,-23.2833,47.6,Madagascar,MG,MDG,Fianarantsoa,,11000.0,1450833054
Ankasakasabe,Ankasakasabe,-16.3,44.85,Madagascar,MG,MDG,Mahajanga,,10870.0,1450475974
Ambohidanerana,Ambohidanerana,-19.1833,46.7667,Madagascar,MG,MDG,Antananarivo,,10786.0,1450817535
Antanandehibe,Antanandehibe,-19.6833,48.3333,Madagascar,MG,MDG,Toamasina,,10756.0,1450710342
Alakamisy Anativato,Alakamisy Anativato,-19.8833,46.9,Madagascar,MG,MDG,Antananarivo,,10754.0,1450915347
Kelilalina,Kelilalina,-21.2833,47.55,Madagascar,MG,MDG,Fianarantsoa,,10747.0,1450902894
Andovoranto,Andovoranto,-18.9544,49.1094,Madagascar,MG,MDG,Toamasina,,10723.0,1450518984
Ankarabato,Ankarabato,-16.35,46.1833,Madagascar,MG,MDG,Mahajanga,,10723.0,1450143070
Ambohinihaonana,Ambohinihaonana,-21.2,47.9167,Madagascar,MG,MDG,Fianarantsoa,,10697.0,1450959111
Lohariandava,Lohariandava,-18.7833,48.675,Madagascar,MG,MDG,Toamasina,,10670.0,1450037075
Anoviara,Anoviara,-14.7333,49.8333,Madagascar,MG,MDG,Antsiranana,,10667.0,1450027060
Betsiaka,Betsiaka,-13.15,49.2333,Madagascar,MG,MDG,Antsiranana,,10661.0,1450122670
Antsaravibe,Antsaravibe,-13.05,49.0167,Madagascar,MG,MDG,Antsiranana,,10648.0,1450567658
Ambato,Ambato,-18.6,47.5,Madagascar,MG,MDG,Antananarivo,,10642.0,1450100718
Mantasoa,Mantasoa,-19.0167,47.8333,Madagascar,MG,MDG,Antananarivo,,10604.0,1450107085
Ambohitromby,Ambohitromby,-18.4333,47.15,Madagascar,MG,MDG,Antananarivo,,10560.0,1450098921
Ambolotarakely,Ambolotarakely,-18.2667,47.4,Madagascar,MG,MDG,Antananarivo,,10560.0,1450049599
Marotaolana,Marotaolana,-14.0167,48.6167,Madagascar,MG,MDG,Antsiranana,,10538.0,1450914081
Antenetibe,Antenetibe,-18.7833,47.4167,Madagascar,MG,MDG,Antananarivo,,10536.0,1450141547
Andonabe Atsimo,Andonabe Atsimo,-19.8833,48.2167,Madagascar,MG,MDG,Toamasina,,10503.0,1450506198
Ambahy,Ambahy,-20.7667,48.4833,Madagascar,MG,MDG,Fianarantsoa,,10469.0,1450922020
Manakana,Manakana,-19.8167,48.3667,Madagascar,MG,MDG,Toamasina,,10437.0,1450745180
Antsahadinta,Antsahadinta,-19.0167,47.4583,Madagascar,MG,MDG,Antananarivo,,10434.0,1450776872
Fasintsara,Fasintsara,-20.7,47.7,Madagascar,MG,MDG,Fianarantsoa,,10377.0,1450084613
Ambalavao,Ambalavao,-19.1,47.5333,Madagascar,MG,MDG,Antananarivo,,10157.0,1450481528
Ankily,Ankily,-22.3833,46.0833,Madagascar,MG,MDG,Fianarantsoa,,10121.0,1450223255
Marondry,Marondry,-18.4167,47.0,Madagascar,MG,MDG,Antananarivo,,10110.0,1450307187
Antanananivo,Antanananivo,-16.3,49.75,Madagascar,MG,MDG,Toamasina,,10066.0,1450237966
Namorona,Namorona,-21.65,48.2,Madagascar,MG,MDG,Fianarantsoa,,10046.0,1450195610
Soahany,Soahany,-18.4,44.1333,Madagascar,MG,MDG,Mahajanga,,10001.0,1450252746
Belavabary,Belavabary,-18.8333,48.0,Madagascar,MG,MDG,Toamasina,,10000.0,1450323665
Mahabako,Mahabako,-21.75,47.7167,Madagascar,MG,MDG,Fianarantsoa,,10000.0,1450602617
Boanamary,Boanamary,-15.8333,46.3167,Madagascar,MG,MDG,Mahajanga,,10000.0,1450000246
Morafeno,Morafeno,-21.2,47.2833,Madagascar,MG,MDG,Fianarantsoa,,10000.0,1450789290
Esira,Esira,-24.3333,46.7,Madagascar,MG,MDG,Toliara,,10000.0,1450103451
Sandravinany,Sandravinany,-24.0333,47.4333,Madagascar,MG,MDG,Fianarantsoa,,10000.0,1450455975
Bedidy,Bedidy,-17.4667,48.0167,Madagascar,MG,MDG,Mahajanga,,10000.0,1450144441
Vohitrafeno,Vohitrafeno,-21.6667,47.2167,Madagascar,MG,MDG,Fianarantsoa,,10000.0,1450638566
Daraina,Daraina,-13.2,49.6667,Madagascar,MG,MDG,Antsiranana,,10000.0,1450505379
Masiaboay,Masiaboay,-23.9,44.4667,Madagascar,MG,MDG,Toliara,,10000.0,1450226801
Ambatomivary,Ambatomivary,-23.8333,45.5667,Madagascar,MG,MDG,Toliara,,10000.0,1450847805
Ambodisikidy,Ambodisikidy,-14.2333,48.4833,Madagascar,MG,MDG,Mahajanga,,10000.0,1450041005
Ambohimiarivo,Ambohimiarivo,-19.85,47.15,Madagascar,MG,MDG,Antananarivo,,10000.0,1450510741
Bekodoka,Bekodoka,-16.9667,45.1,Madagascar,MG,MDG,Mahajanga,,10000.0,1450176213
Maroharatra,Maroharatra,-20.7333,47.7667,Madagascar,MG,MDG,Fianarantsoa,,10000.0,1450765892
Ambararatabe,Ambararatabe,-18.99,46.19,Madagascar,MG,MDG,Antananarivo,,10000.0,1450180554
Ambatomifanongoa,Ambatomifanongoa,-20.2667,46.9167,Madagascar,MG,MDG,Fianarantsoa,,10000.0,1450751314
Ambohitrambo,Ambohitrambo,-18.9167,47.1833,Madagascar,MG,MDG,Antananarivo,,10000.0,1450876774
Ebelo,Ebelo,-24.4833,46.0333,Madagascar,MG,MDG,Toliara,,10000.0,1450395346
Tsararano,Tsararano,-17.3333,46.35,Madagascar,MG,MDG,Mahajanga,,10000.0,1450417123
Analalava,Analalava,-14.6333,47.75,Madagascar,MG,MDG,Mahajanga,,10000.0,1450593312
Lohafary,Lohafary,-23.25,47.4333,Madagascar,MG,MDG,Fianarantsoa,,10000.0,1450370124
Antsoantany,Antsoantany,-19.7,47.1667,Madagascar,MG,MDG,Antananarivo,,10000.0,1450425748
Ambovonomby,Ambovonomby,-14.3667,49.05,Madagascar,MG,MDG,Mahajanga,,10000.0,1450681597
Isahara,Isahara,-23.7167,47.35,Madagascar,MG,MDG,Fianarantsoa,,10000.0,1450953236
Ambodivoara,Ambodivoara,-14.4,49.95,Madagascar,MG,MDG,Antsiranana,,10000.0,1450201923
Vodiriana,Vodiriana,-19.1667,48.5667,Madagascar,MG,MDG,Toamasina,,10000.0,1450696407
Ambohimahazo,Ambohimahazo,-20.6667,47.0833,Madagascar,MG,MDG,Fianarantsoa,,10000.0,1450127672
Ambodimadiro,Ambodimadiro,-14.6,48.0833,Madagascar,MG,MDG,Mahajanga,,10000.0,1450696030
Andranambolava,Andranambolava,-20.9,48.2667,Madagascar,MG,MDG,Fianarantsoa,,10000.0,1450035681
Marosakoa,Marosakoa,-16.2333,46.8333,Madagascar,MG,MDG,Mahajanga,,10000.0,1450329712
Amborompotsy,Amborompotsy,-20.6,46.25,Madagascar,MG,MDG,Fianarantsoa,,10000.0,1450347473
Soavimbahoaka,Soavimbahoaka,-18.6833,46.1,Madagascar,MG,MDG,Antananarivo,,10000.0,1450132575
Erada,Erada,-25.2833,45.9333,Madagascar,MG,MDG,Toliara,,10000.0,1450445001
Mahabe,Mahabe,-17.0833,45.3333,Madagascar,MG,MDG,Mahajanga,,10000.0,1450085572
Mahabo-Mananivo,Mahabo-Mananivo,-23.1833,47.6833,Madagascar,MG,MDG,Fianarantsoa,,10000.0,1450871023
Miary-Taheza,Miary-Taheza,-23.1333,44.6167,Madagascar,MG,MDG,Toliara,,10000.0,1450731758
Ankadindambo,Ankadindambo,-21.4667,47.15,Madagascar,MG,MDG,Fianarantsoa,,10000.0,1450657492
Antaretra,Antaretra,-21.0667,47.85,Madagascar,MG,MDG,Fianarantsoa,,10000.0,1450713889
Betrandraka,Betrandraka,-17.0333,47.55,Madagascar,MG,MDG,Mahajanga,,10000.0,1450299932
Amparihy,Amparihy,-15.6667,47.1167,Madagascar,MG,MDG,Mahajanga,,10000.0,1450241299
Tanamarina,Tanamarina,-21.5731,45.94,Madagascar,MG,MDG,Fianarantsoa,,10000.0,1450528963
Sahanivotry-Manandona,Sahanivotry-Manandona,-20.1167,47.0833,Madagascar,MG,MDG,Antananarivo,,10000.0,1450219332
Andranomenatsa,Andranomenatsa,-23.3167,44.5833,Madagascar,MG,MDG,Toliara,,10000.0,1450593069
Ambodimandresy,Ambodimandresy,-14.7833,48.0833,Madagascar,MG,MDG,Mahajanga,,10000.0,1450907900
Anontsibe-Sakalava,Anontsibe-Sakalava,-21.3667,44.4667,Madagascar,MG,MDG,Toliara,,10000.0,1450810340
Amparihitsokatra,Amparihitsokatra,-17.5167,48.5667,Madagascar,MG,MDG,Toamasina,,10000.0,1450080667
Ambatolava,Ambatolava,-23.5667,47.3,Madagascar,MG,MDG,Fianarantsoa,,10000.0,1450777650
Ankerana,Ankerana,-21.0333,47.1167,Madagascar,MG,MDG,Fianarantsoa,,10000.0,1450047742
Sihanamaro,Sihanamaro,-25.1833,45.7667,Madagascar,MG,MDG,Toliara,,10000.0,1450305004
Vinanitelo,Vinanitelo,-21.7167,47.2667,Madagascar,MG,MDG,Fianarantsoa,,10000.0,1450114171
Vinanitelo,Vinanitelo,-22.0167,47.7333,Madagascar,MG,MDG,Fianarantsoa,,10000.0,1450156601
Ifarantsa,Ifarantsa,-24.9333,46.85,Madagascar,MG,MDG,Toliara,,10000.0,1450270852
Miarinarivo,Miarinarivo,-22.0833,47.05,Madagascar,MG,MDG,Fianarantsoa,,10000.0,1450277014
Ampasimazava,Ampasimazava,-17.6667,49.1333,Madagascar,MG,MDG,Toamasina,,10000.0,1450568333
Vohitany,Vohitany,-24.1333,44.7667,Madagascar,MG,MDG,Toliara,,10000.0,1450985540
Vohitsaoka,Vohitsaoka,-22.0333,46.7167,Madagascar,MG,MDG,Fianarantsoa,,10000.0,1450660197
Andranopasy,Andranopasy,-21.2833,43.7333,Madagascar,MG,MDG,Toliara,,10000.0,1450818607
Beheloka,Beheloka,-23.9017,43.7635,Madagascar,MG,MDG,Toliara,,10000.0,1450950058
Ankirondro,Ankirondro,-19.6333,44.6,Madagascar,MG,MDG,Toliara,,10000.0,1450343397
Tamponala,Tamponala,-19.3,46.4167,Madagascar,MG,MDG,Antananarivo,,10000.0,1450730146
Ambatolahy,Ambatolahy,-22.5333,46.0,Madagascar,MG,MDG,Fianarantsoa,,10000.0,1450502699
Katsepy,Katsepy,-15.7667,46.2333,Madagascar,MG,MDG,Mahajanga,,10000.0,1450252014
Vondrozo,Vondrozo,-22.8206,47.3217,Madagascar,MG,MDG,Fianarantsoa,,10000.0,1450832366
Tanambao-Daoud,Tanambao-Daoud,-13.9833,50.1333,Madagascar,MG,MDG,Antsiranana,,10000.0,1450000216
Sahatona-Tamboharivo,Sahatona-Tamboharivo,-20.9667,47.1,Madagascar,MG,MDG,Fianarantsoa,,10000.0,1450124769
Beanana,Beanana,-17.3667,48.4333,Madagascar,MG,MDG,Toamasina,,10000.0,1450709349
Soatanana,Soatanana,-21.3833,46.9167,Madagascar,MG,MDG,Fianarantsoa,,10000.0,1450865191
Ampitahana,Ampitahana,-21.1333,47.2167,Madagascar,MG,MDG,Fianarantsoa,,10000.0,1450688601
Anosimparihy,Anosimparihy,-21.5,47.9833,Madagascar,MG,MDG,Fianarantsoa,,10000.0,1450447380
Vatana,Vatana,-22.2167,47.75,Madagascar,MG,MDG,Fianarantsoa,,10000.0,1450089974
Ambalanjanakomby,Ambalanjanakomby,-16.7,47.0833,Madagascar,MG,MDG,Mahajanga,,10000.0,1450821290
Zoma-Bealoka,Zoma-Bealoka,-18.85,47.05,Madagascar,MG,MDG,Antananarivo,,10000.0,1450875060
Jangany,Jangany,-22.85,45.7833,Madagascar,MG,MDG,Toliara,,10000.0,1450631726
Ianapera,Ianapera,-23.6167,45.1333,Madagascar,MG,MDG,Toliara,,10000.0,1450881994
Ambahatrazo,Ambahatrazo,-21.8667,47.95,Madagascar,MG,MDG,Fianarantsoa,,10000.0,1450118510
Fanjakana,Fanjakana,-21.1833,46.8833,Madagascar,MG,MDG,Fianarantsoa,,10000.0,1450594461
Miadanandriana,Miadanandriana,-19.0333,47.7833,Madagascar,MG,MDG,Antananarivo,,9889.0,1450763578
Ankazotsifantatra,Ankazotsifantatra,-19.95,48.55,Madagascar,MG,MDG,Toamasina,,9880.0,1450068487
Ambodiriana,Ambodiriana,-17.8861,49.1875,Madagascar,MG,MDG,Toamasina,,9861.0,1450447808
Anjahamana,Anjahamana,-18.3667,48.9667,Madagascar,MG,MDG,Toamasina,,9846.0,1450772038
Djangoa,Djangoa,-13.7833,48.3167,Madagascar,MG,MDG,Antsiranana,,9800.0,1450339137
Ambinanintromby,Ambinanintromby,-21.6667,47.5167,Madagascar,MG,MDG,Fianarantsoa,,9748.0,1450658500
Tsaramasoandro,Tsaramasoandro,-17.9833,47.2,Madagascar,MG,MDG,Antananarivo,,9747.0,1450116713
Andrainjato,Andrainjato,-21.4667,47.0833,Madagascar,MG,MDG,Fianarantsoa,,9742.0,1450000119
Fandrandava,Fandrandava,-21.5167,47.25,Madagascar,MG,MDG,Fianarantsoa,,9742.0,1450327142
Ranomafana,Ranomafana,-21.25,47.45,Madagascar,MG,MDG,Fianarantsoa,,9705.0,1450503373
Fitampito,Fitampito,-20.9667,46.3167,Madagascar,MG,MDG,Fianarantsoa,,9546.0,1450283134
Ankadimanga,Ankadimanga,-18.9667,47.75,Madagascar,MG,MDG,Antananarivo,,9526.0,1450905081
Analaroa,Analaroa,-18.4083,47.7083,Madagascar,MG,MDG,Antananarivo,,9282.0,1450569110
Talata-Angavo,Talata-Angavo,-18.2,47.1,Madagascar,MG,MDG,Antananarivo,,9240.0,1450226833
Tanamarina-Sakay,Tanamarina-Sakay,-21.4667,46.6167,Madagascar,MG,MDG,Fianarantsoa,,9235.0,1450821166
Bemarivo,Bemarivo,-17.6333,44.75,Madagascar,MG,MDG,Mahajanga,,9091.0,1450296334
Andilana Avaratra,Andilana Avaratra,-17.35,48.5333,Madagascar,MG,MDG,Toamasina,,9042.0,1450556942
Ampasimpotsy-Gara,Ampasimpotsy-Gara,-18.9667,48.35,Madagascar,MG,MDG,Toamasina,,9023.0,1450245275
Maropaika,Maropaika,-22.7,46.9833,Madagascar,MG,MDG,Fianarantsoa,,9000.0,1450971910
Morafeno,Morafeno,-14.4,50.0333,Madagascar,MG,MDG,Antsiranana,,9000.0,1450000007
Soamahamanina,Soamahamanina,-18.9833,47.0167,Madagascar,MG,MDG,Antananarivo,,9000.0,1450133053
Ambodivoanio,Ambodivoanio,-16.1833,49.6667,Madagascar,MG,MDG,Toamasina,,9000.0,1450736682
Tsimafana,Tsimafana,-19.7167,44.5833,Madagascar,MG,MDG,Toliara,,9000.0,1450437916
Sahatsiho-Ambohimanjaka,Sahatsiho-Ambohimanjaka,-20.2,47.0333,Madagascar,MG,MDG,Fianarantsoa,,9000.0,1450389505
Ranopiso,Ranopiso,-25.05,46.6667,Madagascar,MG,MDG,Toliara,,9000.0,1450426168
Ivandrika,Ivandrika,-22.8667,47.7333,Madagascar,MG,MDG,Fianarantsoa,,9000.0,1450375529
Marotolana,Marotolana,-14.65,48.9833,Madagascar,MG,MDG,Mahajanga,,9000.0,1450171691
Ambatoria,Ambatoria,-14.5,48.95,Madagascar,MG,MDG,Mahajanga,,9000.0,1450620872
Lanivo,Lanivo,-22.2833,47.8167,Madagascar,MG,MDG,Fianarantsoa,,9000.0,1450578324
Sarasambo,Sarasambo,-25.1,46.7833,Madagascar,MG,MDG,Toliara,,9000.0,1450151247
Antambohobe,Antambohobe,-22.3,46.7667,Madagascar,MG,MDG,Fianarantsoa,,9000.0,1450913351
Ambalajia,Ambalajia,-17.4833,46.1167,Madagascar,MG,MDG,Mahajanga,,9000.0,1450290586
Nato,Nato,-22.3,47.8167,Madagascar,MG,MDG,Fianarantsoa,,9000.0,1450079364
Mahamaibe,Mahamaibe,-21.75,47.8833,Madagascar,MG,MDG,Fianarantsoa,,9000.0,1450492223
Mitanty,Mitanty,-21.7333,48.0,Madagascar,MG,MDG,Fianarantsoa,,9000.0,1450937842
Salobe,Salobe,-23.5333,44.7167,Madagascar,MG,MDG,Toliara,,9000.0,1450431518
Ambariokorano,Ambariokorano,-15.8833,48.9667,Madagascar,MG,MDG,Mahajanga,,9000.0,1450736655
Vohilava,Vohilava,-21.7667,47.9167,Madagascar,MG,MDG,Fianarantsoa,,9000.0,1450720571
Vatananto,Vatananto,-23.6667,47.25,Madagascar,MG,MDG,Fianarantsoa,,9000.0,1450501566
Iara,Iara,-23.0833,47.4333,Madagascar,MG,MDG,Fianarantsoa,,9000.0,1450682367
Ampary,Ampary,-19.1833,46.5833,Madagascar,MG,MDG,Antananarivo,,9000.0,1450964299
Ambalaromba,Ambalaromba,-14.6667,49.3333,Madagascar,MG,MDG,Mahajanga,,9000.0,1450599177
Ambatoharanana,Ambatoharanana,-16.4333,49.5833,Madagascar,MG,MDG,Toamasina,,9000.0,1450166915
Befotaka,Befotaka,-20.8333,45.6667,Madagascar,MG,MDG,Toliara,,9000.0,1450620315
Soamanonga,Soamanonga,-23.8667,44.7833,Madagascar,MG,MDG,Fianarantsoa,,9000.0,1450370442
Bemaharivo,Bemaharivo,-16.1333,46.4,Madagascar,MG,MDG,Mahajanga,,9000.0,1450110716
Anteza,Anteza,-21.6667,47.85,Madagascar,MG,MDG,Fianarantsoa,,9000.0,1450964830
Bekopaka,Bekopaka,-19.0167,44.85,Madagascar,MG,MDG,Mahajanga,,9000.0,1450806419
Antaly,Antaly,-24.3833,44.4,Madagascar,MG,MDG,Toliara,,9000.0,1450745641
Anjialava,Anjialava,-14.0667,49.7333,Madagascar,MG,MDG,Antsiranana,,9000.0,1450285791
Ankarana-Miraihina,Ankarana-Miraihina,-23.0833,47.6333,Madagascar,MG,MDG,Fianarantsoa,,9000.0,1450677715
Tsaratanana,Tsaratanana,-15.65,47.85,Madagascar,MG,MDG,Mahajanga,,9000.0,1450367041
Antsaidoha-Bebao,Antsaidoha-Bebao,-17.3667,44.55,Madagascar,MG,MDG,Mahajanga,,9000.0,1450780797
Nosibe,Nosibe,-13.15,49.8,Madagascar,MG,MDG,Antsiranana,,9000.0,1450983657
Soanierana,Soanierana,-25.0,46.8833,Madagascar,MG,MDG,Toliara,,9000.0,1450823872
Ambatolahy,Ambatolahy,-19.7333,47.2833,Madagascar,MG,MDG,Antananarivo,,9000.0,1450305568
Soanenga,Soanenga,-16.5,44.6,Madagascar,MG,MDG,Mahajanga,,9000.0,1450386206
Mahabo,Mahabo,-24.2833,45.2153,Madagascar,MG,MDG,Toliara,,9000.0,1450198675
Manampaneva,Manampaneva,-16.05,48.6833,Madagascar,MG,MDG,Mahajanga,,9000.0,1450103713
Manja,Manja,-21.4333,44.3333,Madagascar,MG,MDG,Toliara,,9000.0,1450949899
Ambinanin’ Andravory,Ambinanin' Andravory,-13.7667,49.75,Madagascar,MG,MDG,Antsiranana,,9000.0,1450604445
Belinta,Belinta,-19.95,45.1167,Madagascar,MG,MDG,Toliara,,9000.0,1450423565
Marovatolena,Marovatolena,-15.1833,47.65,Madagascar,MG,MDG,Mahajanga,,9000.0,1450130189
Morarano,Morarano,-19.4333,47.4833,Madagascar,MG,MDG,Antananarivo,,9000.0,1450779463
Antsahavaribe,Antsahavaribe,-13.85,49.8667,Madagascar,MG,MDG,Antsiranana,,9000.0,1450134835
Antseza,Antseza,-16.2167,45.8667,Madagascar,MG,MDG,Mahajanga,,9000.0,1450090147
Andribavontsona,Andribavontsona,-15.4,47.5167,Madagascar,MG,MDG,Mahajanga,,9000.0,1450250205
Ankiliabo,Ankiliabo,-24.6833,44.7167,Madagascar,MG,MDG,Toliara,,9000.0,1450784803
Antanankambano,Antanankambano,-22.05,47.4833,Madagascar,MG,MDG,Fianarantsoa,,9000.0,1450483821
Alakamisy-Ambohimahazo,Alakamisy-Ambohimahazo,-20.4,47.35,Madagascar,MG,MDG,Fianarantsoa,,9000.0,1450823290
Benato-Toby,Benato-Toby,-23.0833,45.8667,Madagascar,MG,MDG,Toliara,,9000.0,1450266627
Ankirihitra,Ankirihitra,-16.7667,46.45,Madagascar,MG,MDG,Mahajanga,,9000.0,1450483503
Antsatramidola,Antsatramidola,-15.6333,48.9667,Madagascar,MG,MDG,Mahajanga,,9000.0,1450037709
Amboronabo,Amboronabo,-22.6667,44.4,Madagascar,MG,MDG,Toliara,,9000.0,1450915976
Manevy,Manevy,-24.3833,46.8,Madagascar,MG,MDG,Toliara,,9000.0,1450343153
Beparasy,Beparasy,-19.1667,48.0333,Madagascar,MG,MDG,Toamasina,,9000.0,1450291288
Tandrano,Tandrano,-22.0833,44.6333,Madagascar,MG,MDG,Toliara,,9000.0,1450417140
Fierenana,Fierenana,-18.4833,48.4,Madagascar,MG,MDG,Toamasina,,9000.0,1450717278
Ambarimaninga,Ambarimaninga,-16.5,46.0,Madagascar,MG,MDG,Mahajanga,,9000.0,1450371857
Ambodimahabibo,Ambodimahabibo,-15.7333,48.0833,Madagascar,MG,MDG,Mahajanga,,9000.0,1450192995
Mahela,Mahela,-19.4833,48.4833,Madagascar,MG,MDG,Toamasina,,8815.0,1450731467
Amberomanga,Amberomanga,-19.25,46.6167,Madagascar,MG,MDG,Antananarivo,,8772.0,1450006485
Ankatafa,Ankatafa,-13.6167,48.3667,Madagascar,MG,MDG,Antsiranana,,8652.0,1450000267
Anjahamarina,Anjahamarina,-18.0167,49.2,Madagascar,MG,MDG,Toamasina,,8564.0,1450675952
Bekily,Bekily,-24.2162,45.3166,Madagascar,MG,MDG,Toliara,,4286.0,1450655091
Androka,Androka,-25.0219,44.0749,Madagascar,MG,MDG,Toliara,,174.0,1450495720
Antananarivo,Antananarivo,-18.91,47.525,Madagascar,MG,MDG,Antananarivo,primary,2300000.0,1450978461
Androtsy,Androtsy,-24.1,46.3,Madagascar,MG,MDG,Toliara,,809313.0,1450017816
Betsiboka,Betsiboka,-16.95,46.83,Madagascar,MG,MDG,Mahajanga,,394561.0,1450524066
Antsirabe,Antsirabe,-19.8667,47.0333,Madagascar,MG,MDG,Antananarivo,minor,265018.0,1450791699
Mahajanga,Mahajanga,-15.7167,46.3167,Madagascar,MG,MDG,Mahajanga,admin,246022.0,1450421961
Toamasina,Toamasina,-18.155,49.41,Madagascar,MG,MDG,Toamasina,admin,225116.0,1450540529
Fianarantsoa,Fianarantsoa,-21.4536,47.0858,Madagascar,MG,MDG,Fianarantsoa,admin,191776.0,1450070223
Toliara,Toliara,-23.35,43.6667,Madagascar,MG,MDG,Toliara,admin,168756.0,1450593748
Antsiranana,Antsiranana,-12.3,49.2833,Madagascar,MG,MDG,Antsiranana,admin,129320.0,1450106928
Ambovombe,Ambovombe,-25.1764,46.0833,Madagascar,MG,MDG,Toliara,minor,114230.0,1450135666
Ambohimangakely,Ambohimangakely,-18.9167,47.6,Madagascar,MG,MDG,Antananarivo,,91056.0,1450074776
Sambava,Sambava,-14.2667,50.1667,Madagascar,MG,MDG,Antsiranana,minor,84039.0,1450004590
Antehiroka,Antehiroka,-18.85,47.4833,Madagascar,MG,MDG,Antananarivo,,80360.0,1450838187
Belo Tsiribihina,Belo Tsiribihina,-19.7,44.55,Madagascar,MG,MDG,Toliara,,72000.0,1450104370
Imerintsiatosika,Imerintsiatosika,-18.9833,47.3167,Madagascar,MG,MDG,Antananarivo,,69953.0,1450857841
Antalaha,Antalaha,-14.8833,50.25,Madagascar,MG,MDG,Antsiranana,,67888.0,1450649394
Ankazoabokely,Ankazoabokely,-21.5036,45.2094,Madagascar,MG,MDG,Toliara,,67337.0,1450489692
Tôlan̈aro,Tolanaro,-25.0325,46.9833,Madagascar,MG,MDG,Toliara,minor,67284.0,1450217836
Madirovalo,Madirovalo,-16.4333,46.5333,Madagascar,MG,MDG,Mahajanga,,66000.0,1450602387
Ambilobe,Ambilobe,-13.2,49.05,Madagascar,MG,MDG,Antsiranana,,62346.0,1450374226
Analavory,Analavory,-18.9667,46.7167,Madagascar,MG,MDG,Antananarivo,,62130.0,1450643533
Ambanja,Ambanja,-13.6786,48.4522,Madagascar,MG,MDG,Antsiranana,,60321.0,1450987919
Andoharanofotsy,Andoharanofotsy,-18.975,47.5333,Madagascar,MG,MDG,Antananarivo,,58878.0,1450381707
Antsalova,Antsalova,-18.6667,44.6167,Madagascar,MG,MDG,Mahajanga,,58280.0,1450407330
Ambahikily,Ambahikily,-21.6,43.6667,Madagascar,MG,MDG,Toliara,,58027.0,1450105131
Antsinanantsena,Antsinanantsena,-18.8333,47.55,Madagascar,MG,MDG,Antananarivo,,57363.0,1450343987
Moramanga,Moramanga,-18.9469,48.2303,Madagascar,MG,MDG,Toamasina,,57084.0,1450998453
Antanifotsy,Antanifotsy,-19.68,47.33,Madagascar,MG,MDG,Antananarivo,,54448.0,1450226310
Ankadinondry-Sakay,Ankadinondry-Sakay,-19.0,46.4639,Madagascar,MG,MDG,Antananarivo,,54217.0,1450977196
Morondava,Morondava,-20.2847,44.3175,Madagascar,MG,MDG,Toliara,minor,53510.0,1450721607
Ampanihy,Ampanihy,-24.6833,44.75,Madagascar,MG,MDG,Toliara,,52053.0,1450328270
Ambohibary,Ambohibary,-19.6167,47.15,Madagascar,MG,MDG,Antananarivo,,52000.0,1450162671
Tanjombato,Tanjombato,-18.95,47.5167,Madagascar,MG,MDG,Antananarivo,,50373.0,1450363732
Ampitatafika,Ampitatafika,-18.9333,47.475,Madagascar,MG,MDG,Fianarantsoa,,50373.0,1450438823
Ejeda,Ejeda,-24.35,44.5167,Madagascar,MG,MDG,Toliara,,49915.0,1450979491
Ambatondrazaka,Ambatondrazaka,-17.8256,48.4289,Madagascar,MG,MDG,Toamasina,minor,47649.0,1450068349
Saranambana,Saranambana,-17.25,49.1833,Madagascar,MG,MDG,Toamasina,,47000.0,1450668500
Faratsiho,Faratsiho,-19.4,46.95,Madagascar,MG,MDG,Antananarivo,,46569.0,1450194641
Amboasary,Amboasary,-25.05,46.3833,Madagascar,MG,MDG,Toliara,,45989.0,1450064335
Tsiroanomandidy,Tsiroanomandidy,-18.7698,46.05,Madagascar,MG,MDG,Antananarivo,minor,44461.0,1450080598
Manakara,Manakara,-22.15,48.0,Madagascar,MG,MDG,Fianarantsoa,minor,44237.0,1450925890
Talatamaty,Talatamaty,-18.8333,47.45,Madagascar,MG,MDG,Antananarivo,,44082.0,1450675935
Maroantsetra,Maroantsetra,-15.4333,49.75,Madagascar,MG,MDG,Toamasina,,42529.0,1450485257
Morarano Chrome,Morarano Chrome,-17.75,48.1667,Madagascar,MG,MDG,Toamasina,,42147.0,1450652075
Fenoarivo Atsinanana,Fenoarivo Atsinanana,-17.3814,49.4092,Madagascar,MG,MDG,Toamasina,minor,41734.0,1450763584
Ambohitrimanjaka,Ambohitrimanjaka,-18.8667,47.4333,Madagascar,MG,MDG,Antananarivo,,41604.0,1450986963
Ambositra,Ambositra,-20.5167,47.25,Madagascar,MG,MDG,Fianarantsoa,minor,41078.0,1450276194
Soavinandriana,Soavinandriana,-19.1667,46.7333,Madagascar,MG,MDG,Antananarivo,,40045.0,1450397314
Matsoandakana,Matsoandakana,-14.9667,49.25,Madagascar,MG,MDG,Mahajanga,,40000.0,1450774810
Benenitra,Benenitra,-23.4522,45.0781,Madagascar,MG,MDG,Toliara,,39766.0,1450877393
Ihosy,Ihosy,-22.4036,46.1258,Madagascar,MG,MDG,Fianarantsoa,minor,39556.0,1450600411
Marovoay,Marovoay,-16.1111,46.6439,Madagascar,MG,MDG,Mahajanga,,39290.0,1450283819
Androka,Androka,-25.1167,44.45,Madagascar,MG,MDG,Toliara,,39168.0,1450742982
Ambatomainty,Ambatomainty,-17.6833,48.2167,Madagascar,MG,MDG,Toamasina,,39000.0,1450199483
Vangaindrano,Vangaindrano,-23.35,47.6,Madagascar,MG,MDG,Fianarantsoa,,38537.0,1450641606
Antsohihy,Antsohihy,-14.8762,47.9834,Madagascar,MG,MDG,Mahajanga,minor,38253.0,1450240411
Mahanoro,Mahanoro,-19.9,48.8,Madagascar,MG,MDG,Toamasina,,37800.0,1450211146
Ambatofinandrahana,Ambatofinandrahana,-20.55,46.8,Madagascar,MG,MDG,Fianarantsoa,,37409.0,1450850777
Andilamena,Andilamena,-17.0167,48.5833,Madagascar,MG,MDG,Toamasina,,37229.0,1450560153
Mandoto,Mandoto,-19.5667,46.2833,Madagascar,MG,MDG,Antananarivo,,37000.0,1450317527
Manazary,Manazary,-19.05,46.8667,Madagascar,MG,MDG,Antananarivo,,37000.0,1450957138
Anosiala,Anosiala,-18.7833,47.4167,Madagascar,MG,MDG,Antananarivo,,36863.0,1450613112
Ikongo,Ikongo,-21.8833,47.4333,Madagascar,MG,MDG,Fianarantsoa,,36684.0,1450895695
Vohipeno,Vohipeno,-17.1667,49.3,Madagascar,MG,MDG,Toamasina,,36000.0,1450859907
Ampasina-Maningory,Ampasina-Maningory,-17.2167,49.4167,Madagascar,MG,MDG,Toamasina,,36000.0,1450030003
Ambohibary,Ambohibary,-18.9,48.2333,Madagascar,MG,MDG,Toamasina,,35923.0,1450987733
Vavatenina,Vavatenina,-17.4667,49.2,Madagascar,MG,MDG,Toamasina,,35750.0,1450949458
Mahabo,Mahabo,-20.3833,44.6667,Madagascar,MG,MDG,Toliara,,35532.0,1450310874
Mahasolo,Mahasolo,-19.1167,46.3667,Madagascar,MG,MDG,Antananarivo,,35152.0,1450644716
Mananara Avaratra,Mananara Avaratra,-16.1667,49.7667,Madagascar,MG,MDG,Toamasina,,35148.0,1450802138
Ikalamavony,Ikalamavony,-21.15,46.5833,Madagascar,MG,MDG,Fianarantsoa,,35114.0,1450926732
Firavahana,Firavahana,-18.6333,46.8667,Madagascar,MG,MDG,Antananarivo,,35000.0,1450613090
Fotadrevo,Fotadrevo,-24.05,45.0167,Madagascar,MG,MDG,Toliara,,35000.0,1450481485
Farafangana,Farafangana,-22.8167,47.8167,Madagascar,MG,MDG,Fianarantsoa,minor,34676.0,1450306255
Andapa,Andapa,-14.65,49.65,Madagascar,MG,MDG,Antsiranana,,34616.0,1450290201
Betafo,Betafo,-19.84,46.855,Madagascar,MG,MDG,Antananarivo,,34336.0,1450624332
Ankazomiriotra,Ankazomiriotra,-19.65,46.5,Madagascar,MG,MDG,Antananarivo,,34000.0,1450000270
Maromandia,Maromandia,-14.2167,48.0833,Madagascar,MG,MDG,Mahajanga,,34000.0,1450666158
Mahasoabe,Mahasoabe,-21.5833,47.2167,Madagascar,MG,MDG,Fianarantsoa,,34000.0,1450903895
Amparafaravola,Amparafaravola,-17.5833,48.2167,Madagascar,MG,MDG,Toamasina,,33299.0,1450596201
Didy,Didy,-18.1167,48.5333,Madagascar,MG,MDG,Toamasina,,33039.0,1450048536
Ambodimanga II,Ambodimanga II,-17.2667,49.1667,Madagascar,MG,MDG,Toamasina,,33000.0,1450874988
Vohitromby,Vohitromby,-23.3,47.5333,Madagascar,MG,MDG,Fianarantsoa,,33000.0,1450355473
Kiranomena,Kiranomena,-18.2833,46.05,Madagascar,MG,MDG,Antananarivo,,32354.0,1450873803
Antsohimbondrona,Antsohimbondrona,-13.0833,48.85,Madagascar,MG,MDG,Antsiranana,,32080.0,1450655799
Andriba,Andriba,-17.5833,46.9333,Madagascar,MG,MDG,Mahajanga,,32000.0,1450511055
Bekoratsaka,Bekoratsaka,-16.1,47.5,Madagascar,MG,MDG,Mahajanga,,32000.0,1450752674
Vohilava,Vohilava,-21.0667,48.0,Madagascar,MG,MDG,Fianarantsoa,,32000.0,1450947026
Itampolo,Itampolo,-24.6833,43.95,Madagascar,MG,MDG,Toliara,,32000.0,1450567522
Ambano,Ambano,-19.8,47.0333,Madagascar,MG,MDG,Antananarivo,,32000.0,1450997295
Sakaraha,Sakaraha,-22.9167,44.5497,Madagascar,MG,MDG,Toliara,,31183.0,1450732335
Ambatomiady,Ambatomiady,-19.6833,47.4167,Madagascar,MG,MDG,Antananarivo,,31140.0,1450424927
Manaratsandry,Manaratsandry,-16.1833,46.5,Madagascar,MG,MDG,Mahajanga,,31056.0,1450445247
Vohitrandriana,Vohitrandriana,-20.75,48.2667,Madagascar,MG,MDG,Fianarantsoa,,31000.0,1450279828
Andranovory,Andranovory,-23.1333,44.1333,Madagascar,MG,MDG,Toliara,,31000.0,1450787147
Andranomanelatra,Andranomanelatra,-19.7833,47.1,Madagascar,MG,MDG,Antananarivo,,30000.0,1450464375
Tsitondroina,Tsitondroina,-21.3,45.9833,Madagascar,MG,MDG,Fianarantsoa,,30000.0,1450441433
Ambinanitelo,Ambinanitelo,-15.35,49.5833,Madagascar,MG,MDG,Toamasina,,30000.0,1450149490
Ambalavao,Ambalavao,-21.8333,46.9333,Madagascar,MG,MDG,Fianarantsoa,,30000.0,1450812103
Antsampandrano,Antsampandrano,-19.9167,47.5667,Madagascar,MG,MDG,Antananarivo,,29788.0,1450559854
Mananasy-Tsitakondaza,Mananasy-Tsitakondaza,-19.15,46.65,Madagascar,MG,MDG,Antananarivo,,29763.0,1450104138
Antsahalava,Antsahalava,-19.5833,47.4667,Madagascar,MG,MDG,Antananarivo,,29556.0,1450903969
Fandriana,Fandriana,-20.2333,47.3833,Madagascar,MG,MDG,Fianarantsoa,,29232.0,1450916986
Andoharanomaitso,Andoharanomaitso,-21.4667,46.95,Madagascar,MG,MDG,Fianarantsoa,,28708.0,1450341443
Fenoarivobe,Fenoarivobe,-18.4497,46.5617,Madagascar,MG,MDG,Antananarivo,,28616.0,1450638055
Mampikony,Mampikony,-16.0917,47.6472,Madagascar,MG,MDG,Mahajanga,,28593.0,1450443116
Ambatolampy,Ambatolampy,-19.3861,47.4292,Madagascar,MG,MDG,Antananarivo,,28500.0,1450037305
Arivonimamo,Arivonimamo,-19.0333,47.1667,Madagascar,MG,MDG,Antananarivo,,28324.0,1450000014
Tsinjoarivo,Tsinjoarivo,-19.6333,47.6833,Madagascar,MG,MDG,Antananarivo,,28108.0,1450592265
Sahavato,Sahavato,-20.6,48.3333,Madagascar,MG,MDG,Fianarantsoa,,28000.0,1450860730
Imito,Imito,-20.4167,47.3167,Madagascar,MG,MDG,Fianarantsoa,,28000.0,1450451117
Sandrandahy,Sandrandahy,-20.35,47.3,Madagascar,MG,MDG,Fianarantsoa,,28000.0,1450900156
Ambohijanahary,Ambohijanahary,-17.4,48.3667,Madagascar,MG,MDG,Toamasina,,28000.0,1450399017
Tsinjoarivo,Tsinjoarivo,-18.9333,46.3167,Madagascar,MG,MDG,Antananarivo,,27934.0,1450298456
Ambohitompoina,Ambohitompoina,-19.75,47.5667,Madagascar,MG,MDG,Antananarivo,,27899.0,1450129746
Ampasimanolotra,Ampasimanolotra,-18.8194,49.0736,Madagascar,MG,MDG,Toamasina,,27865.0,1450133972
Ambodibonara,Ambodibonara,-20.3388,48.5177,Madagascar,MG,MDG,Toamasina,,27597.0,1450738968
Marolambo,Marolambo,-20.05,48.1167,Madagascar,MG,MDG,Toamasina,,27509.0,1450683142
Behara,Behara,-24.95,46.3833,Madagascar,MG,MDG,Toliara,,27285.0,1450740958
Ambohijanaka,Ambohijanaka,-18.9833,47.55,Madagascar,MG,MDG,Antananarivo,,27088.0,1450475347
Vohipaho,Vohipaho,-23.55,47.5,Madagascar,MG,MDG,Fianarantsoa,,27000.0,1450398664
Tsaravary,Tsaravary,-21.25,48.3,Madagascar,MG,MDG,Fianarantsoa,,27000.0,1450274736
Miandrarivo,Miandrarivo,-19.4333,46.75,Madagascar,MG,MDG,Antananarivo,,27000.0,1450672454
Mandabe,Mandabe,-21.05,44.9333,Madagascar,MG,MDG,Toliara,,27000.0,1450718280
Andranomavo,Andranomavo,-16.5667,45.5833,Madagascar,MG,MDG,Mahajanga,,27000.0,1450968548
Antsiatsiaka,Antsiatsiaka,-17.0,49.2,Madagascar,MG,MDG,Toamasina,,27000.0,1450414497
Alakamisy Itenina,Alakamisy Itenina,-21.6333,47.15,Madagascar,MG,MDG,Fianarantsoa,,27000.0,1450665249
Ambinanisakana,Ambinanisakana,-16.95,49.5833,Madagascar,MG,MDG,Toamasina,,26990.0,1450453303
Soanierana Ivongo,Soanierana Ivongo,-16.9167,49.5833,Madagascar,MG,MDG,Toamasina,,26990.0,1450631531
Ambodiangezoka,Ambodiangezoka,-14.6,49.5,Madagascar,MG,MDG,Antsiranana,,26673.0,1450741103
Beramanja,Beramanja,-13.3333,48.8667,Madagascar,MG,MDG,Antsiranana,,26273.0,1450322357
Anosipatrana,Anosipatrana,-18.9333,47.5,Madagascar,MG,MDG,Antananarivo,,26107.0,1450506869
Mahitsy,Mahitsy,-18.75,47.35,Madagascar,MG,MDG,Antananarivo,,26056.0,1450344593
Ambatomborona,Ambatomborona,-19.4,47.1167,Madagascar,MG,MDG,Antananarivo,,26000.0,1450670028
Malaimbandy,Malaimbandy,-20.3333,45.6,Madagascar,MG,MDG,Toliara,,26000.0,1450415415
Mahambo,Mahambo,-17.4833,49.4667,Madagascar,MG,MDG,Toamasina,,26000.0,1450449223
Ambatofotsy,Ambatofotsy,-21.75,47.4833,Madagascar,MG,MDG,Fianarantsoa,,26000.0,1450519366
Tsarazaza,Tsarazaza,-20.1333,47.2333,Madagascar,MG,MDG,Fianarantsoa,,26000.0,1450665251
Maevatanana,Maevatanana,-16.95,46.8333,Madagascar,MG,MDG,Mahajanga,minor,25928.0,1450402111
Andasibe,Andasibe,-17.3333,48.9,Madagascar,MG,MDG,Toamasina,,25831.0,1450830509
Maintirano,Maintirano,-18.0667,44.0167,Madagascar,MG,MDG,Mahajanga,minor,25788.0,1450625023
Fenoarivo,Fenoarivo,-18.9333,47.4333,Madagascar,MG,MDG,Antananarivo,,25675.0,1450445815
Mananjary,Mananjary,-21.2311,48.3419,Madagascar,MG,MDG,Fianarantsoa,,25222.0,1450681595
Ampahana,Ampahana,-14.75,50.2167,Madagascar,MG,MDG,Antsiranana,,25000.0,1450937375
Fidirana,Fidirana,-19.5,46.5667,Madagascar,MG,MDG,Antananarivo,,25000.0,1450335762
Mahatalaky,Mahatalaky,-24.7833,47.0833,Madagascar,MG,MDG,Toliara,,25000.0,1450981094
Ankazomborona,Ankazomborona,-16.1167,46.75,Madagascar,MG,MDG,Mahajanga,,25000.0,1450164210
Antsirabe Avaratra,Antsirabe Avaratra,-13.9667,49.9667,Madagascar,MG,MDG,Antsiranana,,25000.0,1450349546
Tsaratanana,Tsaratanana,-16.7972,47.6528,Madagascar,MG,MDG,Mahajanga,,24971.0,1450412492
Sahasoa,Sahasoa,-21.9833,45.95,Madagascar,MG,MDG,Fianarantsoa,,24877.0,1450687379
Anivorano Avaratra,Anivorano Avaratra,-12.7333,49.2333,Madagascar,MG,MDG,Antsiranana,,24838.0,1450739750
Ambohimasina,Ambohimasina,-19.65,46.7333,Madagascar,MG,MDG,Antananarivo,,24352.0,1450467942
Mahaiza,Mahaiza,-19.9,46.8167,Madagascar,MG,MDG,Antananarivo,,24244.0,1450126479
Ambalamanasy II,Ambalamanasy II,-14.5167,49.5833,Madagascar,MG,MDG,Antsiranana,,24211.0,1450605901
Anjozorobe,Anjozorobe,-18.4033,47.85,Madagascar,MG,MDG,Antananarivo,,24117.0,1450597043
Soamanandrariny,Soamanandrariny,-19.65,47.2833,Madagascar,MG,MDG,Antananarivo,,24003.0,1450764328
Ambatotsipihina,Ambatotsipihina,-19.6333,47.75,Madagascar,MG,MDG,Antananarivo,,24003.0,1450556369
Ambohimandroso,Ambohimandroso,-19.5167,47.4167,Madagascar,MG,MDG,Antananarivo,,24000.0,1450713375
Lopary,Lopary,-23.1833,47.6667,Madagascar,MG,MDG,Fianarantsoa,,24000.0,1450854735
Antonibe,Antonibe,-15.1167,47.4,Madagascar,MG,MDG,Mahajanga,,24000.0,1450316334
Antanimieva,Antanimieva,-22.2333,43.7667,Madagascar,MG,MDG,Toliara,,24000.0,1450718789
Miarinarivo,Miarinarivo,-17.65,49.1,Madagascar,MG,MDG,Toamasina,,24000.0,1450268766
Tsiatosika,Tsiatosika,-21.2,48.2333,Madagascar,MG,MDG,Fianarantsoa,,24000.0,1450500490
Ambohimahamasina,Ambohimahamasina,-21.9333,47.1833,Madagascar,MG,MDG,Fianarantsoa,,23949.0,1450478240
Miantso,Miantso,-18.7167,47.15,Madagascar,MG,MDG,Antananarivo,,23691.0,1450952879
Antanimasaka,Antanimasaka,-16.2333,46.5167,Madagascar,MG,MDG,Mahajanga,,23331.0,1450865141
Ambohimiadana,Ambohimiadana,-19.2333,47.7833,Madagascar,MG,MDG,Antananarivo,,23320.0,1450165876
Tsaratanana,Tsaratanana,-21.1833,47.6333,Madagascar,MG,MDG,Fianarantsoa,,23252.0,1450726969
Mangidy,Mangidy,-21.25,46.8,Madagascar,MG,MDG,Fianarantsoa,,23033.0,1450650738
Ambohitrarivo,Ambohitrarivo,-17.4667,48.35,Madagascar,MG,MDG,Toamasina,,23000.0,1450446247
Mahela,Mahela,-20.9667,48.45,Madagascar,MG,MDG,Fianarantsoa,,23000.0,1450069784
Farahalana,Farahalana,-14.4333,50.1667,Madagascar,MG,MDG,Antsiranana,,23000.0,1450865823
Analamisampy,Analamisampy,-22.4667,43.65,Madagascar,MG,MDG,Toliara,,23000.0,1450834889
Ambohitoaka,Ambohitoaka,-16.0167,47.65,Madagascar,MG,MDG,Mahajanga,,23000.0,1450398424
Miantsoarivo,Miantsoarivo,-19.2,47.4,Madagascar,MG,MDG,Antananarivo,,23000.0,1450237098
Ankaramy,Ankaramy,-13.9833,48.2,Madagascar,MG,MDG,Mahajanga,,23000.0,1450209200
Marovato,Marovato,-15.9,48.05,Madagascar,MG,MDG,Mahajanga,,23000.0,1450492624
Ankilizato,Ankilizato,-20.4,45.05,Madagascar,MG,MDG,Toliara,,23000.0,1450796220
Andalatanosy,Andalatanosy,-24.6667,45.6,Madagascar,MG,MDG,Toliara,,23000.0,1450638418
Ivato,Ivato,-20.6167,47.2,Madagascar,MG,MDG,Fianarantsoa,,22745.0,1450605437
Andoany,Andoany,-13.4,48.2666,Madagascar,MG,MDG,Antsiranana,,22680.0,1450689047
Morombe,Morombe,-21.75,43.3667,Madagascar,MG,MDG,Toliara,,22625.0,1450018559
Boriziny,Boriziny,-15.567,47.621,Madagascar,MG,MDG,Mahajanga,,22573.0,1450881800
Betsizaraina,Betsizaraina,-19.95,48.75,Madagascar,MG,MDG,Toamasina,,22409.0,1450919460
Manakambahiny,Manakambahiny,-17.8,48.3333,Madagascar,MG,MDG,Toamasina,,22000.0,1450199709
Ambodimotso Atsimo,Ambodimotso Atsimo,-15.3833,48.6,Madagascar,MG,MDG,Mahajanga,,22000.0,1450354042
Ampasimanjeva,Ampasimanjeva,-21.7333,48.0333,Madagascar,MG,MDG,Fianarantsoa,,22000.0,1450896480
Iarintsena,Iarintsena,-21.8167,46.8667,Madagascar,MG,MDG,Fianarantsoa,,22000.0,1450516080
Andranovorivato,Andranovorivato,-21.6333,46.9833,Madagascar,MG,MDG,Fianarantsoa,,22000.0,1450284938
Bemanonga,Bemanonga,-20.2833,44.35,Madagascar,MG,MDG,Toliara,,22000.0,1450905761
Vohimasina,Vohimasina,-21.7333,48.1333,Madagascar,MG,MDG,Fianarantsoa,,22000.0,1450287658
Andilanatoby,Andilanatoby,-17.9333,48.2333,Madagascar,MG,MDG,Toamasina,,22000.0,1450217709
Alakamisy-Ambohimaha,Alakamisy-Ambohimaha,-21.3167,47.2167,Madagascar,MG,MDG,Fianarantsoa,,22000.0,1450325718
Ambalaroka,Ambalaroka,-22.1333,47.7333,Madagascar,MG,MDG,Fianarantsoa,,22000.0,1450936637
Jafaro,Jafaro,-24.9167,45.5167,Madagascar,MG,MDG,Toliara,,22000.0,1450577279
Ankiabe-Salohy,Ankiabe-Salohy,-15.6,48.7167,Madagascar,MG,MDG,Mahajanga,,22000.0,1450727399
Antsakabary,Antsakabary,-15.05,48.9333,Madagascar,MG,MDG,Mahajanga,,22000.0,1450047713
Ampanotokana,Ampanotokana,-18.7167,47.3,Madagascar,MG,MDG,Antananarivo,,21969.0,1450337048
Ambatomanoina,Ambatomanoina,-18.3167,47.6167,Madagascar,MG,MDG,Antananarivo,,21779.0,1450369214
Lakato,Lakato,-19.1833,48.4333,Madagascar,MG,MDG,Toamasina,,21609.0,1450863135
Ambohitromby,Ambohitromby,-18.9667,46.3167,Madagascar,MG,MDG,Antananarivo,,21466.0,1450386250
Ambinanindrano,Ambinanindrano,-20.6833,47.5667,Madagascar,MG,MDG,Fianarantsoa,,21364.0,1450392046
Fierenana,Fierenana,-18.55,45.85,Madagascar,MG,MDG,Antananarivo,,21224.0,1450253158
Morafeno,Morafeno,-15.4833,48.2,Madagascar,MG,MDG,Mahajanga,,21000.0,1450032930
Sitampiky,Sitampiky,-16.6667,46.1,Madagascar,MG,MDG,Mahajanga,,21000.0,1450688807
Ambalavato,Ambalavato,-22.9667,47.4667,Madagascar,MG,MDG,Fianarantsoa,,21000.0,1450281811
Tongobory,Tongobory,-23.5167,44.3333,Madagascar,MG,MDG,Toliara,,21000.0,1450220493
Tsarasaotra,Tsarasaotra,-20.4333,47.2333,Madagascar,MG,MDG,Fianarantsoa,,21000.0,1450387787
Ambohipandrano,Ambohipandrano,-19.15,47.3667,Madagascar,MG,MDG,Antananarivo,,21000.0,1450475583
Andolofotsy,Andolofotsy,-18.75,46.6333,Madagascar,MG,MDG,Antananarivo,,21000.0,1450054125
Soanindrariny,Soanindrariny,-19.9,47.2333,Madagascar,MG,MDG,Antananarivo,,21000.0,1450013819
Ankililoaka,Ankililoaka,-22.7667,43.6167,Madagascar,MG,MDG,Toliara,,21000.0,1450496497
Tsiamalao,Tsiamalao,-15.05,48.45,Madagascar,MG,MDG,Mahajanga,,21000.0,1450394904
Fiadanana,Fiadanana,-20.4333,48.3833,Madagascar,MG,MDG,Fianarantsoa,,21000.0,1450442831
Antanambao,Antanambao,-19.6667,47.3333,Madagascar,MG,MDG,Antananarivo,,21000.0,1450771777
Sahamadio,Sahamadio,-22.5167,47.5667,Madagascar,MG,MDG,Fianarantsoa,,21000.0,1450499923
Miorimivalana,Miorimivalana,-17.2167,49.2,Madagascar,MG,MDG,Toamasina,,21000.0,1450765179
Ambohimanambola,Ambohimanambola,-19.8,46.6167,Madagascar,MG,MDG,Antananarivo,,21000.0,1450223551
Ampasimatera,Ampasimatera,-15.9333,47.75,Madagascar,MG,MDG,Mahajanga,,21000.0,1450446865
Karianga,Karianga,-22.4167,47.3667,Madagascar,MG,MDG,Fianarantsoa,,21000.0,1450185068
Matanga,Matanga,-23.5167,47.55,Madagascar,MG,MDG,Fianarantsoa,,21000.0,1450994250
Ankaraobato,Ankaraobato,-18.9,47.4667,Madagascar,MG,MDG,Antananarivo,,20969.0,1450653846
Ambohimanga,Ambohimanga,-18.7667,47.5667,Madagascar,MG,MDG,Antananarivo,,20872.0,1450695670
Vinany,Vinany,-19.6167,46.4833,Madagascar,MG,MDG,Antananarivo,,20844.0,1450526902
Ambondro,Ambondro,-25.25,45.8333,Madagascar,MG,MDG,Toliara,,20796.0,1450087173
Miandrivazo,Miandrivazo,-19.5239,45.4573,Madagascar,MG,MDG,Toliara,,20631.0,1450332104
Beforona,Beforona,-18.9667,48.5833,Madagascar,MG,MDG,Toamasina,,20380.0,1450730932
Alatsinainy-Bakaro,Alatsinainy-Bakaro,-19.3167,47.6833,Madagascar,MG,MDG,Antananarivo,,20370.0,1450565382
Mahaditra,Mahaditra,-21.75,47.1,Madagascar,MG,MDG,Fianarantsoa,,20068.0,1450574593
Ampasimena,Ampasimena,-24.3667,47.1667,Madagascar,MG,MDG,Toliara,,20000.0,1450235896
Mandrosohasina,Mandrosohasina,-19.5833,47.1667,Madagascar,MG,MDG,Antananarivo,,20000.0,1450360215
Ambalakirajy,Ambalakirajy,-15.8333,48.5,Madagascar,MG,MDG,Mahajanga,,20000.0,1450763595
Rantabe,Rantabe,-15.7,49.65,Madagascar,MG,MDG,Toamasina,,20000.0,1450394708
Mandiavato,Mandiavato,-19.0833,47.0167,Madagascar,MG,MDG,Antananarivo,,20000.0,1450557492
Ambatosoratra,Ambatosoratra,-17.6167,48.5167,Madagascar,MG,MDG,Toamasina,,20000.0,1450886984
Antsampandrano,Antsampandrano,-19.5333,47.5833,Madagascar,MG,MDG,Antananarivo,,20000.0,1450604562
Tsararafa,Tsararafa,-22.7333,47.8167,Madagascar,MG,MDG,Fianarantsoa,,20000.0,1450899440
Analapatsy,Analapatsy,-24.25,47.2,Madagascar,MG,MDG,Toliara,,20000.0,1450179269
Tsarabaria,Tsarabaria,-13.75,49.95,Madagascar,MG,MDG,Antsiranana,,20000.0,1450130867
Soavina Antanety,Soavina Antanety,-19.8,46.7333,Madagascar,MG,MDG,Antananarivo,,20000.0,1450021851
Bekatra Maromiandra,Bekatra Maromiandra,-22.1,47.7167,Madagascar,MG,MDG,Fianarantsoa,,20000.0,1450240946
Vasiana,Vasiana,-19.6333,46.2333,Madagascar,MG,MDG,Antananarivo,,19992.0,1450035563
Ampefy,Ampefy,-19.0419,46.7328,Madagascar,MG,MDG,Antananarivo,,19949.0,1450915627
Doany,Doany,-14.3667,49.5167,Madagascar,MG,MDG,Antsiranana,,19928.0,1450623389
Nosy Varika,Nosy Varika,-20.5833,48.5333,Madagascar,MG,MDG,Fianarantsoa,,19787.0,1450317495
Andaingo Gara,Andaingo Gara,-18.2,48.2833,Madagascar,MG,MDG,Toamasina,,19656.0,1450562250
Gogogogo,Gogogogo,-24.2667,44.8,Madagascar,MG,MDG,Toliara,,19454.0,1450629172
Amboanana,Amboanana,-19.15,47.1667,Madagascar,MG,MDG,Antananarivo,,19217.0,1450418380
Ambatomirahavavy,Ambatomirahavavy,-18.9333,47.3833,Madagascar,MG,MDG,Antananarivo,,19163.0,1450466321
Ampanety,Ampanety,-18.975,47.4944,Madagascar,MG,MDG,Antananarivo,,19135.0,1450696660
Itaosy,Itaosy,-18.9167,47.4667,Madagascar,MG,MDG,Antananarivo,,19041.0,1450526917
Befandriana Atsimo,Befandriana Atsimo,-22.1,43.8833,Madagascar,MG,MDG,Toliara,,19000.0,1450758154
Anjahabe,Anjahabe,-16.3667,46.6167,Madagascar,MG,MDG,Mahajanga,,19000.0,1450925843
Ambalanirana,Ambalanirana,-18.75,46.5,Madagascar,MG,MDG,Antananarivo,,19000.0,1450592549
Ambatomena,Ambatomena,-19.85,47.25,Madagascar,MG,MDG,Antananarivo,,19000.0,1450833007
Mitsinjo,Mitsinjo,-16.0,45.8667,Madagascar,MG,MDG,Mahajanga,,19000.0,1450222035
Belamoty,Belamoty,-23.55,44.8,Madagascar,MG,MDG,Toliara,,19000.0,1450066289
Vohimasy,Vohimasy,-22.1,47.7833,Madagascar,MG,MDG,Fianarantsoa,,19000.0,1450885065
Ampataka,Ampataka,-23.35,47.4667,Madagascar,MG,MDG,Fianarantsoa,,19000.0,1450220197
Ifanirea,Ifanirea,-22.1833,47.4667,Madagascar,MG,MDG,Fianarantsoa,,19000.0,1450435831
Tanambe,Tanambe,-17.3667,48.45,Madagascar,MG,MDG,Toamasina,,19000.0,1450750659
Ambodinonoka,Ambodinonoka,-20.9833,47.8833,Madagascar,MG,MDG,Fianarantsoa,,19000.0,1450637374
Miarinavaratra,Miarinavaratra,-20.2167,47.5167,Madagascar,MG,MDG,Fianarantsoa,,19000.0,1450849602
Ambatosia,Ambatosia,-14.6667,48.65,Madagascar,MG,MDG,Mahajanga,,19000.0,1450014138
Mahazoarivo,Mahazoarivo,-22.3167,47.5833,Madagascar,MG,MDG,Fianarantsoa,,19000.0,1450077325
Manantenina,Manantenina,-24.2833,47.3167,Madagascar,MG,MDG,Toliara,,19000.0,1450085416
Bezaha,Bezaha,-23.5,44.5,Madagascar,MG,MDG,Toliara,,19000.0,1450987255
Ranomena,Ranomena,-23.4167,47.2667,Madagascar,MG,MDG,Fianarantsoa,,19000.0,1450229424
Fihaonana,Fihaonana,-18.6,47.2,Madagascar,MG,MDG,Antananarivo,,18846.0,1450022062
Antotohazo,Antotohazo,-18.4667,47.0833,Madagascar,MG,MDG,Antananarivo,,18774.0,1450165853
Tsivory,Tsivory,-24.0683,46.0756,Madagascar,MG,MDG,Toliara,,18694.0,1450216088
Antombana,Antombana,-15.0,50.1667,Madagascar,MG,MDG,Antsiranana,,18592.0,1450620743
Talata-Volonondry,Talata-Volonondry,-18.75,47.65,Madagascar,MG,MDG,Antananarivo,,18314.0,1450123818
Antanambao,Antanambao,-15.1667,50.3667,Madagascar,MG,MDG,Antsiranana,,18232.0,1450199403
Kiangara,Kiangara,-17.9667,47.0333,Madagascar,MG,MDG,Antananarivo,,18197.0,1450262091
Antsampanimahazo,Antsampanimahazo,-19.64,47.158,Madagascar,MG,MDG,Antananarivo,,18000.0,1450189710
Antanambe,Antanambe,-16.4333,49.85,Madagascar,MG,MDG,Toamasina,,18000.0,1450702701
Manampatrana,Manampatrana,-21.65,47.5833,Madagascar,MG,MDG,Fianarantsoa,,18000.0,1450823569
Alakamisy,Alakamisy,-20.2,47.3167,Madagascar,MG,MDG,Fianarantsoa,,18000.0,1450227437
Maroteza,Maroteza,-22.3,47.2,Madagascar,MG,MDG,Fianarantsoa,,18000.0,1450569140
Bemahatazana-Belobaka,Bemahatazana-Belobaka,-19.35,46.0,Madagascar,MG,MDG,Antananarivo,,18000.0,1450930842
Vohilengo,Vohilengo,-17.3,49.4167,Madagascar,MG,MDG,Toamasina,,18000.0,1450602843
Amboahangibe,Amboahangibe,-14.1333,49.8167,Madagascar,MG,MDG,Antsiranana,,18000.0,1450703164
Mahazoma,Mahazoma,-17.1667,46.5667,Madagascar,MG,MDG,Mahajanga,,18000.0,1450338910
Ambongo,Ambongo,-23.45,47.2667,Madagascar,MG,MDG,Fianarantsoa,,18000.0,1450621707
Alatsinainy Ialamarina,Alatsinainy Ialamarina,-21.5333,47.3,Madagascar,MG,MDG,Fianarantsoa,,18000.0,1450949627
Analaiva,Analaiva,-20.3333,44.5,Madagascar,MG,MDG,Toliara,,18000.0,1450809706
Maroaloka,Maroaloka,-25.1667,46.2,Madagascar,MG,MDG,Toliara,,18000.0,1450615223
Belobaka,Belobaka,-18.9833,45.6833,Madagascar,MG,MDG,Antananarivo,,18000.0,1450102483
Ankofa,Ankofa,-15.4,49.65,Madagascar,MG,MDG,Toamasina,,18000.0,1450855797
Matsakabanja,Matsakabanja,-15.9167,45.8333,Madagascar,MG,MDG,Mahajanga,,18000.0,1450113608
Ambovombe Afovoany,Ambovombe Afovoany,-20.7667,47.0833,Madagascar,MG,MDG,Fianarantsoa,,18000.0,1450912618
Tsianisiha,Tsianisiha,-22.9,43.5833,Madagascar,MG,MDG,Toliara,,18000.0,1450654837
Beantake,Beantake,-23.8,44.3,Madagascar,MG,MDG,Toliara,,18000.0,1450564654
Behenjy,Behenjy,-19.2,47.4833,Madagascar,MG,MDG,Antananarivo,,18000.0,1450616391
Tranoroa,Tranoroa,-24.7,45.0667,Madagascar,MG,MDG,Toliara,,18000.0,1450659939
Manambaro,Manambaro,-25.0333,46.8167,Madagascar,MG,MDG,Toliara,,17901.0,1450768903
Ambohitralanana,Ambohitralanana,-15.2333,50.45,Madagascar,MG,MDG,Antsiranana,,17850.0,1450680382
Fanandrana,Fanandrana,-18.1944,49.3792,Madagascar,MG,MDG,Toamasina,,17644.0,1450388677
Ambolomadinika,Ambolomadinika,-21.95,47.4333,Madagascar,MG,MDG,Fianarantsoa,,17616.0,1450992662
Morarano-Gara,Morarano-Gara,-18.71,48.27,Madagascar,MG,MDG,Toamasina,,17545.0,1450740976
Ambatolahy,Ambatolahy,-20.0,45.5333,Madagascar,MG,MDG,Toliara,,17482.0,1450548076
Anosiarivo,Anosiarivo,-19.9167,47.0333,Madagascar,MG,MDG,Antananarivo,,17423.0,1450015265
Betroka,Betroka,-23.2683,46.1044,Madagascar,MG,MDG,Toliara,,17327.0,1450282495
Ilaka Atsinanana,Ilaka Atsinanana,-19.5531,48.8408,Madagascar,MG,MDG,Toamasina,,17120.0,1450972250
