city,city_ascii,lat,lng,country,iso2,iso3,admin_name,capital,population,id
Casablanca,Casablanca,33.5333,-7.5833,Morocco,MA,MAR,Casablanca-Settat,admin,3499000.0,1504175315
Fès,Fes,34.0433,-5.0033,Morocco,MA,MAR,Fès-Meknès,admin,1112072.0,1504861997
Marrakech,Marrakech,31.63,-8.0089,Morocco,MA,MAR,Marrakech-Safi,admin,966987.0,1504172585
Tangier,Tangier,35.7767,-5.8039,Morocco,MA,MAR,Tanger-Tétouan-Al Hoceïma,admin,947952.0,1504861504
Sale,Sale,34.0333,-6.8,Morocco,MA,MAR,Rabat-Salé-Kénitra,,850403.0,1504989034
Rabat,Rabat,34.0209,-6.8416,Morocco,MA,MAR,Rabat-Salé-Kénitra,primary,572717.0,1504023252
Meknès,Meknes,33.895,-5.5547,Morocco,MA,MAR,Fès-Meknès,,520428.0,1504333193
Oujda-Angad,Oujda-Angad,34.6867,-1.9114,Morocco,MA,MAR,Oriental,admin,494252.0,1504891036
Kenitra,Kenitra,34.25,-6.5833,Morocco,MA,MAR,Rabat-Salé-Kénitra,,431282.0,1504534876
Agadir,Agadir,30.4333,-9.6,Morocco,MA,MAR,Souss-Massa,admin,421844.0,1504116858
Tétouan,Tetouan,35.5667,-5.3667,Morocco,MA,MAR,Tanger-Tétouan-Al Hoceïma,,380787.0,1504709141
Taourirt,Taourirt,34.4169,-2.885,Morocco,MA,MAR,Oriental,,321876.0,1504648957
Temara,Temara,33.9267,-6.9122,Morocco,MA,MAR,Rabat-Salé-Kénitra,,313510.0,1504016606
Safi,Safi,32.2833,-9.2333,Morocco,MA,MAR,Marrakech-Safi,,308508.0,1504000717
Khénifra,Khenifra,32.9394,-5.6675,Morocco,MA,MAR,Béni Mellal-Khénifra,,228567.0,1504143530
El Jadid,El Jadid,33.2333,-8.5,Morocco,MA,MAR,Casablanca-Settat,,220181.0,1504964063
Laâyoune,Laayoune,27.1536,-13.2033,Morocco,MA,MAR,Laâyoune-Sakia El Hamra,,217732.0,1504000319
Mohammedia,Mohammedia,33.6833,-7.3833,Morocco,MA,MAR,Casablanca-Settat,,208612.0,1504542634
Kouribga,Kouribga,32.8833,-6.9167,Morocco,MA,MAR,Béni Mellal-Khénifra,,196196.0,1504325928
Béni Mellal,Beni Mellal,32.3394,-6.3608,Morocco,MA,MAR,Béni Mellal-Khénifra,admin,192676.0,1504131639
Ait Melloul,Ait Melloul,30.3342,-9.4972,Morocco,MA,MAR,Souss-Massa,,171847.0,1504134516
Nador,Nador,35.1667,-2.9333,Morocco,MA,MAR,Oriental,,161726.0,1504811178
Taza,Taza,34.2167,-4.0167,Morocco,MA,MAR,Fès-Meknès,,148456.0,1504405154
Settat,Settat,33.0,-7.6167,Morocco,MA,MAR,Casablanca-Settat,,142250.0,1504720478
Barrechid,Barrechid,33.2667,-7.5833,Morocco,MA,MAR,Casablanca-Settat,,136634.0,1504194885
Al Khmissat,Al Khmissat,33.8167,-6.0667,Morocco,MA,MAR,Rabat-Salé-Kénitra,,131542.0,1504079907
Inezgane,Inezgane,30.3658,-9.5381,Morocco,MA,MAR,Souss-Massa,,130333.0,1504786674
Ksar El Kebir,Ksar El Kebir,35.009,-5.9,Morocco,MA,MAR,Tanger-Tétouan-Al Hoceïma,,126617.0,1504230428
My Drarga,My Drarga,30.38,-9.48,Morocco,MA,MAR,Souss-Massa,,126512.0,1504399163
Larache,Larache,35.1833,-6.15,Morocco,MA,MAR,Tanger-Tétouan-Al Hoceïma,,125008.0,1504637172
Guelmim,Guelmim,28.9833,-10.0667,Morocco,MA,MAR,Guelmim-Oued Noun,admin,118318.0,1504110861
Berkane,Berkane,34.9167,-2.3167,Morocco,MA,MAR,Oriental,,109237.0,1504282363
Ad Dakhla,Ad Dakhla,23.7081,-15.9456,Morocco,MA,MAR,Dakhla-Oued Ed-Dahab,,106277.0,1504999983
Bouskoura,Bouskoura,33.4489,-7.6486,Morocco,MA,MAR,Casablanca-Settat,,103026.0,1504503306
Al Fqih Ben Çalah,Al Fqih Ben Calah,32.5,-6.5333,Morocco,MA,MAR,Béni Mellal-Khénifra,,102019.0,1504975687
Oued Zem,Oued Zem,32.8667,-6.5667,Morocco,MA,MAR,Béni Mellal-Khénifra,,95267.0,1504098746
Sidi Slimane,Sidi Slimane,34.26,-5.92,Morocco,MA,MAR,Rabat-Salé-Kénitra,,92989.0,1504101128
Errachidia,Errachidia,31.9319,-4.4244,Morocco,MA,MAR,Drâa-Tafilalet,admin,92374.0,1504005759
Guercif,Guercif,34.2333,-3.3667,Morocco,MA,MAR,Oriental,,90880.0,1504842310
Oulad Teïma,Oulad Teima,30.4,-9.2167,Morocco,MA,MAR,Souss-Massa,,89387.0,1504278611
Ben Guerir,Ben Guerir,32.23,-7.95,Morocco,MA,MAR,Marrakech-Safi,,88626.0,1504909564
Wislane,Wislane,30.225,-8.3801,Morocco,MA,MAR,Souss-Massa,,87910.0,1504929490
Tiflet,Tiflet,33.8931,-6.3069,Morocco,MA,MAR,Rabat-Salé-Kénitra,,86709.0,1504661999
Lqoliaa,Lqoliaa,30.2908,-9.4661,Morocco,MA,MAR,Souss-Massa,,83235.0,1504675410
Taroudannt,Taroudannt,30.471,-8.8806,Morocco,MA,MAR,Souss-Massa,,80149.0,1504415764
Sefrou,Sefrou,33.83,-4.83,Morocco,MA,MAR,Fès-Meknès,,79887.0,1504820285
Essaouira,Essaouira,31.5131,-9.7697,Morocco,MA,MAR,Marrakech-Safi,,77966.0,1504845522
Fnidq,Fnidq,35.85,-5.35,Morocco,MA,MAR,Tanger-Tétouan-Al Hoceïma,,77436.0,1504670555
Ait Ali,Ait Ali,30.1765,-9.4886,Morocco,MA,MAR,Souss-Massa,,76646.0,1504009062
Sidi Qacem,Sidi Qacem,34.2167,-5.7,Morocco,MA,MAR,Rabat-Salé-Kénitra,,75672.0,1504300626
Tiznit,Tiznit,29.7167,-9.7167,Morocco,MA,MAR,Souss-Massa,,74699.0,1504399838
Moulay Abdallah,Moulay Abdallah,33.1978,-8.5883,Morocco,MA,MAR,Casablanca-Settat,,74671.0,1504563452
Tan-Tan,Tan-Tan,28.4333,-11.1,Morocco,MA,MAR,Guelmim-Oued Noun,,73209.0,1504164174
Warzat,Warzat,30.9167,-6.9167,Morocco,MA,MAR,Drâa-Tafilalet,,71067.0,1504381507
Youssoufia,Youssoufia,32.25,-8.5333,Morocco,MA,MAR,Marrakech-Safi,,67628.0,1504459034
Sa’ada,Sa'ada,31.621,-8.1303,Morocco,MA,MAR,Marrakech-Safi,,67086.0,1504926324
Martil,Martil,35.6167,-5.2667,Morocco,MA,MAR,Tanger-Tétouan-Al Hoceïma,,64355.0,1504341023
Aïn Harrouda,Ain Harrouda,33.6372,-7.4483,Morocco,MA,MAR,Casablanca-Settat,,62420.0,1504718611
Souq Sebt Oulad Nemma,Souq Sebt Oulad Nemma,32.2948,-6.7007,Morocco,MA,MAR,Béni Mellal-Khénifra,,60076.0,1504194496
Skhirate,Skhirate,33.85,-7.03,Morocco,MA,MAR,Rabat-Salé-Kénitra,,59775.0,1504664899
Ouezzane,Ouezzane,34.8,-5.5833,Morocco,MA,MAR,Tanger-Tétouan-Al Hoceïma,,59606.0,1504736892
Sidi Yahya Zaer,Sidi Yahya Zaer,33.7105,-6.8831,Morocco,MA,MAR,Rabat-Salé-Kénitra,,57790.0,1504365068
Benslimane,Benslimane,33.6167,-7.1167,Morocco,MA,MAR,Casablanca-Settat,,57101.0,1504790296
Semara,Semara,26.7394,-11.6703,Morocco,MA,MAR,Laâyoune-Sakia El Hamra,,57035.0,1504999984
Al Hoceïma,Al Hoceima,35.2472,-3.9322,Morocco,MA,MAR,Tanger-Tétouan-Al Hoceïma,,56716.0,1504990575
Beni Enzar,Beni Enzar,35.2667,-2.9333,Morocco,MA,MAR,Oriental,,56582.0,1504616684
M’diq,M'diq,35.6858,-5.3253,Morocco,MA,MAR,Tanger-Tétouan-Al Hoceïma,,56227.0,1504774869
Sidi Bennour,Sidi Bennour,32.65,-8.4333,Morocco,MA,MAR,Casablanca-Settat,,55815.0,1504893162
Midalt,Midalt,32.68,-4.73,Morocco,MA,MAR,Drâa-Tafilalet,,55304.0,1504279379
Douar Ain Chkef,Douar Ain Chkef,33.9619,-5.0813,Morocco,MA,MAR,Fès-Meknès,,54477.0,1504020762
Azrou,Azrou,33.4417,-5.2247,Morocco,MA,MAR,Fès-Meknès,,54350.0,1504585311
El Kelaa des Srarhna,El Kelaa des Srarhna,32.0481,-7.4083,Morocco,MA,MAR,Marrakech-Safi,,51404.0,1504846488
Ain El Aouda,Ain El Aouda,33.8111,-6.7922,Morocco,MA,MAR,Rabat-Salé-Kénitra,,49816.0,1504400263
Beni Yakhlef,Beni Yakhlef,33.6555,-7.3221,Morocco,MA,MAR,Casablanca-Settat,,48338.0,1504512130
Ad Darwa,Ad Darwa,33.4167,-7.5333,Morocco,MA,MAR,Casablanca-Settat,,47719.0,1504000451
Al Aaroui,Al Aaroui,35.0029,-3.0311,Morocco,MA,MAR,Oriental,,47599.0,1504779155
Qasbat Tadla,Qasbat Tadla,32.6,-6.2667,Morocco,MA,MAR,Béni Mellal-Khénifra,,47343.0,1504612704
Boujad,Boujad,32.7667,-6.4,Morocco,MA,MAR,Béni Mellal-Khénifra,,46893.0,1504259447
Tinajdad,Tinajdad,31.5,-5.0167,Morocco,MA,MAR,Drâa-Tafilalet,,43999.0,1504176217
Jerada,Jerada,34.3117,-2.1636,Morocco,MA,MAR,Oriental,,43506.0,1504230609
Douar Bni Malek,Douar Bni Malek,34.78,-5.6425,Morocco,MA,MAR,Tanger-Tétouan-Al Hoceïma,,43282.0,1504252777
Chefchaouene,Chefchaouene,35.1714,-5.2697,Morocco,MA,MAR,Tanger-Tétouan-Al Hoceïma,,42786.0,1504471687
Mrirt,Mrirt,33.1667,-5.5667,Morocco,MA,MAR,Béni Mellal-Khénifra,,42730.0,1504917091
Cabo Bojador,Cabo Bojador,26.1333,-14.5,Morocco,MA,MAR,Laâyoune-Sakia El Hamra,,42651.0,1504003884
Sidi Mohamed Lahmar,Sidi Mohamed Lahmar,34.7167,-6.2667,Morocco,MA,MAR,Rabat-Salé-Kénitra,,42637.0,1504538713
Tineghir,Tineghir,31.5147,-5.5328,Morocco,MA,MAR,Drâa-Tafilalet,,42044.0,1504760525
El Aïoun,El Aioun,34.5852,-2.5056,Morocco,MA,MAR,Oriental,,41832.0,1504312724
Azemmour,Azemmour,33.2878,-8.3422,Morocco,MA,MAR,Casablanca-Settat,,40920.0,1504675793
Temsia,Temsia,30.36,-9.414,Morocco,MA,MAR,Souss-Massa,,40780.0,1504419242
Zoumi,Zoumi,34.8,-5.35,Morocco,MA,MAR,Tanger-Tétouan-Al Hoceïma,,40661.0,1504309761
Douar Laouamra,Douar Laouamra,31.8,-8.7167,Morocco,MA,MAR,Marrakech-Safi,,40605.0,1504542773
Zagora,Zagora,30.3306,-5.8381,Morocco,MA,MAR,Drâa-Tafilalet,,40067.0,1504579638
Ait Ourir,Ait Ourir,31.5644,-7.6628,Morocco,MA,MAR,Marrakech-Safi,,39108.0,1504763448
Sidi Bibi,Sidi Bibi,30.2333,-9.5333,Morocco,MA,MAR,Souss-Massa,,39042.0,1504682772
Aziylal,Aziylal,31.9669,-6.5694,Morocco,MA,MAR,Béni Mellal-Khénifra,,38520.0,1504084050
Sidi Yahia El Gharb,Sidi Yahia El Gharb,34.3058,-6.3058,Morocco,MA,MAR,Rabat-Salé-Kénitra,,37979.0,1504994850
Biougra,Biougra,30.2144,-9.3708,Morocco,MA,MAR,Souss-Massa,,37933.0,1504630552
Taounate,Taounate,34.5358,-4.64,Morocco,MA,MAR,Fès-Meknès,,37616.0,1504565730
Bouznika,Bouznika,33.7897,-7.1575,Morocco,MA,MAR,Casablanca-Settat,,37238.0,1504766743
Aourir,Aourir,30.4833,-9.6333,Morocco,MA,MAR,Souss-Massa,,36948.0,1504616385
Zaïo,Zaio,34.9333,-2.7333,Morocco,MA,MAR,Oriental,,35806.0,1504831853
Aguelmous,Aguelmous,33.15,-5.8333,Morocco,MA,MAR,Béni Mellal-Khénifra,,35626.0,1504241696
El Hajeb,El Hajeb,33.6928,-5.3711,Morocco,MA,MAR,Fès-Meknès,,35282.0,1504718907
Dabouziya,Dabouziya,33.3064,-8.3548,Morocco,MA,MAR,Casablanca-Settat,,34607.0,1504001026
Mnasra,Mnasra,34.7667,-5.5167,Morocco,MA,MAR,Tanger-Tétouan-Al Hoceïma,,34429.0,1504815098
Zeghanghane,Zeghanghane,35.15,-3.0,Morocco,MA,MAR,Oriental,,34025.0,1504260154
Imzouren,Imzouren,35.15,-3.85,Morocco,MA,MAR,Tanger-Tétouan-Al Hoceïma,,33852.0,1504878608
Oulad Zemam,Oulad Zemam,32.35,-6.6333,Morocco,MA,MAR,Béni Mellal-Khénifra,,33652.0,1504396811
Ben Ahmed,Ben Ahmed,33.0655,-7.2464,Morocco,MA,MAR,Casablanca-Settat,,33105.0,1504202051
Tit Mellil,Tit Mellil,33.5533,-7.4822,Morocco,MA,MAR,Casablanca-Settat,,32782.0,1504892729
Arbaoua,Arbaoua,34.9,-5.9167,Morocco,MA,MAR,Rabat-Salé-Kénitra,,32690.0,1504079088
Douar Oulad Hssine,Douar Oulad Hssine,33.068,-8.5107,Morocco,MA,MAR,Casablanca-Settat,,32130.0,1504473203
Bahharet Oulad Ayyad,Bahharet Oulad Ayyad,34.7702,-6.3047,Morocco,MA,MAR,Rabat-Salé-Kénitra,,31860.0,1504139256
Mechraa Bel Ksiri,Mechraa Bel Ksiri,34.56,-5.95,Morocco,MA,MAR,Rabat-Salé-Kénitra,,31497.0,1504646910
Mograne,Mograne,34.4167,-6.4333,Morocco,MA,MAR,Rabat-Salé-Kénitra,,31292.0,1504174936
Dar Ould Zidouh,Dar Ould Zidouh,32.3167,-6.9,Morocco,MA,MAR,Béni Mellal-Khénifra,,31170.0,1504900512
Asilah,Asilah,35.4667,-6.0333,Morocco,MA,MAR,Tanger-Tétouan-Al Hoceïma,,31147.0,1504676037
Al ’Attawia,Al 'Attawia,31.8347,-7.3125,Morocco,MA,MAR,Marrakech-Safi,,30315.0,1504496327
Demnat,Demnat,31.7311,-7.0361,Morocco,MA,MAR,Béni Mellal-Khénifra,,29504.0,1504747424
Lalla Mimouna,Lalla Mimouna,34.85,-6.0669,Morocco,MA,MAR,Rabat-Salé-Kénitra,,29479.0,1504801532
Fritissa,Fritissa,33.6167,-3.55,Morocco,MA,MAR,Fès-Meknès,,29460.0,1504842954
Arfoud,Arfoud,31.4361,-4.2328,Morocco,MA,MAR,Drâa-Tafilalet,,29279.0,1504190665
Tameslouht,Tameslouht,31.5,-8.1,Morocco,MA,MAR,Marrakech-Safi,,28978.0,1504936367
Bou Arfa,Bou Arfa,32.5309,-1.965,Morocco,MA,MAR,Oriental,,28846.0,1504454457
Sidi Smai’il,Sidi Smai'il,32.8167,-8.5,Morocco,MA,MAR,Casablanca-Settat,,28733.0,1504182456
Taza,Taza,35.0639,-5.2025,Morocco,MA,MAR,Tanger-Tétouan-Al Hoceïma,,28713.0,1504253957
Souk et Tnine Jorf el Mellah,Souk et Tnine Jorf el Mellah,34.4833,-5.5169,Morocco,MA,MAR,Rabat-Salé-Kénitra,,28681.0,1504332951
Mehdya,Mehdya,34.2597,-6.65,Morocco,MA,MAR,Rabat-Salé-Kénitra,,28636.0,1504438304
Oulad Hammou,Oulad Hammou,33.2499,-8.3346,Morocco,MA,MAR,Casablanca-Settat,,28449.0,1504007795
Douar Oulad Aj-jabri,Douar Oulad Aj-jabri,32.2567,-6.7839,Morocco,MA,MAR,Béni Mellal-Khénifra,,28438.0,1504025075
Aïn Taoujdat,Ain Taoujdat,33.9333,-5.2167,Morocco,MA,MAR,Fès-Meknès,,28288.0,1504497923
Dar Bel Hamri,Dar Bel Hamri,34.1889,-5.9697,Morocco,MA,MAR,Rabat-Salé-Kénitra,,28156.0,1504221505
Chichaoua,Chichaoua,31.5333,-8.7667,Morocco,MA,MAR,Marrakech-Safi,,27869.0,1504125569
Tahla,Tahla,34.05,-4.42,Morocco,MA,MAR,Fès-Meknès,,27729.0,1504092591
Bellaa,Bellaa,30.0314,-9.5542,Morocco,MA,MAR,Souss-Massa,,27699.0,1504167169
Oulad Yaïch,Oulad Yaich,32.4167,-6.3333,Morocco,MA,MAR,Béni Mellal-Khénifra,,27476.0,1504233317
Ksebia,Ksebia,34.2933,-6.1594,Morocco,MA,MAR,Rabat-Salé-Kénitra,,27059.0,1504059620
Ourika Wawrmas,Ourika Wawrmas,30.7167,-6.5333,Morocco,MA,MAR,Drâa-Tafilalet,,26990.0,1504021700
Tamorot,Tamorot,34.9333,-4.7833,Morocco,MA,MAR,Tanger-Tétouan-Al Hoceïma,,26748.0,1504592587
Moulay Bousselham,Moulay Bousselham,34.8786,-6.2933,Morocco,MA,MAR,Rabat-Salé-Kénitra,,26608.0,1504188471
Iheddadene,Iheddadene,35.15,-2.9667,Morocco,MA,MAR,Oriental,,26582.0,1504836101
Sabaa Aiyoun,Sabaa Aiyoun,33.9,-5.3667,Morocco,MA,MAR,Fès-Meknès,,26277.0,1504462212
Bourdoud,Bourdoud,34.5922,-4.5492,Morocco,MA,MAR,Fès-Meknès,,26236.0,1504015338
Aït Faska,Ait Faska,31.5058,-7.7161,Morocco,MA,MAR,Marrakech-Safi,,26210.0,1504886930
Rich,Rich,32.2583,-4.5056,Morocco,MA,MAR,Drâa-Tafilalet,,25992.0,1504005566
Boureït,Boureit,34.9833,-4.9167,Morocco,MA,MAR,Tanger-Tétouan-Al Hoceïma,,25872.0,1504130214
Lamzoudia,Lamzoudia,31.5833,-8.4833,Morocco,MA,MAR,Marrakech-Safi,,25674.0,1504553058
Oulad Said,Oulad Said,32.632,-8.8456,Morocco,MA,MAR,Casablanca-Settat,,25650.0,1504360657
Missour,Missour,33.05,-3.9833,Morocco,MA,MAR,Fès-Meknès,,25584.0,1504694053
Ain Aicha,Ain Aicha,34.4833,-4.7,Morocco,MA,MAR,Fès-Meknès,,25417.0,1504818592
Zawyat ech Cheïkh,Zawyat ech Cheikh,32.6414,-5.9206,Morocco,MA,MAR,Béni Mellal-Khénifra,,25388.0,1504071186
Bouknadel,Bouknadel,34.1333,-6.7333,Morocco,MA,MAR,Rabat-Salé-Kénitra,,25255.0,1504368806
El Ghiate,El Ghiate,32.0331,-9.1625,Morocco,MA,MAR,Marrakech-Safi,,25162.0,1504222954
Safsaf,Safsaf,34.5581,-6.0078,Morocco,MA,MAR,Rabat-Salé-Kénitra,,25075.0,1504872939
Ouaoula,Ouaoula,31.8667,-6.75,Morocco,MA,MAR,Béni Mellal-Khénifra,,24790.0,1504340462
Douar Olad. Salem,Douar Olad. Salem,32.8739,-8.8588,Morocco,MA,MAR,Casablanca-Settat,,24775.0,1504813232
Oulad Tayeb,Oulad Tayeb,33.9598,-4.9954,Morocco,MA,MAR,Fès-Meknès,,24594.0,1504027412
Ain Dfali,Ain Dfali,34.599,-5.5488,Morocco,MA,MAR,Rabat-Salé-Kénitra,,24521.0,1504618863
Echemmaia Est,Echemmaia Est,32.0786,-8.6325,Morocco,MA,MAR,Marrakech-Safi,,24303.0,1504437117
Oulad Barhil,Oulad Barhil,30.6408,-8.475,Morocco,MA,MAR,Souss-Massa,,24288.0,1504160582
Douar ’Ayn Dfali,Douar 'Ayn Dfali,33.95,-4.45,Morocco,MA,MAR,Fès-Meknès,,24241.0,1504477105
Bir Jdid,Bir Jdid,33.3737,-8.0002,Morocco,MA,MAR,Casablanca-Settat,,24136.0,1504415482
Setti Fatma,Setti Fatma,31.2256,-7.6758,Morocco,MA,MAR,Marrakech-Safi,,24129.0,1504468462
Skoura,Skoura,31.0606,-6.5556,Morocco,MA,MAR,Drâa-Tafilalet,,24055.0,1504320897
Douar Ouled Ayad,Douar Ouled Ayad,32.2,-6.7975,Morocco,MA,MAR,Casablanca-Settat,,23818.0,1504223555
Zawyat an Nwaçer,Zawyat an Nwacer,33.3611,-7.6114,Morocco,MA,MAR,Casablanca-Settat,,23802.0,1504451401
Khenichet-sur Ouerrha,Khenichet-sur Ouerrha,34.4333,-5.6667,Morocco,MA,MAR,Rabat-Salé-Kénitra,,23707.0,1504817862
Ayt Mohamed,Ayt Mohamed,32.5667,-6.9833,Morocco,MA,MAR,Béni Mellal-Khénifra,,23696.0,1504703331
Gueznaia,Gueznaia,35.7066,-5.9088,Morocco,MA,MAR,Tanger-Tétouan-Al Hoceïma,,23601.0,1504255211
Oulad Hassoune,Oulad Hassoune,31.6503,-7.8361,Morocco,MA,MAR,Marrakech-Safi,,23475.0,1504841903
Bni Frassen,Bni Frassen,34.3833,-4.3833,Morocco,MA,MAR,Fès-Meknès,,23429.0,1504574079
Douar Imoukkane,Douar Imoukkane,35.0298,-4.8125,Morocco,MA,MAR,Tanger-Tétouan-Al Hoceïma,,23132.0,1504341644
Tnine Lgharbia,Tnine Lgharbia,32.5719,-8.8568,Morocco,MA,MAR,Casablanca-Settat,,23074.0,1504401185
Tighedouine,Tighedouine,31.4236,-7.5208,Morocco,MA,MAR,Marrakech-Safi,,22971.0,1504874700
Alnif,Alnif,31.1167,-5.1667,Morocco,MA,MAR,Drâa-Tafilalet,,22724.0,1504225472
Sidi Lmokhtar,Sidi Lmokhtar,31.57,-9.01,Morocco,MA,MAR,Marrakech-Safi,,22714.0,1504925399
Souk Tlet El Gharb,Souk Tlet El Gharb,34.6211,-6.1336,Morocco,MA,MAR,Rabat-Salé-Kénitra,,22554.0,1504595315
Arbi’a Tighadwiyn,Arbi'a Tighadwiyn,31.4279,-7.5253,Morocco,MA,MAR,Marrakech-Safi,,22353.0,1504625035
Had Oulad Issa,Had Oulad Issa,32.9519,-8.6982,Morocco,MA,MAR,Casablanca-Settat,,21779.0,1504891592
Tidili Masfiywat,Tidili Masfiywat,31.4667,-7.6167,Morocco,MA,MAR,Marrakech-Safi,,21706.0,1504563620
Sidi Ifni,Sidi Ifni,29.3833,-10.1667,Morocco,MA,MAR,Guelmim-Oued Noun,,21618.0,1504270532
Tamgrout,Tamgrout,30.2667,-5.6667,Morocco,MA,MAR,Drâa-Tafilalet,,21603.0,1504571275
Selouane,Selouane,35.0667,-2.9333,Morocco,MA,MAR,Oriental,,21570.0,1504039594
Amizmiz,Amizmiz,31.2167,-8.25,Morocco,MA,MAR,Marrakech-Safi,,21445.0,1504971543
Afourar,Afourar,32.2167,-6.5,Morocco,MA,MAR,Béni Mellal-Khénifra,,21382.0,1504710376
Asni,Asni,31.25,-7.9833,Morocco,MA,MAR,Marrakech-Safi,,21244.0,1504093117
Tabount,Tabount,30.88,-6.91,Morocco,MA,MAR,Drâa-Tafilalet,,21198.0,1504000158
Imi n’Oulaoun,Imi n'Oulaoun,31.4224,-6.5641,Morocco,MA,MAR,Drâa-Tafilalet,,21061.0,1504402350
Saka,Saka,34.6167,-3.4167,Morocco,MA,MAR,Oriental,,21048.0,1504711196
Bni Rzine,Bni Rzine,35.0108,-4.7262,Morocco,MA,MAR,Tanger-Tétouan-Al Hoceïma,,20904.0,1504313733
El Gara,El Gara,33.2819,-7.2319,Morocco,MA,MAR,Casablanca-Settat,,20855.0,1504734362
Sidi Abdelkader,Sidi Abdelkader,33.0494,-8.6886,Morocco,MA,MAR,Casablanca-Settat,,20854.0,1504001212
Imi-n-Tanout,Imi-n-Tanout,31.16,-8.85,Morocco,MA,MAR,Marrakech-Safi,,20837.0,1504593970
Sidi Chiker,Sidi Chiker,31.7453,-8.7069,Morocco,MA,MAR,Marrakech-Safi,,20658.0,1504682316
Sidi Rahal,Sidi Rahal,33.7897,-7.1575,Morocco,MA,MAR,Casablanca-Settat,,20628.0,1504637195
Station des Essais M.V.A.,Station des Essais M.V.A.,34.9352,-2.4306,Morocco,MA,MAR,Oriental,,20513.0,1504298109
Reçani,Recani,31.2859,-4.2751,Morocco,MA,MAR,Drâa-Tafilalet,,20469.0,1504410951
Aïn Cheggag,Ain Cheggag,33.8833,-5.0333,Morocco,MA,MAR,Fès-Meknès,,20456.0,1504540865
Sidi Jaber,Sidi Jaber,32.3833,-6.4167,Morocco,MA,MAR,Béni Mellal-Khénifra,,20432.0,1504230672
Jdour,Jdour,32.1269,-8.7633,Morocco,MA,MAR,Marrakech-Safi,,20239.0,1504892254
Douar Lamrabih,Douar Lamrabih,34.8167,-5.8167,Morocco,MA,MAR,Rabat-Salé-Kénitra,,20187.0,1504888923
El Ksiba,El Ksiba,32.5681,-6.0308,Morocco,MA,MAR,Béni Mellal-Khénifra,,20001.0,1504390061
Sidi Taibi,Sidi Taibi,34.1917,-6.6845,Morocco,MA,MAR,Rabat-Salé-Kénitra,,19979.0,1504376928
’Ali Ben Sliman,'Ali Ben Sliman,31.91,-7.21,Morocco,MA,MAR,Marrakech-Safi,,19977.0,1504127885
Tarhzirt,Tarhzirt,32.4333,-6.1833,Morocco,MA,MAR,Béni Mellal-Khénifra,,19936.0,1504643080
Aït Tamlil,Ait Tamlil,31.48,-6.94,Morocco,MA,MAR,Béni Mellal-Khénifra,,19930.0,1504250838
Had Zraqtane,Had Zraqtane,31.45,-7.4,Morocco,MA,MAR,Marrakech-Safi,,19926.0,1504613352
El Mansouria,El Mansouria,33.75,-7.3,Morocco,MA,MAR,Casablanca-Settat,,19853.0,1504714536
Oulad Embarek,Oulad Embarek,32.2833,-6.4667,Morocco,MA,MAR,Béni Mellal-Khénifra,,19774.0,1504452976
Oulad Fraj,Oulad Fraj,32.9667,-8.2333,Morocco,MA,MAR,Casablanca-Settat,,19752.0,1504478947
Jnane Bouih,Jnane Bouih,32.0308,-8.7894,Morocco,MA,MAR,Marrakech-Safi,,19706.0,1504889186
Ahfir,Ahfir,34.9514,-2.1025,Morocco,MA,MAR,Oriental,,19630.0,1504027251
Ait Bousarane,Ait Bousarane,31.7318,-7.0876,Morocco,MA,MAR,Béni Mellal-Khénifra,,19501.0,1504791291
Ait Bouziyane,Ait Bouziyane,33.8167,-5.2749,Morocco,MA,MAR,Fès-Meknès,,19501.0,1504248874
Oulad Salmane,Oulad Salmane,34.3356,-6.4604,Morocco,MA,MAR,Rabat-Salé-Kénitra,,19488.0,1504113014
Douar Ait Sidi Daoud,Douar Ait Sidi Daoud,31.6347,-7.6444,Morocco,MA,MAR,Marrakech-Safi,,19286.0,1504024368
Al Brouj,Al Brouj,32.505,-7.1927,Morocco,MA,MAR,Casablanca-Settat,,19235.0,1504448147
Sidi Redouane,Sidi Redouane,34.6833,-5.45,Morocco,MA,MAR,Tanger-Tétouan-Al Hoceïma,,19169.0,1504580531
Zaouïa Aït Ishak,Zaouia Ait Ishak,32.76,-5.7233,Morocco,MA,MAR,Béni Mellal-Khénifra,,19133.0,1504322304
Imouzzer Kandar,Imouzzer Kandar,33.73,-5.01,Morocco,MA,MAR,Fès-Meknès,,19125.0,1504932203
Douar Toulal,Douar Toulal,33.8951,-5.6021,Morocco,MA,MAR,Fès-Meknès,,19077.0,1504858900
Ait Ben Daoudi,Ait Ben Daoudi,31.6345,-7.644,Morocco,MA,MAR,Marrakech-Safi,,18976.0,1504718613
Beni Zouli,Beni Zouli,30.4839,-5.8619,Morocco,MA,MAR,Drâa-Tafilalet,,18941.0,1504549752
Oulmes,Oulmes,33.445,-6.0011,Morocco,MA,MAR,Rabat-Salé-Kénitra,,18786.0,1504050150
Karia Ba Mohamed,Karia Ba Mohamed,34.3667,-5.2,Morocco,MA,MAR,Fès-Meknès,,18762.0,1504442421
Tata,Tata,29.7428,-7.9725,Morocco,MA,MAR,Souss-Massa,,18611.0,1504497241
Jbabra,Jbabra,34.4314,-4.9642,Morocco,MA,MAR,Fès-Meknès,,18592.0,1504581289
Tamri,Tamri,30.695,-9.825,Morocco,MA,MAR,Souss-Massa,,18577.0,1504501049
Sebt Gzoula,Sebt Gzoula,32.1167,-9.0833,Morocco,MA,MAR,Marrakech-Safi,,18543.0,1504003595
Chouafa,Chouafa,34.9468,-6.1667,Morocco,MA,MAR,Rabat-Salé-Kénitra,,18436.0,1504440228
Foum el Anser,Foum el Anser,32.3718,-6.2613,Morocco,MA,MAR,Béni Mellal-Khénifra,,18412.0,1504049816
Assa,Assa,28.6086,-9.4269,Morocco,MA,MAR,Guelmim-Oued Noun,,18367.0,1504311835
Lamrasla,Lamrasla,32.0247,-8.9153,Morocco,MA,MAR,Marrakech-Safi,,18335.0,1504000483
Aït Bouchta,Ait Bouchta,35.1056,-3.8503,Morocco,MA,MAR,Tanger-Tétouan-Al Hoceïma,,18271.0,1504367001
Bni Bouayach,Bni Bouayach,35.0986,-3.8397,Morocco,MA,MAR,Tanger-Tétouan-Al Hoceïma,,18271.0,1504579713
Ikniwn,Ikniwn,31.1736,-5.6733,Morocco,MA,MAR,Drâa-Tafilalet,,18235.0,1504281850
Bouarouss,Bouarouss,34.3667,-4.8167,Morocco,MA,MAR,Fès-Meknès,,18147.0,1504643537
Ghouazi,Ghouazi,34.4667,-5.3,Morocco,MA,MAR,Fès-Meknès,,18081.0,1504717727
Sidi Allal Tazi,Sidi Allal Tazi,34.5197,-6.3236,Morocco,MA,MAR,Rabat-Salé-Kénitra,,18055.0,1504240446
Douar Oulad Mbarek,Douar Oulad Mbarek,34.2833,-4.3167,Morocco,MA,MAR,Fès-Meknès,,17747.0,1504643299
Laatatra,Laatatra,32.6315,-8.4148,Morocco,MA,MAR,Casablanca-Settat,,17593.0,1504800245
Aït Majdane,Ait Majdane,31.8514,-6.9658,Morocco,MA,MAR,Béni Mellal-Khénifra,,17572.0,1504617199
Sahel,Sahel,34.9667,-4.55,Morocco,MA,MAR,Tanger-Tétouan-Al Hoceïma,,17496.0,1504781617
Dar Chaifat,Dar Chaifat,32.55,-7.5,Morocco,MA,MAR,Casablanca-Settat,,17454.0,1504290821
Awlouz,Awlouz,30.7,-8.15,Morocco,MA,MAR,Souss-Massa,,17409.0,1504521135
Milla’ab,Milla'ab,31.4737,-4.7424,Morocco,MA,MAR,Drâa-Tafilalet,,17360.0,1504537795
Ketama,Ketama,34.9158,-4.5686,Morocco,MA,MAR,Tanger-Tétouan-Al Hoceïma,,17351.0,1504947642
Galaz,Galaz,34.55,-4.8,Morocco,MA,MAR,Fès-Meknès,,17333.0,1504676326
Chouafaa,Chouafaa,34.7667,-6.05,Morocco,MA,MAR,Rabat-Salé-Kénitra,,17202.0,1504441282
Tagounite,Tagounite,29.9585,-5.9151,Morocco,MA,MAR,Drâa-Tafilalet,,17103.0,1504500189
Sidi Yakoub,Sidi Yakoub,31.6667,-7.0667,Morocco,MA,MAR,Béni Mellal-Khénifra,,17054.0,1504968095
Knemis Dades,Knemis Dades,31.309,-6.028,Morocco,MA,MAR,Drâa-Tafilalet,,17045.0,1504000136
Oulad Amrane,Oulad Amrane,32.2833,-9.2333,Morocco,MA,MAR,Marrakech-Safi,,16979.0,1504791859
Qal’at Mgouna,Qal'at Mgouna,31.2414,-6.1283,Morocco,MA,MAR,Drâa-Tafilalet,,16956.0,1504989758
Douar Lamjaara,Douar Lamjaara,34.6147,-5.2887,Morocco,MA,MAR,Tanger-Tétouan-Al Hoceïma,,16899.0,1504061051
Ratba,Ratba,34.7833,-4.9333,Morocco,MA,MAR,Fès-Meknès,,16825.0,1504991654
Sidi Lamine,Sidi Lamine,32.9,-6.05,Morocco,MA,MAR,Béni Mellal-Khénifra,,16808.0,1504670404
Ouaouzgane,Ouaouzgane,35.0167,-4.5167,Morocco,MA,MAR,Tanger-Tétouan-Al Hoceïma,,16772.0,1504425512
Ribat Al Khayr,Ribat Al Khayr,33.82,-4.41,Morocco,MA,MAR,Fès-Meknès,,16739.0,1504387842
Agourai,Agourai,33.6333,-5.5833,Morocco,MA,MAR,Fès-Meknès,,16651.0,1504734608
Sidi Ettiji,Sidi Ettiji,32.1717,-8.8686,Morocco,MA,MAR,Marrakech-Safi,,16649.0,1504984837
Douar Tabouda,Douar Tabouda,34.7167,-5.1333,Morocco,MA,MAR,Fès-Meknès,,16618.0,1504107473
Zirara,Zirara,32.35,-8.5333,Morocco,MA,MAR,Casablanca-Settat,,16606.0,1504681558
Mensora,Mensora,34.8356,-4.9655,Morocco,MA,MAR,Tanger-Tétouan-Al Hoceïma,,16559.0,1504316721
Tamallalt,Tamallalt,31.8289,-7.5261,Morocco,MA,MAR,Marrakech-Safi,,16539.0,1504009378
Goulmima,Goulmima,31.6944,-4.9592,Morocco,MA,MAR,Drâa-Tafilalet,,16419.0,1504139417
Outat Oulad Al Haj,Outat Oulad Al Haj,33.3333,-3.6833,Morocco,MA,MAR,Fès-Meknès,,16388.0,1504806480
Sebt Aït Saghiouchen,Sebt Ait Saghiouchen,34.0122,-4.5536,Morocco,MA,MAR,Fès-Meknès,,16362.0,1504600750
’Ayn Bni Mathar,'Ayn Bni Mathar,34.0889,-2.0247,Morocco,MA,MAR,Oriental,,16289.0,1504845272
Timezgana,Timezgana,34.5833,-4.7333,Morocco,MA,MAR,Fès-Meknès,,16172.0,1504420273
Talsint,Talsint,32.5398,-3.4408,Morocco,MA,MAR,Oriental,,16166.0,1504691780
Al Qbab,Al Qbab,32.7333,-5.5167,Morocco,MA,MAR,Béni Mellal-Khénifra,,16157.0,1504689479
Bni Tajjit,Bni Tajjit,32.2833,-3.4833,Morocco,MA,MAR,Oriental,,16149.0,1504670713
Zegzel,Zegzel,34.8407,-2.3543,Morocco,MA,MAR,Oriental,,16137.0,1504844688
Douar Azla,Douar Azla,35.5564,-5.2453,Morocco,MA,MAR,Tanger-Tétouan-Al Hoceïma,,16128.0,1504601982
Masmouda,Masmouda,34.7862,-5.7078,Morocco,MA,MAR,Tanger-Tétouan-Al Hoceïma,,16106.0,1504193768
Ait Yaazem,Ait Yaazem,33.7333,-5.5833,Morocco,MA,MAR,Fès-Meknès,,16091.0,1504697698
Bouchabel,Bouchabel,34.3833,-5.0167,Morocco,MA,MAR,Fès-Meknès,,16084.0,1504000782
Bni Quolla,Bni Quolla,34.738,-5.5441,Morocco,MA,MAR,Tanger-Tétouan-Al Hoceïma,,16049.0,1504770766
Bou Djeniba,Bou Djeniba,32.9,-6.7833,Morocco,MA,MAR,Béni Mellal-Khénifra,,16030.0,1504676510
Khat Azakane,Khat Azakane,32.2226,-9.1343,Morocco,MA,MAR,Marrakech-Safi,,16014.0,1504377421
Sidi Azzouz,Sidi Azzouz,31.7667,-7.6667,Morocco,MA,MAR,Marrakech-Safi,,16001.0,1504893148
Zemrane,Zemrane,31.67,-7.44,Morocco,MA,MAR,Marrakech-Safi,,15996.0,1504983059
Caidat Sidi Boubker El Haj,Caidat Sidi Boubker El Haj,34.9148,-6.0735,Morocco,MA,MAR,Rabat-Salé-Kénitra,,15990.0,1504131696
L’Oulja,L'Oulja,34.2894,-4.9481,Morocco,MA,MAR,Fès-Meknès,,15956.0,1504438935
Ras el Oued,Ras el Oued,34.15,-4.0,Morocco,MA,MAR,Fès-Meknès,,15949.0,1504000629
Haddada,Haddada,34.2236,-6.5111,Morocco,MA,MAR,Rabat-Salé-Kénitra,,15898.0,1504933242
Sidi Allal el Bahraoui,Sidi Allal el Bahraoui,33.983,-6.417,Morocco,MA,MAR,Rabat-Salé-Kénitra,,15866.0,1504503519
Tamazouzt,Tamazouzt,31.3833,-8.3833,Morocco,MA,MAR,Marrakech-Safi,,15846.0,1504120032
Ras El Oued,Ras El Oued,34.339,-4.5558,Morocco,MA,MAR,Fès-Meknès,,15778.0,1504323676
Aïn Mediouna,Ain Mediouna,34.5,-4.55,Morocco,MA,MAR,Fès-Meknès,,15770.0,1504603767
Sebt Bni Smith,Sebt Bni Smith,35.1373,-4.7107,Morocco,MA,MAR,Tanger-Tétouan-Al Hoceïma,,15577.0,1504877940
Skhour Rehamna,Skhour Rehamna,32.4833,-7.9167,Morocco,MA,MAR,Marrakech-Safi,,15479.0,1504150525
Al Hammam,Al Hammam,33.1868,-5.6225,Morocco,MA,MAR,Béni Mellal-Khénifra,,15438.0,1504972770
Ezzhiliga,Ezzhiliga,33.3,-6.5333,Morocco,MA,MAR,Rabat-Salé-Kénitra,,15430.0,1504882785
Anazzou,Anazzou,30.6333,-8.05,Morocco,MA,MAR,Souss-Massa,,15429.0,1504693352
Tendrara,Tendrara,33.05,-2.0,Morocco,MA,MAR,Oriental,,15390.0,1504340310
Aç-çahrij,Ac-cahrij,31.8,-7.14,Morocco,MA,MAR,Marrakech-Safi,,15385.0,1504655221
Moul El Bergui,Moul El Bergui,32.5113,-8.9849,Morocco,MA,MAR,Marrakech-Safi,,15342.0,1504152809
Aïn Jemaa,Ain Jemaa,34.0333,-5.8,Morocco,MA,MAR,Fès-Meknès,,15265.0,1504158964
Tazert,Tazert,31.6597,-7.4092,Morocco,MA,MAR,Marrakech-Safi,,15243.0,1504394144
Souk Et-Tleta des Oulad Hamdane,Souk Et-Tleta des Oulad Hamdane,33.1047,-8.2495,Morocco,MA,MAR,Casablanca-Settat,,15205.0,1504163979
Tirhassaline,Tirhassaline,32.7833,-5.65,Morocco,MA,MAR,Béni Mellal-Khénifra,,15204.0,1504798306
Douar El Arbaa Bou Quorra,Douar El Arbaa Bou Quorra,34.749,-5.1982,Morocco,MA,MAR,Tanger-Tétouan-Al Hoceïma,,15165.0,1504563622
Oulad Bou Rahmoun,Oulad Bou Rahmoun,32.2954,-6.6668,Morocco,MA,MAR,Béni Mellal-Khénifra,,15113.0,1504264037
Mellila,Mellila,33.3833,-7.1333,Morocco,MA,MAR,Casablanca-Settat,,15081.0,1504008725
Sabbah,Sabbah,33.8036,-7.0372,Morocco,MA,MAR,Rabat-Salé-Kénitra,,15029.0,1504883472
Midar,Midar,34.95,-3.5333,Morocco,MA,MAR,Oriental,,15021.0,1504267844
Esbiaat,Esbiaat,32.2044,-8.5608,Morocco,MA,MAR,Marrakech-Safi,,14986.0,1504764211
Douar Souk L‘qolla,Douar Souk L`qolla,35.0718,-5.5702,Morocco,MA,MAR,Tanger-Tétouan-Al Hoceïma,,14965.0,1504031338
Tabant,Tabant,31.6581,-6.42,Morocco,MA,MAR,Béni Mellal-Khénifra,,14963.0,1504160916
’Tlat Bni Oukil,'Tlat Bni Oukil,32.577,-6.84,Morocco,MA,MAR,Béni Mellal-Khénifra,,14960.0,1504789319
Sidi Zouine,Sidi Zouine,31.6706,-8.3508,Morocco,MA,MAR,Marrakech-Safi,,14954.0,1504333871
Oued Jdida,Oued Jdida,33.9333,-5.3667,Morocco,MA,MAR,Fès-Meknès,,14935.0,1504052620
Gourrama,Gourrama,32.3333,-4.0833,Morocco,MA,MAR,Drâa-Tafilalet,,14927.0,1504780592
Aghbal,Aghbal,34.9394,-2.1272,Morocco,MA,MAR,Oriental,,14908.0,1504000927
Nzalat Laadam,Nzalat Laadam,32.1,-7.95,Morocco,MA,MAR,Marrakech-Safi,,14838.0,1504318940
Ighrem n’Ougdal,Ighrem n'Ougdal,31.2333,-7.4333,Morocco,MA,MAR,Drâa-Tafilalet,,14804.0,1504078159
Bni Darkoul,Bni Darkoul,35.0563,-5.0688,Morocco,MA,MAR,Tanger-Tétouan-Al Hoceïma,,14779.0,1504747977
Driouch,Driouch,34.9833,-3.3833,Morocco,MA,MAR,Oriental,,14741.0,1504125393
Douar Oulad Driss,Douar Oulad Driss,31.9039,-8.3024,Morocco,MA,MAR,Marrakech-Safi,,14716.0,1504141138
Oulad Driss,Oulad Driss,31.9996,-8.2276,Morocco,MA,MAR,Marrakech-Safi,,14716.0,1504026756
Mediouna,Mediouna,33.45,-7.51,Morocco,MA,MAR,Casablanca-Settat,,14712.0,1504371270
Ifrane,Ifrane,33.5333,-5.1167,Morocco,MA,MAR,Fès-Meknès,,14659.0,1504656119
Wawizaght,Wawizaght,32.1586,-6.355,Morocco,MA,MAR,Béni Mellal-Khénifra,,14570.0,1504619132
Ayt ’Attou ou L’Arbi,Ayt 'Attou ou L'Arbi,31.5456,-8.2967,Morocco,MA,MAR,Marrakech-Safi,,14544.0,1504796196
Madagh,Madagh,35.0133,-2.3397,Morocco,MA,MAR,Oriental,,14486.0,1504000835
Boula’wane,Boula'wane,32.8607,-8.053,Morocco,MA,MAR,Casablanca-Settat,,14485.0,1504484491
Tagalft,Tagalft,32.2389,-6.1238,Morocco,MA,MAR,Béni Mellal-Khénifra,,14423.0,1504338163
Ourtzagh,Ourtzagh,34.55,-4.9333,Morocco,MA,MAR,Fès-Meknès,,14381.0,1504945412
Sidi Azzouz,Sidi Azzouz,34.5411,-5.7516,Morocco,MA,MAR,Rabat-Salé-Kénitra,,14356.0,1504816748
Zaouiat Moulay Bouchta El Khammar,Zaouiat Moulay Bouchta El Khammar,34.4833,-5.1167,Morocco,MA,MAR,Fès-Meknès,,14347.0,1504234234
Ihaddadene,Ihaddadene,31.2,-9.65,Morocco,MA,MAR,Marrakech-Safi,,14345.0,1504932139
Ait Yazza,Ait Yazza,30.5063,-8.7931,Morocco,MA,MAR,Souss-Massa,,14259.0,1504675685
Ben Taieb,Ben Taieb,35.0837,-3.4696,Morocco,MA,MAR,Oriental,,14257.0,1504783487
Tafrant,Tafrant,34.625,-5.1242,Morocco,MA,MAR,Fès-Meknès,,14246.0,1504722056
Bou Izakarn,Bou Izakarn,29.1667,-9.7333,Morocco,MA,MAR,Guelmim-Oued Noun,,14228.0,1504787076
Douar Hammadi,Douar Hammadi,31.609,-8.4604,Morocco,MA,MAR,Marrakech-Safi,,14227.0,1504604687
Bezou,Bezou,32.0833,-7.05,Morocco,MA,MAR,Béni Mellal-Khénifra,,14072.0,1504408285
Talwat,Talwat,31.2883,-7.2372,Morocco,MA,MAR,Drâa-Tafilalet,,14060.0,1504140319
Sidi Abdelkarim,Sidi Abdelkarim,33.1869,-7.2333,Morocco,MA,MAR,Casablanca-Settat,,14037.0,1504411270
Temsamane,Temsamane,35.1167,-3.6333,Morocco,MA,MAR,Oriental,,13920.0,1504304960
Oulad Chikh,Oulad Chikh,32.8544,-7.5386,Morocco,MA,MAR,Casablanca-Settat,,13866.0,1504262708
Toulal,Toulal,32.3036,-3.9861,Morocco,MA,MAR,Drâa-Tafilalet,,13852.0,1504925224
Khmis Sidi al ’Aydi,Khmis Sidi al 'Aydi,33.1228,-7.6219,Morocco,MA,MAR,Casablanca-Settat,,13839.0,1504059482
Arbaa Laaounate,Arbaa Laaounate,32.7446,-8.1942,Morocco,MA,MAR,Casablanca-Settat,,13793.0,1504711140
Douar Lehgagcha,Douar Lehgagcha,32.55,-8.7167,Morocco,MA,MAR,Casablanca-Settat,,13748.0,1504017254
Mqam at Tolba,Mqam at Tolba,34.0173,-6.25,Morocco,MA,MAR,Rabat-Salé-Kénitra,,13503.0,1504020296
Targuist,Targuist,34.95,-4.3,Morocco,MA,MAR,Tanger-Tétouan-Al Hoceïma,,13390.0,1504459578
Kissane Ltouqi,Kissane Ltouqi,34.6,-5.0833,Morocco,MA,MAR,Fès-Meknès,,13390.0,1504247609
Tounfit,Tounfit,32.4667,-5.2333,Morocco,MA,MAR,Drâa-Tafilalet,,13297.0,1504650500
Reggada,Reggada,29.5205,-9.6664,Morocco,MA,MAR,Souss-Massa,,13284.0,1504921230
Sebt Labrikiyne,Sebt Labrikiyne,32.2944,-8.0722,Morocco,MA,MAR,Marrakech-Safi,,13225.0,1504100244
El Kansera,El Kansera,34.0419,-5.9272,Morocco,MA,MAR,Rabat-Salé-Kénitra,,13209.0,1504142817
Douar Sidi Laaroussi,Douar Sidi Laaroussi,31.845,-9.1586,Morocco,MA,MAR,Marrakech-Safi,,13202.0,1504954714
Zayda,Zayda,32.8167,-4.95,Morocco,MA,MAR,Drâa-Tafilalet,,13181.0,1504467977
Asjen,Asjen,34.85,-5.6167,Morocco,MA,MAR,Tanger-Tétouan-Al Hoceïma,,13139.0,1504066835
Bhalil,Bhalil,33.85,-4.8667,Morocco,MA,MAR,Fès-Meknès,,12997.0,1504827842
Ksar Sghir,Ksar Sghir,35.8419,-5.5586,Morocco,MA,MAR,Tanger-Tétouan-Al Hoceïma,,12997.0,1504919377
Sebt Bni Garfett,Sebt Bni Garfett,35.25,-5.8333,Morocco,MA,MAR,Tanger-Tétouan-Al Hoceïma,,12994.0,1504641834
Bou Fekrane,Bou Fekrane,33.7667,-5.4833,Morocco,MA,MAR,Fès-Meknès,,12941.0,1504146532
Bni Khloug,Bni Khloug,32.65,-7.3833,Morocco,MA,MAR,Casablanca-Settat,,12930.0,1504624308
Douar Oulad Youssef,Douar Oulad Youssef,32.4807,-6.3769,Morocco,MA,MAR,Béni Mellal-Khénifra,,12804.0,1504001351
Kasba Tanora,Kasba Tanora,32.4751,-6.1498,Morocco,MA,MAR,Béni Mellal-Khénifra,,12783.0,1504367360
Aghbala,Aghbala,32.4833,-5.6333,Morocco,MA,MAR,Béni Mellal-Khénifra,,12781.0,1504000722
Tizgane,Tizgane,35.4136,-5.0696,Morocco,MA,MAR,Tanger-Tétouan-Al Hoceïma,,12773.0,1504806808
Zag,Zag,28.0167,-9.3333,Morocco,MA,MAR,Guelmim-Oued Noun,,12763.0,1504746689
Oulad Rahmoun,Oulad Rahmoun,32.3278,-6.5006,Morocco,MA,MAR,Béni Mellal-Khénifra,,12720.0,1504810043
Laamarna,Laamarna,31.8944,-8.9842,Morocco,MA,MAR,Marrakech-Safi,,12717.0,1504140780
Bou Adel,Bou Adel,34.5428,-4.5075,Morocco,MA,MAR,Fès-Meknès,,12684.0,1504793576
Aït Youssef Ou Ali,Ait Youssef Ou Ali,31.9833,-5.7833,Morocco,MA,MAR,Drâa-Tafilalet,,12673.0,1504087117
Ahermoumou,Ahermoumou,33.8184,-4.4106,Morocco,MA,MAR,Fès-Meknès,,12654.0,1504332158
El Menzel,El Menzel,33.8389,-4.5458,Morocco,MA,MAR,Fès-Meknès,,12641.0,1504965368
Souakene,Souakene,35.1167,-5.95,Morocco,MA,MAR,Tanger-Tétouan-Al Hoceïma,,12632.0,1504734379
Teroual,Teroual,34.6667,-5.2667,Morocco,MA,MAR,Tanger-Tétouan-Al Hoceïma,,12621.0,1504418024
Tamsaout,Tamsaout,29.5333,-8.85,Morocco,MA,MAR,Souss-Massa,,12610.0,1504846802
Oulad Ouchchih,Oulad Ouchchih,35.0939,-5.9454,Morocco,MA,MAR,Tanger-Tétouan-Al Hoceïma,,12608.0,1504064976
Ounagha,Ounagha,31.5333,-9.55,Morocco,MA,MAR,Marrakech-Safi,,12461.0,1504589161
Boumia,Boumia,32.7228,-5.1053,Morocco,MA,MAR,Drâa-Tafilalet,,12444.0,1504947716
Oulad Fares,Oulad Fares,35.5167,-5.9333,Morocco,MA,MAR,Tanger-Tétouan-Al Hoceïma,,12341.0,1504046403
Oulad Aïssa,Oulad Aissa,30.558,-8.614,Morocco,MA,MAR,Souss-Massa,,12331.0,1504718030
Jaidte Lbatma,Jaidte Lbatma,31.6806,-7.7281,Morocco,MA,MAR,Marrakech-Safi,,12330.0,1504017587
Boumalne,Boumalne,31.4236,-6.0722,Morocco,MA,MAR,Drâa-Tafilalet,,12328.0,1504840361
Nkheila,Nkheila,32.9239,-7.0692,Morocco,MA,MAR,Casablanca-Settat,,12306.0,1504638850
Aj Jourf,Aj Jourf,31.4903,-4.4014,Morocco,MA,MAR,Drâa-Tafilalet,,12302.0,1504982069
Ar Rommani,Ar Rommani,33.5333,-6.6167,Morocco,MA,MAR,Rabat-Salé-Kénitra,,12297.0,1504782261
Ain Kansara,Ain Kansara,34.15,-4.8314,Morocco,MA,MAR,Fès-Meknès,,12291.0,1504724133
Guisser,Guisser,32.7667,-7.5,Morocco,MA,MAR,Casablanca-Settat,,12289.0,1504348253
Gharbia,Gharbia,35.5153,-5.9306,Morocco,MA,MAR,Tanger-Tétouan-Al Hoceïma,,12274.0,1504656773
Oulad Hamdane,Oulad Hamdane,32.3736,-8.5395,Morocco,MA,MAR,Marrakech-Safi,,12252.0,1504871479
Malloussa,Malloussa,35.7333,-5.6333,Morocco,MA,MAR,Tanger-Tétouan-Al Hoceïma,,12250.0,1504867364
Tahannawt,Tahannawt,31.3514,-7.9508,Morocco,MA,MAR,Marrakech-Safi,,12102.0,1504266057
Mayate,Mayate,32.2667,-7.5167,Morocco,MA,MAR,Marrakech-Safi,,12101.0,1504516626
Steha,Steha,35.3646,-4.9306,Morocco,MA,MAR,Tanger-Tétouan-Al Hoceïma,,12034.0,1504350850
Al Fayd,Al Fayd,30.6167,-8.2167,Morocco,MA,MAR,Souss-Massa,,12011.0,1504770478
Oulad Daoud,Oulad Daoud,34.4058,-4.6939,Morocco,MA,MAR,Fès-Meknès,,11978.0,1504977021
Ain Beida,Ain Beida,31.585,-8.608,Morocco,MA,MAR,Marrakech-Safi,,11978.0,1504673651
Souq Jamaa Fdalate,Souq Jamaa Fdalate,33.5911,-7.2792,Morocco,MA,MAR,Casablanca-Settat,,11966.0,1504280232
Sidi Yahia,Sidi Yahia,30.4969,-8.8211,Morocco,MA,MAR,Souss-Massa,,11955.0,1504503193
Aït I’yach,Ait I'yach,32.6667,-4.9556,Morocco,MA,MAR,Drâa-Tafilalet,,11946.0,1504002583
Matmata,Matmata,34.1,-4.55,Morocco,MA,MAR,Fès-Meknès,,11928.0,1504966128
Tizi Nisly,Tizi Nisly,32.4667,-5.7667,Morocco,MA,MAR,Béni Mellal-Khénifra,,11918.0,1504779871
Zemamra,Zemamra,32.6215,-8.7023,Morocco,MA,MAR,Casablanca-Settat,,11896.0,1504256384
Oulad Amrane el Mekki,Oulad Amrane el Mekki,35.2167,-5.9667,Morocco,MA,MAR,Tanger-Tétouan-Al Hoceïma,,11866.0,1504220156
El Arba Des Bir Lenni,El Arba Des Bir Lenni,34.3272,-4.2039,Morocco,MA,MAR,Fès-Meknès,,11866.0,1504816982
Tiddas,Tiddas,33.5665,-6.2659,Morocco,MA,MAR,Rabat-Salé-Kénitra,,11831.0,1504837627
Toualet,Toualet,32.7333,-7.1833,Morocco,MA,MAR,Casablanca-Settat,,11815.0,1504141379
Sidi Amer El Hadi,Sidi Amer El Hadi,34.7992,-5.8394,Morocco,MA,MAR,Rabat-Salé-Kénitra,,11814.0,1504103648
Tifni,Tifni,31.6281,-6.9444,Morocco,MA,MAR,Béni Mellal-Khénifra,,11760.0,1504629455
Tamezmout,Tamezmout,30.8075,-6.1142,Morocco,MA,MAR,Drâa-Tafilalet,,11697.0,1504920011
Moulay Driss Zerhoun,Moulay Driss Zerhoun,34.0542,-5.5272,Morocco,MA,MAR,Fès-Meknès,,11615.0,1504880171
Oulad Friha,Oulad Friha,32.6108,-7.625,Morocco,MA,MAR,Casablanca-Settat,,11581.0,1504629949
Oulad Hamdane,Oulad Hamdane,32.3333,-6.3667,Morocco,MA,MAR,Béni Mellal-Khénifra,,11577.0,1504839995
Derdara,Derdara,35.1103,-5.2872,Morocco,MA,MAR,Tanger-Tétouan-Al Hoceïma,,11547.0,1504274445
Sidi Kasem,Sidi Kasem,35.5339,-5.2183,Morocco,MA,MAR,Tanger-Tétouan-Al Hoceïma,,11537.0,1504343854
Taïneste,Taineste,34.5573,-4.136,Morocco,MA,MAR,Fès-Meknès,,11530.0,1504640576
Al M’aziz,Al M'aziz,33.6667,-6.3167,Morocco,MA,MAR,Rabat-Salé-Kénitra,,11502.0,1504103308
Dzouz,Dzouz,31.89,-7.32,Morocco,MA,MAR,Marrakech-Safi,,11501.0,1504484074
Bouabout,Bouabout,31.2667,-9.1833,Morocco,MA,MAR,Marrakech-Safi,,11494.0,1504119259
Tawnza,Tawnza,32.0944,-6.6025,Morocco,MA,MAR,Béni Mellal-Khénifra,,11488.0,1504959614
Douar Trougout,Douar Trougout,35.18,-3.77,Morocco,MA,MAR,Oriental,,11458.0,1504618230
Ahlaf,Ahlaf,33.2833,-7.2,Morocco,MA,MAR,Casablanca-Settat,,11451.0,1504239196
Sidi Moussa Ben Ali,Sidi Moussa Ben Ali,33.5594,-7.3817,Morocco,MA,MAR,Casablanca-Settat,,11445.0,1504600250
El Khemis des Beni Chegdal,El Khemis des Beni Chegdal,32.4441,-6.9551,Morocco,MA,MAR,Béni Mellal-Khénifra,,11444.0,1504549116
Amdel,Amdel,31.5617,-8.8944,Morocco,MA,MAR,Marrakech-Safi,,11438.0,1504656724
Ain Legdah,Ain Legdah,34.1667,-4.5,Morocco,MA,MAR,Fès-Meknès,,11422.0,1504429679
Laqraqra,Laqraqra,32.4333,-7.4333,Morocco,MA,MAR,Marrakech-Safi,,11419.0,1504203728
Douar Sgarta,Douar Sgarta,32.1667,-7.6333,Morocco,MA,MAR,Marrakech-Safi,,11387.0,1504288503
Lahfayr,Lahfayr,30.57,-8.4878,Morocco,MA,MAR,Souss-Massa,,11374.0,1504992138
Boudenib,Boudenib,31.9497,-3.6078,Morocco,MA,MAR,Drâa-Tafilalet,,11373.0,1504858254
Tilmi,Tilmi,31.8189,-5.7718,Morocco,MA,MAR,Drâa-Tafilalet,,11372.0,1504580420
Douar Oulad Naoual,Douar Oulad Naoual,34.4936,-5.7108,Morocco,MA,MAR,Rabat-Salé-Kénitra,,11371.0,1504215350
Lamsabih,Lamsabih,32.2933,-8.6889,Morocco,MA,MAR,Marrakech-Safi,,11339.0,1504233689
Ouaklim Oukider,Ouaklim Oukider,31.45,-5.55,Morocco,MA,MAR,Drâa-Tafilalet,,11338.0,1504219729
Jem’at Oulad ’Abbou,Jem'at Oulad 'Abbou,33.1156,-7.9333,Morocco,MA,MAR,Casablanca-Settat,,11299.0,1504650087
Lafrayta,Lafrayta,31.9167,-7.25,Morocco,MA,MAR,Marrakech-Safi,,11298.0,1504011173
Commune Sidi Youssef Ben Ahmed,Commune Sidi Youssef Ben Ahmed,33.7861,-4.8152,Morocco,MA,MAR,Fès-Meknès,,11292.0,1504774244
El Ghourdane,El Ghourdane,32.3205,-8.7637,Morocco,MA,MAR,Marrakech-Safi,,11291.0,1504617504
Jamaat Shaim,Jamaat Shaim,32.3486,-8.8431,Morocco,MA,MAR,Marrakech-Safi,,11251.0,1504695746
Touama,Touama,31.5339,-7.4872,Morocco,MA,MAR,Marrakech-Safi,,11243.0,1504529527
Sidi Abdellah Ben Taazizt,Sidi Abdellah Ben Taazizt,34.0019,-5.3695,Morocco,MA,MAR,Fès-Meknès,,11227.0,1504278658
Iygli,Iygli,29.5001,-9.0501,Morocco,MA,MAR,Souss-Massa,,11197.0,1504318474
Tissa,Tissa,35.0228,-4.1408,Morocco,MA,MAR,Fès-Meknès,,11195.0,1504017756
Douar Jwalla,Douar Jwalla,31.89,-7.44,Morocco,MA,MAR,Marrakech-Safi,,11168.0,1504383482
Boujediane,Boujediane,35.1114,-5.7823,Morocco,MA,MAR,Tanger-Tétouan-Al Hoceïma,,11166.0,1504110188
Douar Ain Maatouf,Douar Ain Maatouf,34.4352,-4.5566,Morocco,MA,MAR,Fès-Meknès,,11165.0,1504798283
Zaouiet Says,Zaouiet Says,32.7931,-8.6506,Morocco,MA,MAR,Casablanca-Settat,,11160.0,1504180910
Iazizatene,Iazizatene,35.2544,-3.115,Morocco,MA,MAR,Oriental,,11131.0,1504122645
Kariat Ben Aouda,Kariat Ben Aouda,34.7667,-5.95,Morocco,MA,MAR,Rabat-Salé-Kénitra,,11087.0,1504991922
Farkhâna,Farkhana,35.2833,-3.0167,Morocco,MA,MAR,Oriental,,10994.0,1504047941
Takad Sahel,Takad Sahel,30.25,-9.55,Morocco,MA,MAR,Souss-Massa,,10968.0,1504426241
Timahdit,Timahdit,33.2369,-5.06,Morocco,MA,MAR,Fès-Meknès,,10945.0,1504460788
Bni Drar,Bni Drar,34.8578,-1.9928,Morocco,MA,MAR,Oriental,,10934.0,1504593239
Figuig,Figuig,32.1167,-1.2269,Morocco,MA,MAR,Oriental,,10872.0,1504487887
Imi Mokorn,Imi Mokorn,30.1675,-9.2322,Morocco,MA,MAR,Souss-Massa,,10748.0,1504588665
Douar Bouchfaa,Douar Bouchfaa,34.1014,-4.2939,Morocco,MA,MAR,Fès-Meknès,,10724.0,1504240184
Tanant,Tanant,31.8667,-6.95,Morocco,MA,MAR,Béni Mellal-Khénifra,,10706.0,1504879588
Arbaa Sahel,Arbaa Sahel,29.5993,-9.877,Morocco,MA,MAR,Souss-Massa,,10705.0,1504199672
Taouloukoult,Taouloukoult,31.2167,-9.0833,Morocco,MA,MAR,Marrakech-Safi,,10682.0,1504583141
Agdz,Agdz,30.6978,-6.4497,Morocco,MA,MAR,Drâa-Tafilalet,,10681.0,1504481123
Sebt Ait Ikkou,Sebt Ait Ikkou,33.6686,-6.1372,Morocco,MA,MAR,Rabat-Salé-Kénitra,,10676.0,1504653022
Lamhadi,Lamhadi,32.3,-9.0167,Morocco,MA,MAR,Marrakech-Safi,,10651.0,1504208121
Hetane,Hetane,32.8403,-6.8025,Morocco,MA,MAR,Béni Mellal-Khénifra,,10618.0,1504001674
Itzer,Itzer,32.8833,-5.05,Morocco,MA,MAR,Drâa-Tafilalet,,10613.0,1504216124
Toundout,Toundout,31.2667,-6.5833,Morocco,MA,MAR,Drâa-Tafilalet,,10606.0,1504645333
Abadou,Abadou,31.5797,-7.3122,Morocco,MA,MAR,Marrakech-Safi,,10602.0,1504229584
Aïn Zora,Ain Zora,34.66,-3.53,Morocco,MA,MAR,Oriental,,10601.0,1504442402
Aït Hani,Ait Hani,31.7786,-5.4555,Morocco,MA,MAR,Drâa-Tafilalet,,10587.0,1504963024
Tamanar,Tamanar,31.0,-9.6667,Morocco,MA,MAR,Marrakech-Safi,,10584.0,1504600694
Had Laaounate,Had Laaounate,32.6128,-8.2256,Morocco,MA,MAR,Casablanca-Settat,,10580.0,1504308918
Tourza,Tourza,29.4778,-10.0158,Morocco,MA,MAR,Guelmim-Oued Noun,,10577.0,1504097455
Amtar,Amtar,35.2385,-4.7943,Morocco,MA,MAR,Tanger-Tétouan-Al Hoceïma,,10574.0,1504617084
Mokrisset,Mokrisset,34.91,-5.3536,Morocco,MA,MAR,Tanger-Tétouan-Al Hoceïma,,10545.0,1504941621
Tilougguit,Tilougguit,32.0333,-6.2,Morocco,MA,MAR,Béni Mellal-Khénifra,,10544.0,1504513715
Sidi Bousber,Sidi Bousber,34.5667,-5.3667,Morocco,MA,MAR,Tanger-Tétouan-Al Hoceïma,,10528.0,1504787633
Souq Sebt Says,Souq Sebt Says,32.7773,-8.6433,Morocco,MA,MAR,Casablanca-Settat,,10488.0,1504725186
Sidi Abdallah,Sidi Abdallah,32.5783,-7.8108,Morocco,MA,MAR,Marrakech-Safi,,10481.0,1504890231
Sidi Boushab,Sidi Boushab,30.074,-9.279,Morocco,MA,MAR,Souss-Massa,,10438.0,1504333059
Zawyat Ahançal,Zawyat Ahancal,31.8325,-6.1056,Morocco,MA,MAR,Béni Mellal-Khénifra,,10435.0,1504237708
Awfouss,Awfouss,31.6833,-4.1667,Morocco,MA,MAR,Drâa-Tafilalet,,10424.0,1504561866
Oulad Slim,Oulad Slim,32.7775,-7.7725,Morocco,MA,MAR,Casablanca-Settat,,10410.0,1504468299
Oued Amlil,Oued Amlil,34.2,-4.2833,Morocco,MA,MAR,Fès-Meknès,,10405.0,1504286809
Brikcha,Brikcha,34.9667,-5.5833,Morocco,MA,MAR,Tanger-Tétouan-Al Hoceïma,,10399.0,1504666840
Douar Echbanat,Douar Echbanat,34.214,-5.3508,Morocco,MA,MAR,Fès-Meknès,,10371.0,1504340049
Tnine Sidi Lyamani,Tnine Sidi Lyamani,35.37,-5.97,Morocco,MA,MAR,Tanger-Tétouan-Al Hoceïma,,10365.0,1504028221
Beni Oulid,Beni Oulid,34.5897,-4.4514,Morocco,MA,MAR,Fès-Meknès,,10324.0,1504501654
Aghbalou n’Kerdous,Aghbalou n'Kerdous,31.6767,-5.2976,Morocco,MA,MAR,Drâa-Tafilalet,,10313.0,1504201813
Bounaamane,Bounaamane,29.5283,-9.8044,Morocco,MA,MAR,Souss-Massa,,10310.0,1504463740
Jaqma,Jaqma,33.292,-7.44,Morocco,MA,MAR,Casablanca-Settat,,10306.0,1504002032
Dar Si Aissa,Dar Si Aissa,32.4199,-8.908,Morocco,MA,MAR,Marrakech-Safi,,10266.0,1504931442
Sgamna,Sgamna,32.7342,-7.2025,Morocco,MA,MAR,Casablanca-Settat,,10245.0,1504088334
Ksar Lmajaz,Ksar Lmajaz,35.8428,-5.5586,Morocco,MA,MAR,Tanger-Tétouan-Al Hoceïma,,10237.0,1504167905
Douar Mzoura,Douar Mzoura,34.3167,-5.9333,Morocco,MA,MAR,Rabat-Salé-Kénitra,,10194.0,1504336708
Jemaat Oulad Mhamed,Jemaat Oulad Mhamed,33.0938,-7.0519,Morocco,MA,MAR,Casablanca-Settat,,10187.0,1504791929
Msila,Msila,35.2,-5.5667,Morocco,MA,MAR,Tanger-Tétouan-Al Hoceïma,,10153.0,1504170765
Aïn Zohra,Ain Zohra,34.1,-6.35,Morocco,MA,MAR,Rabat-Salé-Kénitra,,10151.0,1504551981
Za’roura,Za'roura,35.2167,-5.6667,Morocco,MA,MAR,Tanger-Tétouan-Al Hoceïma,,10137.0,1504534822
La’tamna,La'tamna,31.91,-7.34,Morocco,MA,MAR,Marrakech-Safi,,10063.0,1504778865
Jafra,Jafra,31.5145,-8.7555,Morocco,MA,MAR,Marrakech-Safi,,10060.0,1504134756
Taghbalt,Taghbalt,30.62,-5.35,Morocco,MA,MAR,Drâa-Tafilalet,,10054.0,1504290154
Bou’nane,Bou'nane,32.0275,-3.04,Morocco,MA,MAR,Oriental,,10035.0,1504957509
Zaggota,Zaggota,34.1667,-5.5333,Morocco,MA,MAR,Rabat-Salé-Kénitra,,10032.0,1504666777
Tarhjicht,Tarhjicht,29.0564,-9.4281,Morocco,MA,MAR,Guelmim-Oued Noun,,9988.0,1504845971
Kenafif,Kenafif,30.4167,-9.0333,Morocco,MA,MAR,Souss-Massa,,9936.0,1504378442
Dar El Kebdani,Dar El Kebdani,35.1203,-3.3322,Morocco,MA,MAR,Oriental,,9911.0,1504332737
Sidi Rahhal,Sidi Rahhal,31.6667,-7.4833,Morocco,MA,MAR,Marrakech-Safi,,9906.0,1504761731
Kourimat,Kourimat,31.45,-9.3167,Morocco,MA,MAR,Marrakech-Safi,,9897.0,1504079071
Ech Chaïbat,Ech Chaibat,31.6,-7.85,Morocco,MA,MAR,Marrakech-Safi,,9877.0,1504590724
Foum Jam’a,Foum Jam'a,31.96,-6.98,Morocco,MA,MAR,Béni Mellal-Khénifra,,9873.0,1504414947
Douar Snada,Douar Snada,35.0667,-4.2167,Morocco,MA,MAR,Tanger-Tétouan-Al Hoceïma,,9870.0,1504701788
Boudinar,Boudinar,35.15,-3.6333,Morocco,MA,MAR,Oriental,,9863.0,1504277185
Outa Bouabane,Outa Bouabane,34.2606,-4.4139,Morocco,MA,MAR,Fès-Meknès,,9856.0,1504009188
Oulad ’Azzouz,Oulad 'Azzouz,32.7693,-6.7543,Morocco,MA,MAR,Béni Mellal-Khénifra,,9815.0,1504559202
Imlil,Imlil,31.7567,-7.0106,Morocco,MA,MAR,Béni Mellal-Khénifra,,9796.0,1504125012
Tiztoutine,Tiztoutine,34.9833,-3.15,Morocco,MA,MAR,Oriental,,9788.0,1504907240
Tadla,Tadla,32.4409,-8.3708,Morocco,MA,MAR,Marrakech-Safi,,9750.0,1504540569
Ain Karma,Ain Karma,34.0071,-5.6182,Morocco,MA,MAR,Fès-Meknès,,9738.0,1504336348
Aghbalou Aqourar,Aghbalou Aqourar,33.9341,-4.7381,Morocco,MA,MAR,Fès-Meknès,,9715.0,1504995287
Douar Lehouifrat,Douar Lehouifrat,32.28,-8.31,Morocco,MA,MAR,Marrakech-Safi,,9705.0,1504757840
Aklim,Aklim,34.9167,-2.4333,Morocco,MA,MAR,Oriental,,9695.0,1504687369
Sidi Ahmed El Khadir,Sidi Ahmed El Khadir,32.5167,-7.3833,Morocco,MA,MAR,Casablanca-Settat,,9687.0,1504732408
’Aïn Leuh,'Ain Leuh,33.2833,-5.3833,Morocco,MA,MAR,Fès-Meknès,,9669.0,1504668626
Oued Laou,Oued Laou,35.45,-5.0833,Morocco,MA,MAR,Tanger-Tétouan-Al Hoceïma,,9665.0,1504708598
Bni Boufrah,Bni Boufrah,35.1,-4.3167,Morocco,MA,MAR,Tanger-Tétouan-Al Hoceïma,,9653.0,1504305838
Oulad Imloul,Oulad Imloul,32.0333,-7.7167,Morocco,MA,MAR,Marrakech-Safi,,9614.0,1504403330
Bou Zemou,Bou Zemou,32.1114,-5.5197,Morocco,MA,MAR,Drâa-Tafilalet,,9583.0,1504737844
Oulad Ayyad,Oulad Ayyad,32.3333,-6.3833,Morocco,MA,MAR,Béni Mellal-Khénifra,,9566.0,1504480318
Tatoufet,Tatoufet,35.0339,-5.7706,Morocco,MA,MAR,Tanger-Tétouan-Al Hoceïma,,9527.0,1504842271
Zawyat Sidi Ben Hamdoun,Zawyat Sidi Ben Hamdoun,33.045,-7.929,Morocco,MA,MAR,Casablanca-Settat,,9521.0,1504593978
Bni Gmil,Bni Gmil,35.0833,-4.3833,Morocco,MA,MAR,Tanger-Tétouan-Al Hoceïma,,9513.0,1504140120
Douar Messassa,Douar Messassa,34.2803,-4.5336,Morocco,MA,MAR,Fès-Meknès,,9501.0,1504026758
Gaada,Gaada,35.1594,-2.9892,Morocco,MA,MAR,Oriental,,9497.0,1504325635
Berkine,Berkine,33.7665,-3.8438,Morocco,MA,MAR,Oriental,,9469.0,1504644082
El Amim,El Amim,32.2067,-7.2629,Morocco,MA,MAR,Marrakech-Safi,,9454.0,1504410510
Tissaf,Tissaf,33.4,-3.5833,Morocco,MA,MAR,Fès-Meknès,,9444.0,1504419451
Tissint,Tissint,29.9006,-7.3203,Morocco,MA,MAR,Souss-Massa,,9434.0,1504720693
Sidi El Hattab,Sidi El Hattab,32.2667,-7.2833,Morocco,MA,MAR,Marrakech-Safi,,9421.0,1504871106
Gammasa,Gammasa,31.4182,-8.3784,Morocco,MA,MAR,Marrakech-Safi,,9388.0,1504310079
Mhâjâr,Mhajar,35.12,-3.49,Morocco,MA,MAR,Oriental,,9386.0,1504595194
Douar Oulad Bouziane,Douar Oulad Bouziane,34.2325,-5.0444,Morocco,MA,MAR,Fès-Meknès,,9372.0,1504500363
Ameskroud,Ameskroud,30.5308,-9.3283,Morocco,MA,MAR,Souss-Massa,,9351.0,1504251726
Laanoussar,Laanoussar,33.6833,-4.8167,Morocco,MA,MAR,Fès-Meknès,,9343.0,1504953318
Laghzawna,Laghzawna,33.189,-7.684,Morocco,MA,MAR,Casablanca-Settat,,9315.0,1504002065
Douar Oulad Sidi Moussa,Douar Oulad Sidi Moussa,32.2726,-7.1987,Morocco,MA,MAR,Casablanca-Settat,,9260.0,1504471740
Sidi Lahsene,Sidi Lahsene,34.0999,-2.6219,Morocco,MA,MAR,Oriental,,9259.0,1504193134
Douar Ezzerarda,Douar Ezzerarda,34.7667,-5.8333,Morocco,MA,MAR,Rabat-Salé-Kénitra,,9249.0,1504537386
Oulad Cherif,Oulad Cherif,31.7667,-7.7833,Morocco,MA,MAR,Marrakech-Safi,,9237.0,1504980361
Tanakoub,Tanakoub,35.1091,-5.4577,Morocco,MA,MAR,Tanger-Tétouan-Al Hoceïma,,9236.0,1504108752
Sidi Bou Othmane,Sidi Bou Othmane,31.9033,-7.9422,Morocco,MA,MAR,Marrakech-Safi,,9181.0,1504562796
Douar El Mellaliyine,Douar El Mellaliyine,35.6264,-5.3414,Morocco,MA,MAR,Tanger-Tétouan-Al Hoceïma,,9177.0,1504244223
Bir Tam Tam,Bir Tam Tam,33.9833,-4.6333,Morocco,MA,MAR,Fès-Meknès,,9141.0,1504669372
Tafersit,Tafersit,35.0167,-3.5333,Morocco,MA,MAR,Oriental,,9133.0,1504168581
Mwaline al Oued,Mwaline al Oued,33.4467,-7.3283,Morocco,MA,MAR,Casablanca-Settat,,9129.0,1504001943
Chtiba,Chtiba,32.2,-7.3,Morocco,MA,MAR,Marrakech-Safi,,9122.0,1504264885
Iguidiy,Iguidiy,30.7467,-7.9267,Morocco,MA,MAR,Souss-Massa,,9100.0,1504330171
Sidi Ouassay,Sidi Ouassay,30.05,-9.6833,Morocco,MA,MAR,Souss-Massa,,9087.0,1504252264
Gtarna,Gtarna,32.9724,-7.9645,Morocco,MA,MAR,Casablanca-Settat,,9084.0,1504328347
Aïn el Mediour,Ain el Mediour,30.4,-8.8833,Morocco,MA,MAR,Souss-Massa,,9000.0,1504516108
Had Dra,Had Dra,31.5833,-9.5333,Morocco,MA,MAR,Marrakech-Safi,,8989.0,1504953934
Foum Zguid,Foum Zguid,30.0833,-6.8667,Morocco,MA,MAR,Souss-Massa,,8986.0,1504624650
Bni Sidel,Bni Sidel,35.1392,-3.1281,Morocco,MA,MAR,Oriental,,8930.0,1504766280
Zawyat Sidi al Mekki,Zawyat Sidi al Mekki,33.212,-7.717,Morocco,MA,MAR,Casablanca-Settat,,8920.0,1504769333
Douar Ait Taleb,Douar Ait Taleb,32.3839,-8.1856,Morocco,MA,MAR,Marrakech-Safi,,8888.0,1504079042
Imilchil,Imilchil,32.155,-5.6347,Morocco,MA,MAR,Drâa-Tafilalet,,8870.0,1504516929
Iskourane,Iskourane,30.8433,-9.8186,Morocco,MA,MAR,Marrakech-Safi,,8866.0,1504820847
Msemrir,Msemrir,31.7028,-5.8125,Morocco,MA,MAR,Drâa-Tafilalet,,8866.0,1504469179
Ait Ikkou,Ait Ikkou,33.669,-6.1376,Morocco,MA,MAR,Fès-Meknès,,8865.0,1504000515
Aït Ouaoumana,Ait Ouaoumana,32.7128,-5.8042,Morocco,MA,MAR,Béni Mellal-Khénifra,,8849.0,1504002343
Agadir Melloul,Agadir Melloul,30.2167,-7.8,Morocco,MA,MAR,Souss-Massa,,8848.0,1504880181
Amarzgane,Amarzgane,31.05,-7.2167,Morocco,MA,MAR,Drâa-Tafilalet,,8820.0,1504948640
Hassi Berkane,Hassi Berkane,34.8333,-2.8667,Morocco,MA,MAR,Oriental,,8788.0,1504780736
Saidia,Saidia,35.085,-2.2392,Morocco,MA,MAR,Oriental,,8780.0,1504105811
Tiqqi,Tiqqi,29.8667,-9.0667,Morocco,MA,MAR,Souss-Massa,,8773.0,1504073397
Bouhlou,Bouhlou,34.1333,-4.4,Morocco,MA,MAR,Fès-Meknès,,8748.0,1504965177
Iaboutene,Iaboutene,35.067,-3.967,Morocco,MA,MAR,Tanger-Tétouan-Al Hoceïma,,8715.0,1504286746
Tleta Taghramt,Tleta Taghramt,35.7877,-5.4677,Morocco,MA,MAR,Tanger-Tétouan-Al Hoceïma,,8706.0,1504015428
Sidi el Mokhfi,Sidi el Mokhfi,34.6039,-4.7889,Morocco,MA,MAR,Fès-Meknès,,8705.0,1504651133
Sidi Dahbi,Sidi Dahbi,33.05,-7.1833,Morocco,MA,MAR,Casablanca-Settat,,8703.0,1504613432
Zawiat Moulay Brahim,Zawiat Moulay Brahim,31.2858,-7.9656,Morocco,MA,MAR,Marrakech-Safi,,8698.0,1504818335
Oulad Khallouf,Oulad Khallouf,31.79,-7.07,Morocco,MA,MAR,Marrakech-Safi,,8605.0,1504052239
Oulad Khallouf,Oulad Khallouf,34.71,-2.58,Morocco,MA,MAR,Oriental,,8605.0,1504000678
Lakhzazra,Lakhzazra,33.0333,-7.05,Morocco,MA,MAR,Casablanca-Settat,,8582.0,1504277663
Lambarkiyine,Lambarkiyine,33.2,-7.5,Morocco,MA,MAR,Casablanca-Settat,,8559.0,1504527523
Bir Anzarane,Bir Anzarane,23.8918,-14.5364,Morocco,MA,MAR,Dakhla-Oued Ed-Dahab,,6244.0,1504999993
Tifariti,Tifariti,26.158,-10.567,Morocco,MA,MAR,Laâyoune-Sakia El Hamra,primary,3000.0,1504999990
Uad Damran,Uad Damran,27.4181,-12.9842,Morocco,MA,MAR,Laâyoune-Sakia El Hamra,,1108.0,1504003880
Lemsid,Lemsid,26.5482,-13.8482,Morocco,MA,MAR,Laâyoune-Sakia El Hamra,,100.0,1504999975
Casablanca,Casablanca,33.5333,-7.5833,Morocco,MA,MAR,Casablanca-Settat,admin,3499000.0,1504175315
Fès,Fes,34.0433,-5.0033,Morocco,MA,MAR,Fès-Meknès,admin,1112072.0,1504861997
Marrakech,Marrakech,31.63,-8.0089,Morocco,MA,MAR,Marrakech-Safi,admin,966987.0,1504172585
Tangier,Tangier,35.7767,-5.8039,Morocco,MA,MAR,Tanger-Tétouan-Al Hoceïma,admin,947952.0,1504861504
Sale,Sale,34.0333,-6.8,Morocco,MA,MAR,Rabat-Salé-Kénitra,,850403.0,1504989034
Rabat,Rabat,34.0209,-6.8416,Morocco,MA,MAR,Rabat-Salé-Kénitra,primary,572717.0,1504023252
Meknès,Meknes,33.895,-5.5547,Morocco,MA,MAR,Fès-Meknès,,520428.0,1504333193
Oujda-Angad,Oujda-Angad,34.6867,-1.9114,Morocco,MA,MAR,Oriental,admin,494252.0,1504891036
Kenitra,Kenitra,34.25,-6.5833,Morocco,MA,MAR,Rabat-Salé-Kénitra,,431282.0,1504534876
Agadir,Agadir,30.4333,-9.6,Morocco,MA,MAR,Souss-Massa,admin,421844.0,1504116858
Tétouan,Tetouan,35.5667,-5.3667,Morocco,MA,MAR,Tanger-Tétouan-Al Hoceïma,,380787.0,1504709141
Taourirt,Taourirt,34.4169,-2.885,Morocco,MA,MAR,Oriental,,321876.0,1504648957
Temara,Temara,33.9267,-6.9122,Morocco,MA,MAR,Rabat-Salé-Kénitra,,313510.0,1504016606
Safi,Safi,32.2833,-9.2333,Morocco,MA,MAR,Marrakech-Safi,,308508.0,1504000717
Khénifra,Khenifra,32.9394,-5.6675,Morocco,MA,MAR,Béni Mellal-Khénifra,,228567.0,1504143530
El Jadid,El Jadid,33.2333,-8.5,Morocco,MA,MAR,Casablanca-Settat,,220181.0,1504964063
Laâyoune,Laayoune,27.1536,-13.2033,Morocco,MA,MAR,Laâyoune-Sakia El Hamra,,217732.0,1504000319
Mohammedia,Mohammedia,33.6833,-7.3833,Morocco,MA,MAR,Casablanca-Settat,,208612.0,1504542634
Kouribga,Kouribga,32.8833,-6.9167,Morocco,MA,MAR,Béni Mellal-Khénifra,,196196.0,1504325928
Béni Mellal,Beni Mellal,32.3394,-6.3608,Morocco,MA,MAR,Béni Mellal-Khénifra,admin,192676.0,1504131639
Ait Melloul,Ait Melloul,30.3342,-9.4972,Morocco,MA,MAR,Souss-Massa,,171847.0,1504134516
Nador,Nador,35.1667,-2.9333,Morocco,MA,MAR,Oriental,,161726.0,1504811178
Taza,Taza,34.2167,-4.0167,Morocco,MA,MAR,Fès-Meknès,,148456.0,1504405154
Settat,Settat,33.0,-7.6167,Morocco,MA,MAR,Casablanca-Settat,,142250.0,1504720478
Barrechid,Barrechid,33.2667,-7.5833,Morocco,MA,MAR,Casablanca-Settat,,136634.0,1504194885
Al Khmissat,Al Khmissat,33.8167,-6.0667,Morocco,MA,MAR,Rabat-Salé-Kénitra,,131542.0,1504079907
Inezgane,Inezgane,30.3658,-9.5381,Morocco,MA,MAR,Souss-Massa,,130333.0,1504786674
Ksar El Kebir,Ksar El Kebir,35.009,-5.9,Morocco,MA,MAR,Tanger-Tétouan-Al Hoceïma,,126617.0,1504230428
My Drarga,My Drarga,30.38,-9.48,Morocco,MA,MAR,Souss-Massa,,126512.0,1504399163
Larache,Larache,35.1833,-6.15,Morocco,MA,MAR,Tanger-Tétouan-Al Hoceïma,,125008.0,1504637172
Guelmim,Guelmim,28.9833,-10.0667,Morocco,MA,MAR,Guelmim-Oued Noun,admin,118318.0,1504110861
Berkane,Berkane,34.9167,-2.3167,Morocco,MA,MAR,Oriental,,109237.0,1504282363
Ad Dakhla,Ad Dakhla,23.7081,-15.9456,Morocco,MA,MAR,Dakhla-Oued Ed-Dahab,,106277.0,1504999983
Bouskoura,Bouskoura,33.4489,-7.6486,Morocco,MA,MAR,Casablanca-Settat,,103026.0,1504503306
Al Fqih Ben Çalah,Al Fqih Ben Calah,32.5,-6.5333,Morocco,MA,MAR,Béni Mellal-Khénifra,,102019.0,1504975687
Oued Zem,Oued Zem,32.8667,-6.5667,Morocco,MA,MAR,Béni Mellal-Khénifra,,95267.0,1504098746
Sidi Slimane,Sidi Slimane,34.26,-5.92,Morocco,MA,MAR,Rabat-Salé-Kénitra,,92989.0,1504101128
Errachidia,Errachidia,31.9319,-4.4244,Morocco,MA,MAR,Drâa-Tafilalet,admin,92374.0,1504005759
Guercif,Guercif,34.2333,-3.3667,Morocco,MA,MAR,Oriental,,90880.0,1504842310
Oulad Teïma,Oulad Teima,30.4,-9.2167,Morocco,MA,MAR,Souss-Massa,,89387.0,1504278611
Ben Guerir,Ben Guerir,32.23,-7.95,Morocco,MA,MAR,Marrakech-Safi,,88626.0,1504909564
Wislane,Wislane,30.225,-8.3801,Morocco,MA,MAR,Souss-Massa,,87910.0,1504929490
Tiflet,Tiflet,33.8931,-6.3069,Morocco,MA,MAR,Rabat-Salé-Kénitra,,86709.0,1504661999
Lqoliaa,Lqoliaa,30.2908,-9.4661,Morocco,MA,MAR,Souss-Massa,,83235.0,1504675410
Taroudannt,Taroudannt,30.471,-8.8806,Morocco,MA,MAR,Souss-Massa,,80149.0,1504415764
Sefrou,Sefrou,33.83,-4.83,Morocco,MA,MAR,Fès-Meknès,,79887.0,1504820285
Essaouira,Essaouira,31.5131,-9.7697,Morocco,MA,MAR,Marrakech-Safi,,77966.0,1504845522
Fnidq,Fnidq,35.85,-5.35,Morocco,MA,MAR,Tanger-Tétouan-Al Hoceïma,,77436.0,1504670555
Ait Ali,Ait Ali,30.1765,-9.4886,Morocco,MA,MAR,Souss-Massa,,76646.0,1504009062
Sidi Qacem,Sidi Qacem,34.2167,-5.7,Morocco,MA,MAR,Rabat-Salé-Kénitra,,75672.0,1504300626
Tiznit,Tiznit,29.7167,-9.7167,Morocco,MA,MAR,Souss-Massa,,74699.0,1504399838
Moulay Abdallah,Moulay Abdallah,33.1978,-8.5883,Morocco,MA,MAR,Casablanca-Settat,,74671.0,1504563452
Tan-Tan,Tan-Tan,28.4333,-11.1,Morocco,MA,MAR,Guelmim-Oued Noun,,73209.0,1504164174
Warzat,Warzat,30.9167,-6.9167,Morocco,MA,MAR,Drâa-Tafilalet,,71067.0,1504381507
Youssoufia,Youssoufia,32.25,-8.5333,Morocco,MA,MAR,Marrakech-Safi,,67628.0,1504459034
Sa’ada,Sa'ada,31.621,-8.1303,Morocco,MA,MAR,Marrakech-Safi,,67086.0,1504926324
Martil,Martil,35.6167,-5.2667,Morocco,MA,MAR,Tanger-Tétouan-Al Hoceïma,,64355.0,1504341023
Aïn Harrouda,Ain Harrouda,33.6372,-7.4483,Morocco,MA,MAR,Casablanca-Settat,,62420.0,1504718611
Souq Sebt Oulad Nemma,Souq Sebt Oulad Nemma,32.2948,-6.7007,Morocco,MA,MAR,Béni Mellal-Khénifra,,60076.0,1504194496
Skhirate,Skhirate,33.85,-7.03,Morocco,MA,MAR,Rabat-Salé-Kénitra,,59775.0,1504664899
Ouezzane,Ouezzane,34.8,-5.5833,Morocco,MA,MAR,Tanger-Tétouan-Al Hoceïma,,59606.0,1504736892
Sidi Yahya Zaer,Sidi Yahya Zaer,33.7105,-6.8831,Morocco,MA,MAR,Rabat-Salé-Kénitra,,57790.0,1504365068
Benslimane,Benslimane,33.6167,-7.1167,Morocco,MA,MAR,Casablanca-Settat,,57101.0,1504790296
Semara,Semara,26.7394,-11.6703,Morocco,MA,MAR,Laâyoune-Sakia El Hamra,,57035.0,1504999984
Al Hoceïma,Al Hoceima,35.2472,-3.9322,Morocco,MA,MAR,Tanger-Tétouan-Al Hoceïma,,56716.0,1504990575
Beni Enzar,Beni Enzar,35.2667,-2.9333,Morocco,MA,MAR,Oriental,,56582.0,1504616684
M’diq,M'diq,35.6858,-5.3253,Morocco,MA,MAR,Tanger-Tétouan-Al Hoceïma,,56227.0,1504774869
Sidi Bennour,Sidi Bennour,32.65,-8.4333,Morocco,MA,MAR,Casablanca-Settat,,55815.0,1504893162
Midalt,Midalt,32.68,-4.73,Morocco,MA,MAR,Drâa-Tafilalet,,55304.0,1504279379
Douar Ain Chkef,Douar Ain Chkef,33.9619,-5.0813,Morocco,MA,MAR,Fès-Meknès,,54477.0,1504020762
Azrou,Azrou,33.4417,-5.2247,Morocco,MA,MAR,Fès-Meknès,,54350.0,1504585311
El Kelaa des Srarhna,El Kelaa des Srarhna,32.0481,-7.4083,Morocco,MA,MAR,Marrakech-Safi,,51404.0,1504846488
Ain El Aouda,Ain El Aouda,33.8111,-6.7922,Morocco,MA,MAR,Rabat-Salé-Kénitra,,49816.0,1504400263
Beni Yakhlef,Beni Yakhlef,33.6555,-7.3221,Morocco,MA,MAR,Casablanca-Settat,,48338.0,1504512130
Ad Darwa,Ad Darwa,33.4167,-7.5333,Morocco,MA,MAR,Casablanca-Settat,,47719.0,1504000451
Al Aaroui,Al Aaroui,35.0029,-3.0311,Morocco,MA,MAR,Oriental,,47599.0,1504779155
Qasbat Tadla,Qasbat Tadla,32.6,-6.2667,Morocco,MA,MAR,Béni Mellal-Khénifra,,47343.0,1504612704
Boujad,Boujad,32.7667,-6.4,Morocco,MA,MAR,Béni Mellal-Khénifra,,46893.0,1504259447
Tinajdad,Tinajdad,31.5,-5.0167,Morocco,MA,MAR,Drâa-Tafilalet,,43999.0,1504176217
Jerada,Jerada,34.3117,-2.1636,Morocco,MA,MAR,Oriental,,43506.0,1504230609
Douar Bni Malek,Douar Bni Malek,34.78,-5.6425,Morocco,MA,MAR,Tanger-Tétouan-Al Hoceïma,,43282.0,1504252777
Chefchaouene,Chefchaouene,35.1714,-5.2697,Morocco,MA,MAR,Tanger-Tétouan-Al Hoceïma,,42786.0,1504471687
Mrirt,Mrirt,33.1667,-5.5667,Morocco,MA,MAR,Béni Mellal-Khénifra,,42730.0,1504917091
Cabo Bojador,Cabo Bojador,26.1333,-14.5,Morocco,MA,MAR,Laâyoune-Sakia El Hamra,,42651.0,1504003884
Sidi Mohamed Lahmar,Sidi Mohamed Lahmar,34.7167,-6.2667,Morocco,MA,MAR,Rabat-Salé-Kénitra,,42637.0,1504538713
Tineghir,Tineghir,31.5147,-5.5328,Morocco,MA,MAR,Drâa-Tafilalet,,42044.0,1504760525
El Aïoun,El Aioun,34.5852,-2.5056,Morocco,MA,MAR,Oriental,,41832.0,1504312724
Azemmour,Azemmour,33.2878,-8.3422,Morocco,MA,MAR,Casablanca-Settat,,40920.0,1504675793
Temsia,Temsia,30.36,-9.414,Morocco,MA,MAR,Souss-Massa,,40780.0,1504419242
Zoumi,Zoumi,34.8,-5.35,Morocco,MA,MAR,Tanger-Tétouan-Al Hoceïma,,40661.0,1504309761
Douar Laouamra,Douar Laouamra,31.8,-8.7167,Morocco,MA,MAR,Marrakech-Safi,,40605.0,1504542773
Zagora,Zagora,30.3306,-5.8381,Morocco,MA,MAR,Drâa-Tafilalet,,40067.0,1504579638
Ait Ourir,Ait Ourir,31.5644,-7.6628,Morocco,MA,MAR,Marrakech-Safi,,39108.0,1504763448
Sidi Bibi,Sidi Bibi,30.2333,-9.5333,Morocco,MA,MAR,Souss-Massa,,39042.0,1504682772
Aziylal,Aziylal,31.9669,-6.5694,Morocco,MA,MAR,Béni Mellal-Khénifra,,38520.0,1504084050
Sidi Yahia El Gharb,Sidi Yahia El Gharb,34.3058,-6.3058,Morocco,MA,MAR,Rabat-Salé-Kénitra,,37979.0,1504994850
Biougra,Biougra,30.2144,-9.3708,Morocco,MA,MAR,Souss-Massa,,37933.0,1504630552
Taounate,Taounate,34.5358,-4.64,Morocco,MA,MAR,Fès-Meknès,,37616.0,1504565730
Bouznika,Bouznika,33.7897,-7.1575,Morocco,MA,MAR,Casablanca-Settat,,37238.0,1504766743
Aourir,Aourir,30.4833,-9.6333,Morocco,MA,MAR,Souss-Massa,,36948.0,1504616385
Zaïo,Zaio,34.9333,-2.7333,Morocco,MA,MAR,Oriental,,35806.0,1504831853
Aguelmous,Aguelmous,33.15,-5.8333,Morocco,MA,MAR,Béni Mellal-Khénifra,,35626.0,1504241696
El Hajeb,El Hajeb,33.6928,-5.3711,Morocco,MA,MAR,Fès-Meknès,,35282.0,1504718907
Dabouziya,Dabouziya,33.3064,-8.3548,Morocco,MA,MAR,Casablanca-Settat,,34607.0,1504001026
Mnasra,Mnasra,34.7667,-5.5167,Morocco,MA,MAR,Tanger-Tétouan-Al Hoceïma,,34429.0,1504815098
Zeghanghane,Zeghanghane,35.15,-3.0,Morocco,MA,MAR,Oriental,,34025.0,1504260154
Imzouren,Imzouren,35.15,-3.85,Morocco,MA,MAR,Tanger-Tétouan-Al Hoceïma,,33852.0,1504878608
Oulad Zemam,Oulad Zemam,32.35,-6.6333,Morocco,MA,MAR,Béni Mellal-Khénifra,,33652.0,1504396811
Ben Ahmed,Ben Ahmed,33.0655,-7.2464,Morocco,MA,MAR,Casablanca-Settat,,33105.0,1504202051
Tit Mellil,Tit Mellil,33.5533,-7.4822,Morocco,MA,MAR,Casablanca-Settat,,32782.0,1504892729
Arbaoua,Arbaoua,34.9,-5.9167,Morocco,MA,MAR,Rabat-Salé-Kénitra,,32690.0,1504079088
Douar Oulad Hssine,Douar Oulad Hssine,33.068,-8.5107,Morocco,MA,MAR,Casablanca-Settat,,32130.0,1504473203
Bahharet Oulad Ayyad,Bahharet Oulad Ayyad,34.7702,-6.3047,Morocco,MA,MAR,Rabat-Salé-Kénitra,,31860.0,1504139256
Mechraa Bel Ksiri,Mechraa Bel Ksiri,34.56,-5.95,Morocco,MA,MAR,Rabat-Salé-Kénitra,,31497.0,1504646910
Mograne,Mograne,34.4167,-6.4333,Morocco,MA,MAR,Rabat-Salé-Kénitra,,31292.0,1504174936
Dar Ould Zidouh,Dar Ould Zidouh,32.3167,-6.9,Morocco,MA,MAR,Béni Mellal-Khénifra,,31170.0,1504900512
Asilah,Asilah,35.4667,-6.0333,Morocco,MA,MAR,Tanger-Tétouan-Al Hoceïma,,31147.0,1504676037
Al ’Attawia,Al 'Attawia,31.8347,-7.3125,Morocco,MA,MAR,Marrakech-Safi,,30315.0,1504496327
Demnat,Demnat,31.7311,-7.0361,Morocco,MA,MAR,Béni Mellal-Khénifra,,29504.0,1504747424
Lalla Mimouna,Lalla Mimouna,34.85,-6.0669,Morocco,MA,MAR,Rabat-Salé-Kénitra,,29479.0,1504801532
Fritissa,Fritissa,33.6167,-3.55,Morocco,MA,MAR,Fès-Meknès,,29460.0,1504842954
Arfoud,Arfoud,31.4361,-4.2328,Morocco,MA,MAR,Drâa-Tafilalet,,29279.0,1504190665
Tameslouht,Tameslouht,31.5,-8.1,Morocco,MA,MAR,Marrakech-Safi,,28978.0,1504936367
Bou Arfa,Bou Arfa,32.5309,-1.965,Morocco,MA,MAR,Oriental,,28846.0,1504454457
Sidi Smai’il,Sidi Smai'il,32.8167,-8.5,Morocco,MA,MAR,Casablanca-Settat,,28733.0,1504182456
Taza,Taza,35.0639,-5.2025,Morocco,MA,MAR,Tanger-Tétouan-Al Hoceïma,,28713.0,1504253957
Souk et Tnine Jorf el Mellah,Souk et Tnine Jorf el Mellah,34.4833,-5.5169,Morocco,MA,MAR,Rabat-Salé-Kénitra,,28681.0,1504332951
Mehdya,Mehdya,34.2597,-6.65,Morocco,MA,MAR,Rabat-Salé-Kénitra,,28636.0,1504438304
Oulad Hammou,Oulad Hammou,33.2499,-8.3346,Morocco,MA,MAR,Casablanca-Settat,,28449.0,1504007795
Douar Oulad Aj-jabri,Douar Oulad Aj-jabri,32.2567,-6.7839,Morocco,MA,MAR,Béni Mellal-Khénifra,,28438.0,1504025075
Aïn Taoujdat,Ain Taoujdat,33.9333,-5.2167,Morocco,MA,MAR,Fès-Meknès,,28288.0,1504497923
Dar Bel Hamri,Dar Bel Hamri,34.1889,-5.9697,Morocco,MA,MAR,Rabat-Salé-Kénitra,,28156.0,1504221505
Chichaoua,Chichaoua,31.5333,-8.7667,Morocco,MA,MAR,Marrakech-Safi,,27869.0,1504125569
Tahla,Tahla,34.05,-4.42,Morocco,MA,MAR,Fès-Meknès,,27729.0,1504092591
Bellaa,Bellaa,30.0314,-9.5542,Morocco,MA,MAR,Souss-Massa,,27699.0,1504167169
Oulad Yaïch,Oulad Yaich,32.4167,-6.3333,Morocco,MA,MAR,Béni Mellal-Khénifra,,27476.0,1504233317
Ksebia,Ksebia,34.2933,-6.1594,Morocco,MA,MAR,Rabat-Salé-Kénitra,,27059.0,1504059620
Ourika Wawrmas,Ourika Wawrmas,30.7167,-6.5333,Morocco,MA,MAR,Drâa-Tafilalet,,26990.0,1504021700
Tamorot,Tamorot,34.9333,-4.7833,Morocco,MA,MAR,Tanger-Tétouan-Al Hoceïma,,26748.0,1504592587
Moulay Bousselham,Moulay Bousselham,34.8786,-6.2933,Morocco,MA,MAR,Rabat-Salé-Kénitra,,26608.0,1504188471
Iheddadene,Iheddadene,35.15,-2.9667,Morocco,MA,MAR,Oriental,,26582.0,1504836101
Sabaa Aiyoun,Sabaa Aiyoun,33.9,-5.3667,Morocco,MA,MAR,Fès-Meknès,,26277.0,1504462212
Bourdoud,Bourdoud,34.5922,-4.5492,Morocco,MA,MAR,Fès-Meknès,,26236.0,1504015338
Aït Faska,Ait Faska,31.5058,-7.7161,Morocco,MA,MAR,Marrakech-Safi,,26210.0,1504886930
Rich,Rich,32.2583,-4.5056,Morocco,MA,MAR,Drâa-Tafilalet,,25992.0,1504005566
Boureït,Boureit,34.9833,-4.9167,Morocco,MA,MAR,Tanger-Tétouan-Al Hoceïma,,25872.0,1504130214
Lamzoudia,Lamzoudia,31.5833,-8.4833,Morocco,MA,MAR,Marrakech-Safi,,25674.0,1504553058
Oulad Said,Oulad Said,32.632,-8.8456,Morocco,MA,MAR,Casablanca-Settat,,25650.0,1504360657
Missour,Missour,33.05,-3.9833,Morocco,MA,MAR,Fès-Meknès,,25584.0,1504694053
Ain Aicha,Ain Aicha,34.4833,-4.7,Morocco,MA,MAR,Fès-Meknès,,25417.0,1504818592
Zawyat ech Cheïkh,Zawyat ech Cheikh,32.6414,-5.9206,Morocco,MA,MAR,Béni Mellal-Khénifra,,25388.0,1504071186
Bouknadel,Bouknadel,34.1333,-6.7333,Morocco,MA,MAR,Rabat-Salé-Kénitra,,25255.0,1504368806
El Ghiate,El Ghiate,32.0331,-9.1625,Morocco,MA,MAR,Marrakech-Safi,,25162.0,1504222954
Safsaf,Safsaf,34.5581,-6.0078,Morocco,MA,MAR,Rabat-Salé-Kénitra,,25075.0,1504872939
Ouaoula,Ouaoula,31.8667,-6.75,Morocco,MA,MAR,Béni Mellal-Khénifra,,24790.0,1504340462
Douar Olad. Salem,Douar Olad. Salem,32.8739,-8.8588,Morocco,MA,MAR,Casablanca-Settat,,24775.0,1504813232
Oulad Tayeb,Oulad Tayeb,33.9598,-4.9954,Morocco,MA,MAR,Fès-Meknès,,24594.0,1504027412
Ain Dfali,Ain Dfali,34.599,-5.5488,Morocco,MA,MAR,Rabat-Salé-Kénitra,,24521.0,1504618863
Echemmaia Est,Echemmaia Est,32.0786,-8.6325,Morocco,MA,MAR,Marrakech-Safi,,24303.0,1504437117
Oulad Barhil,Oulad Barhil,30.6408,-8.475,Morocco,MA,MAR,Souss-Massa,,24288.0,1504160582
Douar ’Ayn Dfali,Douar 'Ayn Dfali,33.95,-4.45,Morocco,MA,MAR,Fès-Meknès,,24241.0,1504477105
Bir Jdid,Bir Jdid,33.3737,-8.0002,Morocco,MA,MAR,Casablanca-Settat,,24136.0,1504415482
Setti Fatma,Setti Fatma,31.2256,-7.6758,Morocco,MA,MAR,Marrakech-Safi,,24129.0,1504468462
Skoura,Skoura,31.0606,-6.5556,Morocco,MA,MAR,Drâa-Tafilalet,,24055.0,1504320897
Douar Ouled Ayad,Douar Ouled Ayad,32.2,-6.7975,Morocco,MA,MAR,Casablanca-Settat,,23818.0,1504223555
Zawyat an Nwaçer,Zawyat an Nwacer,33.3611,-7.6114,Morocco,MA,MAR,Casablanca-Settat,,23802.0,1504451401
Khenichet-sur Ouerrha,Khenichet-sur Ouerrha,34.4333,-5.6667,Morocco,MA,MAR,Rabat-Salé-Kénitra,,23707.0,1504817862
Ayt Mohamed,Ayt Mohamed,32.5667,-6.9833,Morocco,MA,MAR,Béni Mellal-Khénifra,,23696.0,1504703331
Gueznaia,Gueznaia,35.7066,-5.9088,Morocco,MA,MAR,Tanger-Tétouan-Al Hoceïma,,23601.0,1504255211
Oulad Hassoune,Oulad Hassoune,31.6503,-7.8361,Morocco,MA,MAR,Marrakech-Safi,,23475.0,1504841903
Bni Frassen,Bni Frassen,34.3833,-4.3833,Morocco,MA,MAR,Fès-Meknès,,23429.0,1504574079
Douar Imoukkane,Douar Imoukkane,35.0298,-4.8125,Morocco,MA,MAR,Tanger-Tétouan-Al Hoceïma,,23132.0,1504341644
Tnine Lgharbia,Tnine Lgharbia,32.5719,-8.8568,Morocco,MA,MAR,Casablanca-Settat,,23074.0,1504401185
Tighedouine,Tighedouine,31.4236,-7.5208,Morocco,MA,MAR,Marrakech-Safi,,22971.0,1504874700
Alnif,Alnif,31.1167,-5.1667,Morocco,MA,MAR,Drâa-Tafilalet,,22724.0,1504225472
Sidi Lmokhtar,Sidi Lmokhtar,31.57,-9.01,Morocco,MA,MAR,Marrakech-Safi,,22714.0,1504925399
Souk Tlet El Gharb,Souk Tlet El Gharb,34.6211,-6.1336,Morocco,MA,MAR,Rabat-Salé-Kénitra,,22554.0,1504595315
Arbi’a Tighadwiyn,Arbi'a Tighadwiyn,31.4279,-7.5253,Morocco,MA,MAR,Marrakech-Safi,,22353.0,1504625035
Had Oulad Issa,Had Oulad Issa,32.9519,-8.6982,Morocco,MA,MAR,Casablanca-Settat,,21779.0,1504891592
Tidili Masfiywat,Tidili Masfiywat,31.4667,-7.6167,Morocco,MA,MAR,Marrakech-Safi,,21706.0,1504563620
Sidi Ifni,Sidi Ifni,29.3833,-10.1667,Morocco,MA,MAR,Guelmim-Oued Noun,,21618.0,1504270532
Tamgrout,Tamgrout,30.2667,-5.6667,Morocco,MA,MAR,Drâa-Tafilalet,,21603.0,1504571275
Selouane,Selouane,35.0667,-2.9333,Morocco,MA,MAR,Oriental,,21570.0,1504039594
Amizmiz,Amizmiz,31.2167,-8.25,Morocco,MA,MAR,Marrakech-Safi,,21445.0,1504971543
Afourar,Afourar,32.2167,-6.5,Morocco,MA,MAR,Béni Mellal-Khénifra,,21382.0,1504710376
Asni,Asni,31.25,-7.9833,Morocco,MA,MAR,Marrakech-Safi,,21244.0,1504093117
Tabount,Tabount,30.88,-6.91,Morocco,MA,MAR,Drâa-Tafilalet,,21198.0,1504000158
Imi n’Oulaoun,Imi n'Oulaoun,31.4224,-6.5641,Morocco,MA,MAR,Drâa-Tafilalet,,21061.0,1504402350
Saka,Saka,34.6167,-3.4167,Morocco,MA,MAR,Oriental,,21048.0,1504711196
Bni Rzine,Bni Rzine,35.0108,-4.7262,Morocco,MA,MAR,Tanger-Tétouan-Al Hoceïma,,20904.0,1504313733
El Gara,El Gara,33.2819,-7.2319,Morocco,MA,MAR,Casablanca-Settat,,20855.0,1504734362
Sidi Abdelkader,Sidi Abdelkader,33.0494,-8.6886,Morocco,MA,MAR,Casablanca-Settat,,20854.0,1504001212
Imi-n-Tanout,Imi-n-Tanout,31.16,-8.85,Morocco,MA,MAR,Marrakech-Safi,,20837.0,1504593970
Sidi Chiker,Sidi Chiker,31.7453,-8.7069,Morocco,MA,MAR,Marrakech-Safi,,20658.0,1504682316
Sidi Rahal,Sidi Rahal,33.7897,-7.1575,Morocco,MA,MAR,Casablanca-Settat,,20628.0,1504637195
Station des Essais M.V.A.,Station des Essais M.V.A.,34.9352,-2.4306,Morocco,MA,MAR,Oriental,,20513.0,1504298109
Reçani,Recani,31.2859,-4.2751,Morocco,MA,MAR,Drâa-Tafilalet,,20469.0,1504410951
Aïn Cheggag,Ain Cheggag,33.8833,-5.0333,Morocco,MA,MAR,Fès-Meknès,,20456.0,1504540865
Sidi Jaber,Sidi Jaber,32.3833,-6.4167,Morocco,MA,MAR,Béni Mellal-Khénifra,,20432.0,1504230672
Jdour,Jdour,32.1269,-8.7633,Morocco,MA,MAR,Marrakech-Safi,,20239.0,1504892254
Douar Lamrabih,Douar Lamrabih,34.8167,-5.8167,Morocco,MA,MAR,Rabat-Salé-Kénitra,,20187.0,1504888923
El Ksiba,El Ksiba,32.5681,-6.0308,Morocco,MA,MAR,Béni Mellal-Khénifra,,20001.0,1504390061
Sidi Taibi,Sidi Taibi,34.1917,-6.6845,Morocco,MA,MAR,Rabat-Salé-Kénitra,,19979.0,1504376928
’Ali Ben Sliman,'Ali Ben Sliman,31.91,-7.21,Morocco,MA,MAR,Marrakech-Safi,,19977.0,1504127885
Tarhzirt,Tarhzirt,32.4333,-6.1833,Morocco,MA,MAR,Béni Mellal-Khénifra,,19936.0,1504643080
Aït Tamlil,Ait Tamlil,31.48,-6.94,Morocco,MA,MAR,Béni Mellal-Khénifra,,19930.0,1504250838
Had Zraqtane,Had Zraqtane,31.45,-7.4,Morocco,MA,MAR,Marrakech-Safi,,19926.0,1504613352
El Mansouria,El Mansouria,33.75,-7.3,Morocco,MA,MAR,Casablanca-Settat,,19853.0,1504714536
Oulad Embarek,Oulad Embarek,32.2833,-6.4667,Morocco,MA,MAR,Béni Mellal-Khénifra,,19774.0,1504452976
Oulad Fraj,Oulad Fraj,32.9667,-8.2333,Morocco,MA,MAR,Casablanca-Settat,,19752.0,1504478947
Jnane Bouih,Jnane Bouih,32.0308,-8.7894,Morocco,MA,MAR,Marrakech-Safi,,19706.0,1504889186
Ahfir,Ahfir,34.9514,-2.1025,Morocco,MA,MAR,Oriental,,19630.0,1504027251
Ait Bousarane,Ait Bousarane,31.7318,-7.0876,Morocco,MA,MAR,Béni Mellal-Khénifra,,19501.0,1504791291
Ait Bouziyane,Ait Bouziyane,33.8167,-5.2749,Morocco,MA,MAR,Fès-Meknès,,19501.0,1504248874
Oulad Salmane,Oulad Salmane,34.3356,-6.4604,Morocco,MA,MAR,Rabat-Salé-Kénitra,,19488.0,1504113014
Douar Ait Sidi Daoud,Douar Ait Sidi Daoud,31.6347,-7.6444,Morocco,MA,MAR,Marrakech-Safi,,19286.0,1504024368
Al Brouj,Al Brouj,32.505,-7.1927,Morocco,MA,MAR,Casablanca-Settat,,19235.0,1504448147
Sidi Redouane,Sidi Redouane,34.6833,-5.45,Morocco,MA,MAR,Tanger-Tétouan-Al Hoceïma,,19169.0,1504580531
Zaouïa Aït Ishak,Zaouia Ait Ishak,32.76,-5.7233,Morocco,MA,MAR,Béni Mellal-Khénifra,,19133.0,1504322304
Imouzzer Kandar,Imouzzer Kandar,33.73,-5.01,Morocco,MA,MAR,Fès-Meknès,,19125.0,1504932203
Douar Toulal,Douar Toulal,33.8951,-5.6021,Morocco,MA,MAR,Fès-Meknès,,19077.0,1504858900
Ait Ben Daoudi,Ait Ben Daoudi,31.6345,-7.644,Morocco,MA,MAR,Marrakech-Safi,,18976.0,1504718613
Beni Zouli,Beni Zouli,30.4839,-5.8619,Morocco,MA,MAR,Drâa-Tafilalet,,18941.0,1504549752
Oulmes,Oulmes,33.445,-6.0011,Morocco,MA,MAR,Rabat-Salé-Kénitra,,18786.0,1504050150
Karia Ba Mohamed,Karia Ba Mohamed,34.3667,-5.2,Morocco,MA,MAR,Fès-Meknès,,18762.0,1504442421
Tata,Tata,29.7428,-7.9725,Morocco,MA,MAR,Souss-Massa,,18611.0,1504497241
Jbabra,Jbabra,34.4314,-4.9642,Morocco,MA,MAR,Fès-Meknès,,18592.0,1504581289
Tamri,Tamri,30.695,-9.825,Morocco,MA,MAR,Souss-Massa,,18577.0,1504501049
Sebt Gzoula,Sebt Gzoula,32.1167,-9.0833,Morocco,MA,MAR,Marrakech-Safi,,18543.0,1504003595
Chouafa,Chouafa,34.9468,-6.1667,Morocco,MA,MAR,Rabat-Salé-Kénitra,,18436.0,1504440228
Foum el Anser,Foum el Anser,32.3718,-6.2613,Morocco,MA,MAR,Béni Mellal-Khénifra,,18412.0,1504049816
Assa,Assa,28.6086,-9.4269,Morocco,MA,MAR,Guelmim-Oued Noun,,18367.0,1504311835
Lamrasla,Lamrasla,32.0247,-8.9153,Morocco,MA,MAR,Marrakech-Safi,,18335.0,1504000483
Aït Bouchta,Ait Bouchta,35.1056,-3.8503,Morocco,MA,MAR,Tanger-Tétouan-Al Hoceïma,,18271.0,1504367001
Bni Bouayach,Bni Bouayach,35.0986,-3.8397,Morocco,MA,MAR,Tanger-Tétouan-Al Hoceïma,,18271.0,1504579713
Ikniwn,Ikniwn,31.1736,-5.6733,Morocco,MA,MAR,Drâa-Tafilalet,,18235.0,1504281850
Bouarouss,Bouarouss,34.3667,-4.8167,Morocco,MA,MAR,Fès-Meknès,,18147.0,1504643537
Ghouazi,Ghouazi,34.4667,-5.3,Morocco,MA,MAR,Fès-Meknès,,18081.0,1504717727
Sidi Allal Tazi,Sidi Allal Tazi,34.5197,-6.3236,Morocco,MA,MAR,Rabat-Salé-Kénitra,,18055.0,1504240446
Douar Oulad Mbarek,Douar Oulad Mbarek,34.2833,-4.3167,Morocco,MA,MAR,Fès-Meknès,,17747.0,1504643299
Laatatra,Laatatra,32.6315,-8.4148,Morocco,MA,MAR,Casablanca-Settat,,17593.0,1504800245
Aït Majdane,Ait Majdane,31.8514,-6.9658,Morocco,MA,MAR,Béni Mellal-Khénifra,,17572.0,1504617199
Sahel,Sahel,34.9667,-4.55,Morocco,MA,MAR,Tanger-Tétouan-Al Hoceïma,,17496.0,1504781617
Dar Chaifat,Dar Chaifat,32.55,-7.5,Morocco,MA,MAR,Casablanca-Settat,,17454.0,1504290821
Awlouz,Awlouz,30.7,-8.15,Morocco,MA,MAR,Souss-Massa,,17409.0,1504521135
Milla’ab,Milla'ab,31.4737,-4.7424,Morocco,MA,MAR,Drâa-Tafilalet,,17360.0,1504537795
Ketama,Ketama,34.9158,-4.5686,Morocco,MA,MAR,Tanger-Tétouan-Al Hoceïma,,17351.0,1504947642
Galaz,Galaz,34.55,-4.8,Morocco,MA,MAR,Fès-Meknès,,17333.0,1504676326
Chouafaa,Chouafaa,34.7667,-6.05,Morocco,MA,MAR,Rabat-Salé-Kénitra,,17202.0,1504441282
Tagounite,Tagounite,29.9585,-5.9151,Morocco,MA,MAR,Drâa-Tafilalet,,17103.0,1504500189
Sidi Yakoub,Sidi Yakoub,31.6667,-7.0667,Morocco,MA,MAR,Béni Mellal-Khénifra,,17054.0,1504968095
Knemis Dades,Knemis Dades,31.309,-6.028,Morocco,MA,MAR,Drâa-Tafilalet,,17045.0,1504000136
Oulad Amrane,Oulad Amrane,32.2833,-9.2333,Morocco,MA,MAR,Marrakech-Safi,,16979.0,1504791859
Qal’at Mgouna,Qal'at Mgouna,31.2414,-6.1283,Morocco,MA,MAR,Drâa-Tafilalet,,16956.0,1504989758
Douar Lamjaara,Douar Lamjaara,34.6147,-5.2887,Morocco,MA,MAR,Tanger-Tétouan-Al Hoceïma,,16899.0,1504061051
Ratba,Ratba,34.7833,-4.9333,Morocco,MA,MAR,Fès-Meknès,,16825.0,1504991654
Sidi Lamine,Sidi Lamine,32.9,-6.05,Morocco,MA,MAR,Béni Mellal-Khénifra,,16808.0,1504670404
Ouaouzgane,Ouaouzgane,35.0167,-4.5167,Morocco,MA,MAR,Tanger-Tétouan-Al Hoceïma,,16772.0,1504425512
Ribat Al Khayr,Ribat Al Khayr,33.82,-4.41,Morocco,MA,MAR,Fès-Meknès,,16739.0,1504387842
Agourai,Agourai,33.6333,-5.5833,Morocco,MA,MAR,Fès-Meknès,,16651.0,1504734608
Sidi Ettiji,Sidi Ettiji,32.1717,-8.8686,Morocco,MA,MAR,Marrakech-Safi,,16649.0,1504984837
Douar Tabouda,Douar Tabouda,34.7167,-5.1333,Morocco,MA,MAR,Fès-Meknès,,16618.0,1504107473
Zirara,Zirara,32.35,-8.5333,Morocco,MA,MAR,Casablanca-Settat,,16606.0,1504681558
Mensora,Mensora,34.8356,-4.9655,Morocco,MA,MAR,Tanger-Tétouan-Al Hoceïma,,16559.0,1504316721
Tamallalt,Tamallalt,31.8289,-7.5261,Morocco,MA,MAR,Marrakech-Safi,,16539.0,1504009378
Goulmima,Goulmima,31.6944,-4.9592,Morocco,MA,MAR,Drâa-Tafilalet,,16419.0,1504139417
Outat Oulad Al Haj,Outat Oulad Al Haj,33.3333,-3.6833,Morocco,MA,MAR,Fès-Meknès,,16388.0,1504806480
Sebt Aït Saghiouchen,Sebt Ait Saghiouchen,34.0122,-4.5536,Morocco,MA,MAR,Fès-Meknès,,16362.0,1504600750
’Ayn Bni Mathar,'Ayn Bni Mathar,34.0889,-2.0247,Morocco,MA,MAR,Oriental,,16289.0,1504845272
Timezgana,Timezgana,34.5833,-4.7333,Morocco,MA,MAR,Fès-Meknès,,16172.0,1504420273
Talsint,Talsint,32.5398,-3.4408,Morocco,MA,MAR,Oriental,,16166.0,1504691780
Al Qbab,Al Qbab,32.7333,-5.5167,Morocco,MA,MAR,Béni Mellal-Khénifra,,16157.0,1504689479
Bni Tajjit,Bni Tajjit,32.2833,-3.4833,Morocco,MA,MAR,Oriental,,16149.0,1504670713
Zegzel,Zegzel,34.8407,-2.3543,Morocco,MA,MAR,Oriental,,16137.0,1504844688
Douar Azla,Douar Azla,35.5564,-5.2453,Morocco,MA,MAR,Tanger-Tétouan-Al Hoceïma,,16128.0,1504601982
Masmouda,Masmouda,34.7862,-5.7078,Morocco,MA,MAR,Tanger-Tétouan-Al Hoceïma,,16106.0,1504193768
Ait Yaazem,Ait Yaazem,33.7333,-5.5833,Morocco,MA,MAR,Fès-Meknès,,16091.0,1504697698
Bouchabel,Bouchabel,34.3833,-5.0167,Morocco,MA,MAR,Fès-Meknès,,16084.0,1504000782
Bni Quolla,Bni Quolla,34.738,-5.5441,Morocco,MA,MAR,Tanger-Tétouan-Al Hoceïma,,16049.0,1504770766
Bou Djeniba,Bou Djeniba,32.9,-6.7833,Morocco,MA,MAR,Béni Mellal-Khénifra,,16030.0,1504676510
Khat Azakane,Khat Azakane,32.2226,-9.1343,Morocco,MA,MAR,Marrakech-Safi,,16014.0,1504377421
Sidi Azzouz,Sidi Azzouz,31.7667,-7.6667,Morocco,MA,MAR,Marrakech-Safi,,16001.0,1504893148
Zemrane,Zemrane,31.67,-7.44,Morocco,MA,MAR,Marrakech-Safi,,15996.0,1504983059
Caidat Sidi Boubker El Haj,Caidat Sidi Boubker El Haj,34.9148,-6.0735,Morocco,MA,MAR,Rabat-Salé-Kénitra,,15990.0,1504131696
L’Oulja,L'Oulja,34.2894,-4.9481,Morocco,MA,MAR,Fès-Meknès,,15956.0,1504438935
Ras el Oued,Ras el Oued,34.15,-4.0,Morocco,MA,MAR,Fès-Meknès,,15949.0,1504000629
Haddada,Haddada,34.2236,-6.5111,Morocco,MA,MAR,Rabat-Salé-Kénitra,,15898.0,1504933242
Sidi Allal el Bahraoui,Sidi Allal el Bahraoui,33.983,-6.417,Morocco,MA,MAR,Rabat-Salé-Kénitra,,15866.0,1504503519
Tamazouzt,Tamazouzt,31.3833,-8.3833,Morocco,MA,MAR,Marrakech-Safi,,15846.0,1504120032
Ras El Oued,Ras El Oued,34.339,-4.5558,Morocco,MA,MAR,Fès-Meknès,,15778.0,1504323676
Aïn Mediouna,Ain Mediouna,34.5,-4.55,Morocco,MA,MAR,Fès-Meknès,,15770.0,1504603767
Sebt Bni Smith,Sebt Bni Smith,35.1373,-4.7107,Morocco,MA,MAR,Tanger-Tétouan-Al Hoceïma,,15577.0,1504877940
Skhour Rehamna,Skhour Rehamna,32.4833,-7.9167,Morocco,MA,MAR,Marrakech-Safi,,15479.0,1504150525
Al Hammam,Al Hammam,33.1868,-5.6225,Morocco,MA,MAR,Béni Mellal-Khénifra,,15438.0,1504972770
Ezzhiliga,Ezzhiliga,33.3,-6.5333,Morocco,MA,MAR,Rabat-Salé-Kénitra,,15430.0,1504882785
Anazzou,Anazzou,30.6333,-8.05,Morocco,MA,MAR,Souss-Massa,,15429.0,1504693352
Tendrara,Tendrara,33.05,-2.0,Morocco,MA,MAR,Oriental,,15390.0,1504340310
Aç-çahrij,Ac-cahrij,31.8,-7.14,Morocco,MA,MAR,Marrakech-Safi,,15385.0,1504655221
Moul El Bergui,Moul El Bergui,32.5113,-8.9849,Morocco,MA,MAR,Marrakech-Safi,,15342.0,1504152809
Aïn Jemaa,Ain Jemaa,34.0333,-5.8,Morocco,MA,MAR,Fès-Meknès,,15265.0,1504158964
Tazert,Tazert,31.6597,-7.4092,Morocco,MA,MAR,Marrakech-Safi,,15243.0,1504394144
Souk Et-Tleta des Oulad Hamdane,Souk Et-Tleta des Oulad Hamdane,33.1047,-8.2495,Morocco,MA,MAR,Casablanca-Settat,,15205.0,1504163979
Tirhassaline,Tirhassaline,32.7833,-5.65,Morocco,MA,MAR,Béni Mellal-Khénifra,,15204.0,1504798306
Douar El Arbaa Bou Quorra,Douar El Arbaa Bou Quorra,34.749,-5.1982,Morocco,MA,MAR,Tanger-Tétouan-Al Hoceïma,,15165.0,1504563622
Oulad Bou Rahmoun,Oulad Bou Rahmoun,32.2954,-6.6668,Morocco,MA,MAR,Béni Mellal-Khénifra,,15113.0,1504264037
Mellila,Mellila,33.3833,-7.1333,Morocco,MA,MAR,Casablanca-Settat,,15081.0,1504008725
Sabbah,Sabbah,33.8036,-7.0372,Morocco,MA,MAR,Rabat-Salé-Kénitra,,15029.0,1504883472
Midar,Midar,34.95,-3.5333,Morocco,MA,MAR,Oriental,,15021.0,1504267844
Esbiaat,Esbiaat,32.2044,-8.5608,Morocco,MA,MAR,Marrakech-Safi,,14986.0,1504764211
Douar Souk L‘qolla,Douar Souk L`qolla,35.0718,-5.5702,Morocco,MA,MAR,Tanger-Tétouan-Al Hoceïma,,14965.0,1504031338
Tabant,Tabant,31.6581,-6.42,Morocco,MA,MAR,Béni Mellal-Khénifra,,14963.0,1504160916
’Tlat Bni Oukil,'Tlat Bni Oukil,32.577,-6.84,Morocco,MA,MAR,Béni Mellal-Khénifra,,14960.0,1504789319
Sidi Zouine,Sidi Zouine,31.6706,-8.3508,Morocco,MA,MAR,Marrakech-Safi,,14954.0,1504333871
Oued Jdida,Oued Jdida,33.9333,-5.3667,Morocco,MA,MAR,Fès-Meknès,,14935.0,1504052620
Gourrama,Gourrama,32.3333,-4.0833,Morocco,MA,MAR,Drâa-Tafilalet,,14927.0,1504780592
Aghbal,Aghbal,34.9394,-2.1272,Morocco,MA,MAR,Oriental,,14908.0,1504000927
Nzalat Laadam,Nzalat Laadam,32.1,-7.95,Morocco,MA,MAR,Marrakech-Safi,,14838.0,1504318940
Ighrem n’Ougdal,Ighrem n'Ougdal,31.2333,-7.4333,Morocco,MA,MAR,Drâa-Tafilalet,,14804.0,1504078159
Bni Darkoul,Bni Darkoul,35.0563,-5.0688,Morocco,MA,MAR,Tanger-Tétouan-Al Hoceïma,,14779.0,1504747977
Driouch,Driouch,34.9833,-3.3833,Morocco,MA,MAR,Oriental,,14741.0,1504125393
Douar Oulad Driss,Douar Oulad Driss,31.9039,-8.3024,Morocco,MA,MAR,Marrakech-Safi,,14716.0,1504141138
Oulad Driss,Oulad Driss,31.9996,-8.2276,Morocco,MA,MAR,Marrakech-Safi,,14716.0,1504026756
Mediouna,Mediouna,33.45,-7.51,Morocco,MA,MAR,Casablanca-Settat,,14712.0,1504371270
Ifrane,Ifrane,33.5333,-5.1167,Morocco,MA,MAR,Fès-Meknès,,14659.0,1504656119
Wawizaght,Wawizaght,32.1586,-6.355,Morocco,MA,MAR,Béni Mellal-Khénifra,,14570.0,1504619132
Ayt ’Attou ou L’Arbi,Ayt 'Attou ou L'Arbi,31.5456,-8.2967,Morocco,MA,MAR,Marrakech-Safi,,14544.0,1504796196
Madagh,Madagh,35.0133,-2.3397,Morocco,MA,MAR,Oriental,,14486.0,1504000835
Boula’wane,Boula'wane,32.8607,-8.053,Morocco,MA,MAR,Casablanca-Settat,,14485.0,1504484491
Tagalft,Tagalft,32.2389,-6.1238,Morocco,MA,MAR,Béni Mellal-Khénifra,,14423.0,1504338163
Ourtzagh,Ourtzagh,34.55,-4.9333,Morocco,MA,MAR,Fès-Meknès,,14381.0,1504945412
Sidi Azzouz,Sidi Azzouz,34.5411,-5.7516,Morocco,MA,MAR,Rabat-Salé-Kénitra,,14356.0,1504816748
Zaouiat Moulay Bouchta El Khammar,Zaouiat Moulay Bouchta El Khammar,34.4833,-5.1167,Morocco,MA,MAR,Fès-Meknès,,14347.0,1504234234
Ihaddadene,Ihaddadene,31.2,-9.65,Morocco,MA,MAR,Marrakech-Safi,,14345.0,1504932139
Ait Yazza,Ait Yazza,30.5063,-8.7931,Morocco,MA,MAR,Souss-Massa,,14259.0,1504675685
Ben Taieb,Ben Taieb,35.0837,-3.4696,Morocco,MA,MAR,Oriental,,14257.0,1504783487
Tafrant,Tafrant,34.625,-5.1242,Morocco,MA,MAR,Fès-Meknès,,14246.0,1504722056
Bou Izakarn,Bou Izakarn,29.1667,-9.7333,Morocco,MA,MAR,Guelmim-Oued Noun,,14228.0,1504787076
Douar Hammadi,Douar Hammadi,31.609,-8.4604,Morocco,MA,MAR,Marrakech-Safi,,14227.0,1504604687
Bezou,Bezou,32.0833,-7.05,Morocco,MA,MAR,Béni Mellal-Khénifra,,14072.0,1504408285
Talwat,Talwat,31.2883,-7.2372,Morocco,MA,MAR,Drâa-Tafilalet,,14060.0,1504140319
Sidi Abdelkarim,Sidi Abdelkarim,33.1869,-7.2333,Morocco,MA,MAR,Casablanca-Settat,,14037.0,1504411270
Temsamane,Temsamane,35.1167,-3.6333,Morocco,MA,MAR,Oriental,,13920.0,1504304960
Oulad Chikh,Oulad Chikh,32.8544,-7.5386,Morocco,MA,MAR,Casablanca-Settat,,13866.0,1504262708
Toulal,Toulal,32.3036,-3.9861,Morocco,MA,MAR,Drâa-Tafilalet,,13852.0,1504925224
Khmis Sidi al ’Aydi,Khmis Sidi al 'Aydi,33.1228,-7.6219,Morocco,MA,MAR,Casablanca-Settat,,13839.0,1504059482
Arbaa Laaounate,Arbaa Laaounate,32.7446,-8.1942,Morocco,MA,MAR,Casablanca-Settat,,13793.0,1504711140
Douar Lehgagcha,Douar Lehgagcha,32.55,-8.7167,Morocco,MA,MAR,Casablanca-Settat,,13748.0,1504017254
Mqam at Tolba,Mqam at Tolba,34.0173,-6.25,Morocco,MA,MAR,Rabat-Salé-Kénitra,,13503.0,1504020296
Targuist,Targuist,34.95,-4.3,Morocco,MA,MAR,Tanger-Tétouan-Al Hoceïma,,13390.0,1504459578
Kissane Ltouqi,Kissane Ltouqi,34.6,-5.0833,Morocco,MA,MAR,Fès-Meknès,,13390.0,1504247609
Tounfit,Tounfit,32.4667,-5.2333,Morocco,MA,MAR,Drâa-Tafilalet,,13297.0,1504650500
Reggada,Reggada,29.5205,-9.6664,Morocco,MA,MAR,Souss-Massa,,13284.0,1504921230
Sebt Labrikiyne,Sebt Labrikiyne,32.2944,-8.0722,Morocco,MA,MAR,Marrakech-Safi,,13225.0,1504100244
El Kansera,El Kansera,34.0419,-5.9272,Morocco,MA,MAR,Rabat-Salé-Kénitra,,13209.0,1504142817
Douar Sidi Laaroussi,Douar Sidi Laaroussi,31.845,-9.1586,Morocco,MA,MAR,Marrakech-Safi,,13202.0,1504954714
Zayda,Zayda,32.8167,-4.95,Morocco,MA,MAR,Drâa-Tafilalet,,13181.0,1504467977
Asjen,Asjen,34.85,-5.6167,Morocco,MA,MAR,Tanger-Tétouan-Al Hoceïma,,13139.0,1504066835
Bhalil,Bhalil,33.85,-4.8667,Morocco,MA,MAR,Fès-Meknès,,12997.0,1504827842
Ksar Sghir,Ksar Sghir,35.8419,-5.5586,Morocco,MA,MAR,Tanger-Tétouan-Al Hoceïma,,12997.0,1504919377
Sebt Bni Garfett,Sebt Bni Garfett,35.25,-5.8333,Morocco,MA,MAR,Tanger-Tétouan-Al Hoceïma,,12994.0,1504641834
Bou Fekrane,Bou Fekrane,33.7667,-5.4833,Morocco,MA,MAR,Fès-Meknès,,12941.0,1504146532
Bni Khloug,Bni Khloug,32.65,-7.3833,Morocco,MA,MAR,Casablanca-Settat,,12930.0,1504624308
Douar Oulad Youssef,Douar Oulad Youssef,32.4807,-6.3769,Morocco,MA,MAR,Béni Mellal-Khénifra,,12804.0,1504001351
Kasba Tanora,Kasba Tanora,32.4751,-6.1498,Morocco,MA,MAR,Béni Mellal-Khénifra,,12783.0,1504367360
Aghbala,Aghbala,32.4833,-5.6333,Morocco,MA,MAR,Béni Mellal-Khénifra,,12781.0,1504000722
Tizgane,Tizgane,35.4136,-5.0696,Morocco,MA,MAR,Tanger-Tétouan-Al Hoceïma,,12773.0,1504806808
Zag,Zag,28.0167,-9.3333,Morocco,MA,MAR,Guelmim-Oued Noun,,12763.0,1504746689
Oulad Rahmoun,Oulad Rahmoun,32.3278,-6.5006,Morocco,MA,MAR,Béni Mellal-Khénifra,,12720.0,1504810043
Laamarna,Laamarna,31.8944,-8.9842,Morocco,MA,MAR,Marrakech-Safi,,12717.0,1504140780
Bou Adel,Bou Adel,34.5428,-4.5075,Morocco,MA,MAR,Fès-Meknès,,12684.0,1504793576
Aït Youssef Ou Ali,Ait Youssef Ou Ali,31.9833,-5.7833,Morocco,MA,MAR,Drâa-Tafilalet,,12673.0,1504087117
Ahermoumou,Ahermoumou,33.8184,-4.4106,Morocco,MA,MAR,Fès-Meknès,,12654.0,1504332158
El Menzel,El Menzel,33.8389,-4.5458,Morocco,MA,MAR,Fès-Meknès,,12641.0,1504965368
Souakene,Souakene,35.1167,-5.95,Morocco,MA,MAR,Tanger-Tétouan-Al Hoceïma,,12632.0,1504734379
Teroual,Teroual,34.6667,-5.2667,Morocco,MA,MAR,Tanger-Tétouan-Al Hoceïma,,12621.0,1504418024
Tamsaout,Tamsaout,29.5333,-8.85,Morocco,MA,MAR,Souss-Massa,,12610.0,1504846802
Oulad Ouchchih,Oulad Ouchchih,35.0939,-5.9454,Morocco,MA,MAR,Tanger-Tétouan-Al Hoceïma,,12608.0,1504064976
Ounagha,Ounagha,31.5333,-9.55,Morocco,MA,MAR,Marrakech-Safi,,12461.0,1504589161
Boumia,Boumia,32.7228,-5.1053,Morocco,MA,MAR,Drâa-Tafilalet,,12444.0,1504947716
Oulad Fares,Oulad Fares,35.5167,-5.9333,Morocco,MA,MAR,Tanger-Tétouan-Al Hoceïma,,12341.0,1504046403
Oulad Aïssa,Oulad Aissa,30.558,-8.614,Morocco,MA,MAR,Souss-Massa,,12331.0,1504718030
Jaidte Lbatma,Jaidte Lbatma,31.6806,-7.7281,Morocco,MA,MAR,Marrakech-Safi,,12330.0,1504017587
Boumalne,Boumalne,31.4236,-6.0722,Morocco,MA,MAR,Drâa-Tafilalet,,12328.0,1504840361
Nkheila,Nkheila,32.9239,-7.0692,Morocco,MA,MAR,Casablanca-Settat,,12306.0,1504638850
Aj Jourf,Aj Jourf,31.4903,-4.4014,Morocco,MA,MAR,Drâa-Tafilalet,,12302.0,1504982069
Ar Rommani,Ar Rommani,33.5333,-6.6167,Morocco,MA,MAR,Rabat-Salé-Kénitra,,12297.0,1504782261
Ain Kansara,Ain Kansara,34.15,-4.8314,Morocco,MA,MAR,Fès-Meknès,,12291.0,1504724133
Guisser,Guisser,32.7667,-7.5,Morocco,MA,MAR,Casablanca-Settat,,12289.0,1504348253
Gharbia,Gharbia,35.5153,-5.9306,Morocco,MA,MAR,Tanger-Tétouan-Al Hoceïma,,12274.0,1504656773
Oulad Hamdane,Oulad Hamdane,32.3736,-8.5395,Morocco,MA,MAR,Marrakech-Safi,,12252.0,1504871479
Malloussa,Malloussa,35.7333,-5.6333,Morocco,MA,MAR,Tanger-Tétouan-Al Hoceïma,,12250.0,1504867364
Tahannawt,Tahannawt,31.3514,-7.9508,Morocco,MA,MAR,Marrakech-Safi,,12102.0,1504266057
Mayate,Mayate,32.2667,-7.5167,Morocco,MA,MAR,Marrakech-Safi,,12101.0,1504516626
Steha,Steha,35.3646,-4.9306,Morocco,MA,MAR,Tanger-Tétouan-Al Hoceïma,,12034.0,1504350850
Al Fayd,Al Fayd,30.6167,-8.2167,Morocco,MA,MAR,Souss-Massa,,12011.0,1504770478
Oulad Daoud,Oulad Daoud,34.4058,-4.6939,Morocco,MA,MAR,Fès-Meknès,,11978.0,1504977021
Ain Beida,Ain Beida,31.585,-8.608,Morocco,MA,MAR,Marrakech-Safi,,11978.0,1504673651
Souq Jamaa Fdalate,Souq Jamaa Fdalate,33.5911,-7.2792,Morocco,MA,MAR,Casablanca-Settat,,11966.0,1504280232
Sidi Yahia,Sidi Yahia,30.4969,-8.8211,Morocco,MA,MAR,Souss-Massa,,11955.0,1504503193
Aït I’yach,Ait I'yach,32.6667,-4.9556,Morocco,MA,MAR,Drâa-Tafilalet,,11946.0,1504002583
Matmata,Matmata,34.1,-4.55,Morocco,MA,MAR,Fès-Meknès,,11928.0,1504966128
Tizi Nisly,Tizi Nisly,32.4667,-5.7667,Morocco,MA,MAR,Béni Mellal-Khénifra,,11918.0,1504779871
Zemamra,Zemamra,32.6215,-8.7023,Morocco,MA,MAR,Casablanca-Settat,,11896.0,1504256384
Oulad Amrane el Mekki,Oulad Amrane el Mekki,35.2167,-5.9667,Morocco,MA,MAR,Tanger-Tétouan-Al Hoceïma,,11866.0,1504220156
El Arba Des Bir Lenni,El Arba Des Bir Lenni,34.3272,-4.2039,Morocco,MA,MAR,Fès-Meknès,,11866.0,1504816982
Tiddas,Tiddas,33.5665,-6.2659,Morocco,MA,MAR,Rabat-Salé-Kénitra,,11831.0,1504837627
Toualet,Toualet,32.7333,-7.1833,Morocco,MA,MAR,Casablanca-Settat,,11815.0,1504141379
Sidi Amer El Hadi,Sidi Amer El Hadi,34.7992,-5.8394,Morocco,MA,MAR,Rabat-Salé-Kénitra,,11814.0,1504103648
Tifni,Tifni,31.6281,-6.9444,Morocco,MA,MAR,Béni Mellal-Khénifra,,11760.0,1504629455
Tamezmout,Tamezmout,30.8075,-6.1142,Morocco,MA,MAR,Drâa-Tafilalet,,11697.0,1504920011
Moulay Driss Zerhoun,Moulay Driss Zerhoun,34.0542,-5.5272,Morocco,MA,MAR,Fès-Meknès,,11615.0,1504880171
Oulad Friha,Oulad Friha,32.6108,-7.625,Morocco,MA,MAR,Casablanca-Settat,,11581.0,1504629949
Oulad Hamdane,Oulad Hamdane,32.3333,-6.3667,Morocco,MA,MAR,Béni Mellal-Khénifra,,11577.0,1504839995
Derdara,Derdara,35.1103,-5.2872,Morocco,MA,MAR,Tanger-Tétouan-Al Hoceïma,,11547.0,1504274445
Sidi Kasem,Sidi Kasem,35.5339,-5.2183,Morocco,MA,MAR,Tanger-Tétouan-Al Hoceïma,,11537.0,1504343854
Taïneste,Taineste,34.5573,-4.136,Morocco,MA,MAR,Fès-Meknès,,11530.0,1504640576
Al M’aziz,Al M'aziz,33.6667,-6.3167,Morocco,MA,MAR,Rabat-Salé-Kénitra,,11502.0,1504103308
Dzouz,Dzouz,31.89,-7.32,Morocco,MA,MAR,Marrakech-Safi,,11501.0,1504484074
Bouabout,Bouabout,31.2667,-9.1833,Morocco,MA,MAR,Marrakech-Safi,,11494.0,1504119259
Tawnza,Tawnza,32.0944,-6.6025,Morocco,MA,MAR,Béni Mellal-Khénifra,,11488.0,1504959614
Douar Trougout,Douar Trougout,35.18,-3.77,Morocco,MA,MAR,Oriental,,11458.0,1504618230
Ahlaf,Ahlaf,33.2833,-7.2,Morocco,MA,MAR,Casablanca-Settat,,11451.0,1504239196
Sidi Moussa Ben Ali,Sidi Moussa Ben Ali,33.5594,-7.3817,Morocco,MA,MAR,Casablanca-Settat,,11445.0,1504600250
El Khemis des Beni Chegdal,El Khemis des Beni Chegdal,32.4441,-6.9551,Morocco,MA,MAR,Béni Mellal-Khénifra,,11444.0,1504549116
Amdel,Amdel,31.5617,-8.8944,Morocco,MA,MAR,Marrakech-Safi,,11438.0,1504656724
Ain Legdah,Ain Legdah,34.1667,-4.5,Morocco,MA,MAR,Fès-Meknès,,11422.0,1504429679
Laqraqra,Laqraqra,32.4333,-7.4333,Morocco,MA,MAR,Marrakech-Safi,,11419.0,1504203728
Douar Sgarta,Douar Sgarta,32.1667,-7.6333,Morocco,MA,MAR,Marrakech-Safi,,11387.0,1504288503
Lahfayr,Lahfayr,30.57,-8.4878,Morocco,MA,MAR,Souss-Massa,,11374.0,1504992138
Boudenib,Boudenib,31.9497,-3.6078,Morocco,MA,MAR,Drâa-Tafilalet,,11373.0,1504858254
Tilmi,Tilmi,31.8189,-5.7718,Morocco,MA,MAR,Drâa-Tafilalet,,11372.0,1504580420
Douar Oulad Naoual,Douar Oulad Naoual,34.4936,-5.7108,Morocco,MA,MAR,Rabat-Salé-Kénitra,,11371.0,1504215350
Lamsabih,Lamsabih,32.2933,-8.6889,Morocco,MA,MAR,Marrakech-Safi,,11339.0,1504233689
Ouaklim Oukider,Ouaklim Oukider,31.45,-5.55,Morocco,MA,MAR,Drâa-Tafilalet,,11338.0,1504219729
Jem’at Oulad ’Abbou,Jem'at Oulad 'Abbou,33.1156,-7.9333,Morocco,MA,MAR,Casablanca-Settat,,11299.0,1504650087
Lafrayta,Lafrayta,31.9167,-7.25,Morocco,MA,MAR,Marrakech-Safi,,11298.0,1504011173
Commune Sidi Youssef Ben Ahmed,Commune Sidi Youssef Ben Ahmed,33.7861,-4.8152,Morocco,MA,MAR,Fès-Meknès,,11292.0,1504774244
El Ghourdane,El Ghourdane,32.3205,-8.7637,Morocco,MA,MAR,Marrakech-Safi,,11291.0,1504617504
Jamaat Shaim,Jamaat Shaim,32.3486,-8.8431,Morocco,MA,MAR,Marrakech-Safi,,11251.0,1504695746
Touama,Touama,31.5339,-7.4872,Morocco,MA,MAR,Marrakech-Safi,,11243.0,1504529527
Sidi Abdellah Ben Taazizt,Sidi Abdellah Ben Taazizt,34.0019,-5.3695,Morocco,MA,MAR,Fès-Meknès,,11227.0,1504278658
Iygli,Iygli,29.5001,-9.0501,Morocco,MA,MAR,Souss-Massa,,11197.0,1504318474
Tissa,Tissa,35.0228,-4.1408,Morocco,MA,MAR,Fès-Meknès,,11195.0,1504017756
Douar Jwalla,Douar Jwalla,31.89,-7.44,Morocco,MA,MAR,Marrakech-Safi,,11168.0,1504383482
Boujediane,Boujediane,35.1114,-5.7823,Morocco,MA,MAR,Tanger-Tétouan-Al Hoceïma,,11166.0,1504110188
Douar Ain Maatouf,Douar Ain Maatouf,34.4352,-4.5566,Morocco,MA,MAR,Fès-Meknès,,11165.0,1504798283
Zaouiet Says,Zaouiet Says,32.7931,-8.6506,Morocco,MA,MAR,Casablanca-Settat,,11160.0,1504180910
Iazizatene,Iazizatene,35.2544,-3.115,Morocco,MA,MAR,Oriental,,11131.0,1504122645
Kariat Ben Aouda,Kariat Ben Aouda,34.7667,-5.95,Morocco,MA,MAR,Rabat-Salé-Kénitra,,11087.0,1504991922
Farkhâna,Farkhana,35.2833,-3.0167,Morocco,MA,MAR,Oriental,,10994.0,1504047941
Takad Sahel,Takad Sahel,30.25,-9.55,Morocco,MA,MAR,Souss-Massa,,10968.0,1504426241
Timahdit,Timahdit,33.2369,-5.06,Morocco,MA,MAR,Fès-Meknès,,10945.0,1504460788
Bni Drar,Bni Drar,34.8578,-1.9928,Morocco,MA,MAR,Oriental,,10934.0,1504593239
Figuig,Figuig,32.1167,-1.2269,Morocco,MA,MAR,Oriental,,10872.0,1504487887
Imi Mokorn,Imi Mokorn,30.1675,-9.2322,Morocco,MA,MAR,Souss-Massa,,10748.0,1504588665
Douar Bouchfaa,Douar Bouchfaa,34.1014,-4.2939,Morocco,MA,MAR,Fès-Meknès,,10724.0,1504240184
Tanant,Tanant,31.8667,-6.95,Morocco,MA,MAR,Béni Mellal-Khénifra,,10706.0,1504879588
Arbaa Sahel,Arbaa Sahel,29.5993,-9.877,Morocco,MA,MAR,Souss-Massa,,10705.0,1504199672
Taouloukoult,Taouloukoult,31.2167,-9.0833,Morocco,MA,MAR,Marrakech-Safi,,10682.0,1504583141
Agdz,Agdz,30.6978,-6.4497,Morocco,MA,MAR,Drâa-Tafilalet,,10681.0,1504481123
Sebt Ait Ikkou,Sebt Ait Ikkou,33.6686,-6.1372,Morocco,MA,MAR,Rabat-Salé-Kénitra,,10676.0,1504653022
Lamhadi,Lamhadi,32.3,-9.0167,Morocco,MA,MAR,Marrakech-Safi,,10651.0,1504208121
Hetane,Hetane,32.8403,-6.8025,Morocco,MA,MAR,Béni Mellal-Khénifra,,10618.0,1504001674
Itzer,Itzer,32.8833,-5.05,Morocco,MA,MAR,Drâa-Tafilalet,,10613.0,1504216124
Toundout,Toundout,31.2667,-6.5833,Morocco,MA,MAR,Drâa-Tafilalet,,10606.0,1504645333
Abadou,Abadou,31.5797,-7.3122,Morocco,MA,MAR,Marrakech-Safi,,10602.0,1504229584
Aïn Zora,Ain Zora,34.66,-3.53,Morocco,MA,MAR,Oriental,,10601.0,1504442402
Aït Hani,Ait Hani,31.7786,-5.4555,Morocco,MA,MAR,Drâa-Tafilalet,,10587.0,1504963024
Tamanar,Tamanar,31.0,-9.6667,Morocco,MA,MAR,Marrakech-Safi,,10584.0,1504600694
Had Laaounate,Had Laaounate,32.6128,-8.2256,Morocco,MA,MAR,Casablanca-Settat,,10580.0,1504308918
Tourza,Tourza,29.4778,-10.0158,Morocco,MA,MAR,Guelmim-Oued Noun,,10577.0,1504097455
Amtar,Amtar,35.2385,-4.7943,Morocco,MA,MAR,Tanger-Tétouan-Al Hoceïma,,10574.0,1504617084
Mokrisset,Mokrisset,34.91,-5.3536,Morocco,MA,MAR,Tanger-Tétouan-Al Hoceïma,,10545.0,1504941621
Tilougguit,Tilougguit,32.0333,-6.2,Morocco,MA,MAR,Béni Mellal-Khénifra,,10544.0,1504513715
Sidi Bousber,Sidi Bousber,34.5667,-5.3667,Morocco,MA,MAR,Tanger-Tétouan-Al Hoceïma,,10528.0,1504787633
Souq Sebt Says,Souq Sebt Says,32.7773,-8.6433,Morocco,MA,MAR,Casablanca-Settat,,10488.0,1504725186
Sidi Abdallah,Sidi Abdallah,32.5783,-7.8108,Morocco,MA,MAR,Marrakech-Safi,,10481.0,1504890231
Sidi Boushab,Sidi Boushab,30.074,-9.279,Morocco,MA,MAR,Souss-Massa,,10438.0,1504333059
Zawyat Ahançal,Zawyat Ahancal,31.8325,-6.1056,Morocco,MA,MAR,Béni Mellal-Khénifra,,10435.0,1504237708
Awfouss,Awfouss,31.6833,-4.1667,Morocco,MA,MAR,Drâa-Tafilalet,,10424.0,1504561866
Oulad Slim,Oulad Slim,32.7775,-7.7725,Morocco,MA,MAR,Casablanca-Settat,,10410.0,1504468299
Oued Amlil,Oued Amlil,34.2,-4.2833,Morocco,MA,MAR,Fès-Meknès,,10405.0,1504286809
Brikcha,Brikcha,34.9667,-5.5833,Morocco,MA,MAR,Tanger-Tétouan-Al Hoceïma,,10399.0,1504666840
Douar Echbanat,Douar Echbanat,34.214,-5.3508,Morocco,MA,MAR,Fès-Meknès,,10371.0,1504340049
Tnine Sidi Lyamani,Tnine Sidi Lyamani,35.37,-5.97,Morocco,MA,MAR,Tanger-Tétouan-Al Hoceïma,,10365.0,1504028221
Beni Oulid,Beni Oulid,34.5897,-4.4514,Morocco,MA,MAR,Fès-Meknès,,10324.0,1504501654
Aghbalou n’Kerdous,Aghbalou n'Kerdous,31.6767,-5.2976,Morocco,MA,MAR,Drâa-Tafilalet,,10313.0,1504201813
Bounaamane,Bounaamane,29.5283,-9.8044,Morocco,MA,MAR,Souss-Massa,,10310.0,1504463740
Jaqma,Jaqma,33.292,-7.44,Morocco,MA,MAR,Casablanca-Settat,,10306.0,1504002032
Dar Si Aissa,Dar Si Aissa,32.4199,-8.908,Morocco,MA,MAR,Marrakech-Safi,,10266.0,1504931442
Sgamna,Sgamna,32.7342,-7.2025,Morocco,MA,MAR,Casablanca-Settat,,10245.0,1504088334
Ksar Lmajaz,Ksar Lmajaz,35.8428,-5.5586,Morocco,MA,MAR,Tanger-Tétouan-Al Hoceïma,,10237.0,1504167905
Douar Mzoura,Douar Mzoura,34.3167,-5.9333,Morocco,MA,MAR,Rabat-Salé-Kénitra,,10194.0,1504336708
Jemaat Oulad Mhamed,Jemaat Oulad Mhamed,33.0938,-7.0519,Morocco,MA,MAR,Casablanca-Settat,,10187.0,1504791929
Msila,Msila,35.2,-5.5667,Morocco,MA,MAR,Tanger-Tétouan-Al Hoceïma,,10153.0,1504170765
Aïn Zohra,Ain Zohra,34.1,-6.35,Morocco,MA,MAR,Rabat-Salé-Kénitra,,10151.0,1504551981
Za’roura,Za'roura,35.2167,-5.6667,Morocco,MA,MAR,Tanger-Tétouan-Al Hoceïma,,10137.0,1504534822
La’tamna,La'tamna,31.91,-7.34,Morocco,MA,MAR,Marrakech-Safi,,10063.0,1504778865
Jafra,Jafra,31.5145,-8.7555,Morocco,MA,MAR,Marrakech-Safi,,10060.0,1504134756
Taghbalt,Taghbalt,30.62,-5.35,Morocco,MA,MAR,Drâa-Tafilalet,,10054.0,1504290154
Bou’nane,Bou'nane,32.0275,-3.04,Morocco,MA,MAR,Oriental,,10035.0,1504957509
Zaggota,Zaggota,34.1667,-5.5333,Morocco,MA,MAR,Rabat-Salé-Kénitra,,10032.0,1504666777
Tarhjicht,Tarhjicht,29.0564,-9.4281,Morocco,MA,MAR,Guelmim-Oued Noun,,9988.0,1504845971
Kenafif,Kenafif,30.4167,-9.0333,Morocco,MA,MAR,Souss-Massa,,9936.0,1504378442
Dar El Kebdani,Dar El Kebdani,35.1203,-3.3322,Morocco,MA,MAR,Oriental,,9911.0,1504332737
Sidi Rahhal,Sidi Rahhal,31.6667,-7.4833,Morocco,MA,MAR,Marrakech-Safi,,9906.0,1504761731
Kourimat,Kourimat,31.45,-9.3167,Morocco,MA,MAR,Marrakech-Safi,,9897.0,1504079071
Ech Chaïbat,Ech Chaibat,31.6,-7.85,Morocco,MA,MAR,Marrakech-Safi,,9877.0,1504590724
Foum Jam’a,Foum Jam'a,31.96,-6.98,Morocco,MA,MAR,Béni Mellal-Khénifra,,9873.0,1504414947
Douar Snada,Douar Snada,35.0667,-4.2167,Morocco,MA,MAR,Tanger-Tétouan-Al Hoceïma,,9870.0,1504701788
Boudinar,Boudinar,35.15,-3.6333,Morocco,MA,MAR,Oriental,,9863.0,1504277185
Outa Bouabane,Outa Bouabane,34.2606,-4.4139,Morocco,MA,MAR,Fès-Meknès,,9856.0,1504009188
Oulad ’Azzouz,Oulad 'Azzouz,32.7693,-6.7543,Morocco,MA,MAR,Béni Mellal-Khénifra,,9815.0,1504559202
Imlil,Imlil,31.7567,-7.0106,Morocco,MA,MAR,Béni Mellal-Khénifra,,9796.0,1504125012
Tiztoutine,Tiztoutine,34.9833,-3.15,Morocco,MA,MAR,Oriental,,9788.0,1504907240
Tadla,Tadla,32.4409,-8.3708,Morocco,MA,MAR,Marrakech-Safi,,9750.0,1504540569
Ain Karma,Ain Karma,34.0071,-5.6182,Morocco,MA,MAR,Fès-Meknès,,9738.0,1504336348
Aghbalou Aqourar,Aghbalou Aqourar,33.9341,-4.7381,Morocco,MA,MAR,Fès-Meknès,,9715.0,1504995287
Douar Lehouifrat,Douar Lehouifrat,32.28,-8.31,Morocco,MA,MAR,Marrakech-Safi,,9705.0,1504757840
Aklim,Aklim,34.9167,-2.4333,Morocco,MA,MAR,Oriental,,9695.0,1504687369
Sidi Ahmed El Khadir,Sidi Ahmed El Khadir,32.5167,-7.3833,Morocco,MA,MAR,Casablanca-Settat,,9687.0,1504732408
’Aïn Leuh,'Ain Leuh,33.2833,-5.3833,Morocco,MA,MAR,Fès-Meknès,,9669.0,1504668626
Oued Laou,Oued Laou,35.45,-5.0833,Morocco,MA,MAR,Tanger-Tétouan-Al Hoceïma,,9665.0,1504708598
Bni Boufrah,Bni Boufrah,35.1,-4.3167,Morocco,MA,MAR,Tanger-Tétouan-Al Hoceïma,,9653.0,1504305838
Oulad Imloul,Oulad Imloul,32.0333,-7.7167,Morocco,MA,MAR,Marrakech-Safi,,9614.0,1504403330
Bou Zemou,Bou Zemou,32.1114,-5.5197,Morocco,MA,MAR,Drâa-Tafilalet,,9583.0,1504737844
Oulad Ayyad,Oulad Ayyad,32.3333,-6.3833,Morocco,MA,MAR,Béni Mellal-Khénifra,,9566.0,1504480318
Tatoufet,Tatoufet,35.0339,-5.7706,Morocco,MA,MAR,Tanger-Tétouan-Al Hoceïma,,9527.0,1504842271
Zawyat Sidi Ben Hamdoun,Zawyat Sidi Ben Hamdoun,33.045,-7.929,Morocco,MA,MAR,Casablanca-Settat,,9521.0,1504593978
Bni Gmil,Bni Gmil,35.0833,-4.3833,Morocco,MA,MAR,Tanger-Tétouan-Al Hoceïma,,9513.0,1504140120
Douar Messassa,Douar Messassa,34.2803,-4.5336,Morocco,MA,MAR,Fès-Meknès,,9501.0,1504026758
