city,city_ascii,lat,lng,country,iso2,iso3,admin_name,capital,population,id
Manila,Manila,14.5958,120.9772,Philippines,PH,PHL,Manila,primary,24922000.0,1608618140
Quezon City,Quezon City,14.65,121.0475,Philippines,PH,PHL,Quezon,admin,2960048.0,1608974097
Zamboanga City,Zamboanga City,6.9042,122.0761,Philippines,PH,PHL,Zamboanga,admin,2100000.0,1608189351
Davao,Davao,7.07,125.6,Philippines,PH,PHL,Davao,admin,1776949.0,1608906877
Caloocan City,Caloocan City,14.65,120.97,Philippines,PH,PHL,Caloocan,admin,1661584.0,1608897690
Canagatan,Canagatan,18.0,121.8,Philippines,PH,PHL,Cagayan,,1273219.0,1608697675
Cebu City,Cebu City,10.32,123.75,Philippines,PH,PHL,Cebu,admin,964169.0,1608136151
Antipolo,Antipolo,14.5842,121.1763,Philippines,PH,PHL,Rizal,admin,887399.0,1608824345
Taguig City,Taguig City,14.52,121.05,Philippines,PH,PHL,Taguig,admin,886722.0,1608766695
Pasig City,Pasig City,14.5605,121.0765,Philippines,PH,PHL,Pasig,admin,803159.0,1608278212
Cagayan de Oro,Cagayan de Oro,8.48,124.65,Philippines,PH,PHL,Cagayan de Oro,admin,728402.0,1608831546
Valenzuela,Valenzuela,14.7,120.98,Philippines,PH,PHL,Valenzuela,admin,714978.0,1608492120
Dasmariñas,Dasmarinas,14.33,120.94,Philippines,PH,PHL,Cavite,,703141.0,1608418544
General Santos,General Santos,6.12,125.17,Philippines,PH,PHL,General Santos,admin,697315.0,1608171585
City of Parañaque,City of Paranaque,14.5008,120.9915,Philippines,PH,PHL,Parañaque,admin,689992.0,1608379532
Bacoor,Bacoor,14.4624,120.9645,Philippines,PH,PHL,Cavite,,664625.0,1608869358
Tondo,Tondo,14.617,120.967,Philippines,PH,PHL,Manila,,654220.0,1608204201
San Jose del Monte,San Jose del Monte,14.8139,121.0453,Philippines,PH,PHL,Bulacan,,651813.0,1608850554
Makati City,Makati City,14.5567,121.0214,Philippines,PH,PHL,Makati,admin,629616.0,1608725647
Las Piñas City,Las Pinas City,14.45,120.98,Philippines,PH,PHL,Las Piñas,,606293.0,1608544537
Bacolod,Bacolod,10.6765,122.9509,Philippines,PH,PHL,Bacolod,admin,600783.0,1608244137
Iloilo,Iloilo,10.72,122.57,Philippines,PH,PHL,Iloilo,admin,574000.0,1608875987
Muntinlupa City,Muntinlupa City,14.38,121.05,Philippines,PH,PHL,Muntinlupa,admin,543445.0,1608473406
City of Calamba,City of Calamba,14.22,121.17,Philippines,PH,PHL,Laguna,,539671.0,1608985581
Lapu-Lapu City,Lapu-Lapu City,10.3127,123.9488,Philippines,PH,PHL,Lapu-Lapu,admin,497604.0,1608430676
Imus,Imus,14.4297,120.9367,Philippines,PH,PHL,Cavite,,496794.0,1608802508
Angeles City,Angeles City,15.1472,120.5847,Philippines,PH,PHL,Angeles,admin,462928.0,1608036027
Marikina City,Marikina City,14.65,121.1,Philippines,PH,PHL,Marikina,admin,456059.0,1608000077
General Trias,General Trias,14.38,120.88,Philippines,PH,PHL,Cavite,,450583.0,1608826995
Rodriguez,Rodriguez,14.72,121.12,Philippines,PH,PHL,Rizal,,443954.0,1608543530
Pasay City,Pasay City,14.55,121.0,Philippines,PH,PHL,Pasay,admin,440656.0,1608448280
Mandaluyong City,Mandaluyong City,14.58,121.03,Philippines,PH,PHL,Mandaluyong,admin,425758.0,1608166320
Santa Rosa,Santa Rosa,14.32,121.12,Philippines,PH,PHL,Laguna,,414812.0,1608571683
Biñan,Binan,14.33,121.08,Philippines,PH,PHL,Laguna,,407437.0,1608039268
Sampaloc,Sampaloc,14.6031,121.0022,Philippines,PH,PHL,Manila,,388305.0,1608298987
Taytay,Taytay,14.5692,121.1325,Philippines,PH,PHL,Rizal,,386451.0,1608530771
Tarlac City,Tarlac City,15.4869,120.59,Philippines,PH,PHL,Tarlac,admin,385398.0,1608237027
Malabon,Malabon,14.66,120.96,Philippines,PH,PHL,Malabon,admin,380522.0,1608045841
Cainta,Cainta,14.57,121.12,Philippines,PH,PHL,Rizal,,376933.0,1608314665
Lipa City,Lipa City,13.9411,121.1622,Philippines,PH,PHL,Batangas,,372931.0,1608615113
Butuan,Butuan,8.948,125.543,Philippines,PH,PHL,Butuan,admin,372910.0,1608000722
Baguio City,Baguio City,16.4119,120.5933,Philippines,PH,PHL,Baguio,admin,366358.0,1608164766
Mandaue City,Mandaue City,10.33,123.93,Philippines,PH,PHL,Mandaue,admin,364116.0,1608794590
Iligan,Iligan,8.23,124.25,Philippines,PH,PHL,Iligan,admin,363115.0,1608000268
Cabuyao,Cabuyao,14.275,121.125,Philippines,PH,PHL,Laguna,,355330.0,1608604441
San Fernando,San Fernando,15.03,120.68,Philippines,PH,PHL,Pampanga,admin,354666.0,1608862124
Batangas,Batangas,13.83,121.0,Philippines,PH,PHL,Batangas,admin,351437.0,1608417616
Naga City,Naga City,13.6244,123.1864,Philippines,PH,PHL,Naga,admin,342769.0,1608775993
Cabanatuan City,Cabanatuan City,15.4908,120.9678,Philippines,PH,PHL,Nueva Ecija,,327325.0,1608247694
San Pedro,San Pedro,14.3583,121.0583,Philippines,PH,PHL,Laguna,,326001.0,1608848483
Cotabato,Cotabato,7.22,124.25,Philippines,PH,PHL,Cotabato,admin,325079.0,1608753128
Binangonan,Binangonan,14.4514,121.1919,Philippines,PH,PHL,Rizal,,313631.0,1608102511
Tanza,Tanza,14.3944,120.8531,Philippines,PH,PHL,Cavite,,312116.0,1608010777
Puerto Princesa,Puerto Princesa,9.75,118.75,Philippines,PH,PHL,Puerto Princesa,admin,307079.0,1608455700
Tagum,Tagum,7.4478,125.8078,Philippines,PH,PHL,Davao del Norte,admin,296202.0,1608755366
Silang,Silang,14.2306,120.975,Philippines,PH,PHL,Cavite,,295644.0,1608301996
Mabalacat,Mabalacat,15.22,120.58,Philippines,PH,PHL,Pampanga,,293244.0,1608402560
Santa Maria,Santa Maria,14.82,120.96,Philippines,PH,PHL,Bulacan,,289820.0,1608186208
San Pablo,San Pablo,14.07,121.325,Philippines,PH,PHL,Laguna,,285348.0,1608801564
Lucena,Lucena,13.93,121.62,Philippines,PH,PHL,Lucena,admin,278924.0,1608000461
San Mateo,San Mateo,14.6969,121.1219,Philippines,PH,PHL,Rizal,,273306.0,1608557779
Talisay,Talisay,10.25,123.83,Philippines,PH,PHL,Cebu,,263048.0,1608040297
Malolos,Malolos,14.8433,120.8114,Philippines,PH,PHL,Bulacan,admin,261189.0,1608358783
Olongapo,Olongapo,14.83,120.28,Philippines,PH,PHL,Olongapo,admin,260317.0,1608001640
Marilao,Marilao,14.7581,120.9481,Philippines,PH,PHL,Bulacan,,254453.0,1608371779
Tacloban,Tacloban,11.24,125.0,Philippines,PH,PHL,Tacloban,admin,251881.0,1608710592
Navotas,Navotas,14.6667,120.9417,Philippines,PH,PHL,Navotas,admin,247543.0,1608538447
Ormoc,Ormoc,11.0106,124.6075,Philippines,PH,PHL,Ormoc,admin,230998.0,1608269612
Meycauayan,Meycauayan,14.73,120.95,Philippines,PH,PHL,Bulacan,,225673.0,1608553352
Santo Tomas,Santo Tomas,14.08,121.18,Philippines,PH,PHL,Batangas,,218500.0,1608845898
Valencia,Valencia,7.9042,125.0928,Philippines,PH,PHL,Bukidnon,,216546.0,1608418474
Trece Martires City,Trece Martires City,14.28,120.87,Philippines,PH,PHL,Cavite,admin,210503.0,1608990723
Pagadian,Pagadian,7.8272,123.4364,Philippines,PH,PHL,Zamboanga del Sur,admin,210452.0,1608329397
Legazpi City,Legazpi City,13.13,123.73,Philippines,PH,PHL,Albay,admin,209533.0,1608693683
Panabo,Panabo,7.3,125.68,Philippines,PH,PHL,Davao del Norte,,209230.0,1608577408
Toledo,Toledo,10.38,123.65,Philippines,PH,PHL,Cebu,,207314.0,1608665464
Marawi City,Marawi City,8.0031,124.285,Philippines,PH,PHL,Lanao del Sur,admin,207010.0,1608812117
San Carlos City,San Carlos City,15.9281,120.3489,Philippines,PH,PHL,Pangasinan,,205424.0,1608542323
Santa Ana,Santa Ana,14.58,121.012,Philippines,PH,PHL,Manila,,203598.0,1608404042
Kabankalan,Kabankalan,9.98,122.82,Philippines,PH,PHL,Negros Occidental,,200198.0,1608697923
Koronadal,Koronadal,6.5,124.85,Philippines,PH,PHL,South Cotabato,,195398.0,1608000651
Tanauan,Tanauan,14.08,121.15,Philippines,PH,PHL,Batangas,,193936.0,1608053818
Bago,Bago,10.5388,122.8384,Philippines,PH,PHL,Negros Occidental,,191210.0,1608943172
Malaybalay,Malaybalay,8.1564,125.1333,Philippines,PH,PHL,Bukidnon,admin,190712.0,1608859265
Digos,Digos,6.75,125.35,Philippines,PH,PHL,Davao del Sur,admin,188376.0,1608635653
Calbayog City,Calbayog City,12.07,124.6,Philippines,PH,PHL,Samar,,186960.0,1608088739
Sorsogon,Sorsogon,12.9742,124.0058,Philippines,PH,PHL,Sorsogon,admin,182237.0,1608265953
Roxas City,Roxas City,11.5894,122.7511,Philippines,PH,PHL,Capiz,admin,179292.0,1608344583
Dagupan City,Dagupan City,16.043,120.334,Philippines,PH,PHL,Dagupan,admin,174302.0,1608530964
Lubao,Lubao,14.93,120.6,Philippines,PH,PHL,Pampanga,,173502.0,1608215915
Mexico,Mexico,15.07,120.72,Philippines,PH,PHL,Pampanga,,173403.0,1608191667
Polomolok,Polomolok,6.22,125.07,Philippines,PH,PHL,South Cotabato,,172605.0,1608490461
General Mariano Alvarez,General Mariano Alvarez,14.3,121.0,Philippines,PH,PHL,Cavite,,172433.0,1608815735
San Miguel,San Miguel,15.1458,120.9783,Philippines,PH,PHL,Bulacan,,172073.0,1608046677
Surigao,Surigao,9.7897,125.4958,Philippines,PH,PHL,Surigao del Norte,admin,171107.0,1608611556
Concepcion,Concepcion,15.3249,120.6554,Philippines,PH,PHL,Tarlac,,169953.0,1608682956
Baliuag,Baliuag,14.954,120.901,Philippines,PH,PHL,Bulacan,,168470.0,1608703693
Tuguegarao,Tuguegarao,17.6133,121.7303,Philippines,PH,PHL,Cagayan,admin,166334.0,1608110634
Sariaya,Sariaya,13.97,121.53,Philippines,PH,PHL,Quezon,,161868.0,1608396060
Naic,Naic,14.32,120.77,Philippines,PH,PHL,Cavite,,160987.0,1608196842
Kidapawan,Kidapawan,7.0083,125.0894,Philippines,PH,PHL,Cotabato,admin,160791.0,1608883158
Cadiz,Cadiz,10.95,123.3,Philippines,PH,PHL,Negros Occidental,,158544.0,1608224037
Ilagan,Ilagan,17.1489,121.8894,Philippines,PH,PHL,Isabela,admin,158218.0,1608190610
Danao,Danao,10.53,123.93,Philippines,PH,PHL,Cebu,,156321.0,1608547808
Capas,Capas,15.3372,120.59,Philippines,PH,PHL,Tarlac,,156056.0,1608379387
Pandi,Pandi,14.87,120.95,Philippines,PH,PHL,Bulacan,,155115.0,1608700526
San Jose,San Jose,12.3528,121.0676,Philippines,PH,PHL,Occidental Mindoro,,153267.0,1608355709
Poblacion,Poblacion,10.42,123.97,Philippines,PH,PHL,Cebu,,153197.0,1608456191
Minglanilla,Minglanilla,10.245,123.7964,Philippines,PH,PHL,Cebu,,151002.0,1608573791
San Jose,San Jose,15.8037,120.9991,Philippines,PH,PHL,Nueva Ecija,,150917.0,1608000478
Mariveles,Mariveles,14.43,120.48,Philippines,PH,PHL,Bataan,,149879.0,1608735167
Sagay,Sagay,10.9,123.42,Philippines,PH,PHL,Negros Occidental,,148894.0,1608284971
Santiago,Santiago,16.68,121.55,Philippines,PH,PHL,Santiago,admin,148580.0,1608477470
Consolacion,Consolacion,10.4,123.95,Philippines,PH,PHL,Cebu,,148012.0,1608199695
Mati,Mati,6.9483,126.2272,Philippines,PH,PHL,Davao Oriental,admin,147547.0,1608000731
Calapan,Calapan,13.414,121.18,Philippines,PH,PHL,Oriental Mindoro,admin,145786.0,1608578259
Calapan,Calapan,13.414,121.18,Philippines,PH,PHL,Bulacan,,145786.0,1608531332
Arayat,Arayat,15.1493,120.7692,Philippines,PH,PHL,Pampanga,,144875.0,1608482411
Urdaneta,Urdaneta,15.9761,120.5711,Philippines,PH,PHL,Pangasinan,,144577.0,1608117383
Calabayan,Calabayan,16.77,121.78,Philippines,PH,PHL,Isabela,,143403.0,1608955576
Malasiqui,Malasiqui,15.92,120.42,Philippines,PH,PHL,Pangasinan,,143094.0,1608316754
Bocaue,Bocaue,14.8,120.93,Philippines,PH,PHL,Bulacan,,141412.0,1608457468
Tabaco,Tabaco,13.35,123.73,Philippines,PH,PHL,Albay,,140961.0,1608252596
Porac,Porac,15.0719,120.5419,Philippines,PH,PHL,Pampanga,,140751.0,1608946840
Ozamiz City,Ozamiz City,8.15,123.85,Philippines,PH,PHL,Misamis Occidental,,140334.0,1608100412
Payatas,Payatas,14.7099,121.0997,Philippines,PH,PHL,Quezon,,139740.0,1608905832
Tanay,Tanay,14.4972,121.2864,Philippines,PH,PHL,Rizal,,139420.0,1608260734
Dipolog,Dipolog,8.5872,123.3408,Philippines,PH,PHL,Zamboanga del Norte,admin,138141.0,1608664300
Candelaria,Candelaria,13.9311,121.4233,Philippines,PH,PHL,Quezon,minor,137881.0,1608579689
La Trinidad,La Trinidad,16.46,120.59,Philippines,PH,PHL,Benguet,admin,137404.0,1608000107
Jolo,Jolo,6.0,121.0,Philippines,PH,PHL,Sulu,admin,137266.0,1608685440
Gingoog,Gingoog,8.82,125.1,Philippines,PH,PHL,Misamis Oriental,,136698.0,1608630986
Nasugbu,Nasugbu,14.07,120.63,Philippines,PH,PHL,Batangas,,136524.0,1608413633
Carcar,Carcar,10.12,123.63,Philippines,PH,PHL,Cebu,,136453.0,1608778175
Norzagaray,Norzagaray,14.92,121.05,Philippines,PH,PHL,Bulacan,,136064.0,1608520209
Floridablanca,Floridablanca,14.974,120.528,Philippines,PH,PHL,Pampanga,,135542.0,1608344732
Dumaguete City,Dumaguete City,9.3103,123.3081,Philippines,PH,PHL,Negros Oriental,admin,134103.0,1608682936
Daraga,Daraga,13.1619,123.6939,Philippines,PH,PHL,Albay,,133893.0,1608571209
San Andres,San Andres,14.5739,121.0039,Philippines,PH,PHL,Rizal,,133727.0,1608862371
Hagonoy,Hagonoy,14.83,120.73,Philippines,PH,PHL,Bulacan,,133448.0,1608693751
Naga,Naga,10.22,123.75,Philippines,PH,PHL,Cebu,,133184.0,1608928299
San Carlos,San Carlos,10.4929,123.4095,Philippines,PH,PHL,Negros Occidental,,132650.0,1608048026
Talavera,Talavera,15.5839,120.9189,Philippines,PH,PHL,Nueva Ecija,,132338.0,1608474974
Angono,Angono,14.5234,121.1536,Philippines,PH,PHL,Rizal,,130494.0,1608373503
Silay,Silay,10.8,122.97,Philippines,PH,PHL,Negros Occidental,,130478.0,1608362038
City of Isabela,City of Isabela,6.7,121.97,Philippines,PH,PHL,Basilan,admin,130379.0,1608621038
Bamban,Bamban,15.2742,120.5669,Philippines,PH,PHL,Tarlac,,129011.0,1608680907
Guagua,Guagua,14.97,120.63,Philippines,PH,PHL,Pampanga,,128893.0,1608453085
Santo Tomas,Santo Tomas,7.53,125.62,Philippines,PH,PHL,Davao del Norte,,128667.0,1608792041
Rosario,Rosario,13.846,121.206,Philippines,PH,PHL,Batangas,,128352.0,1608786784
Guimba,Guimba,15.6606,120.765,Philippines,PH,PHL,Nueva Ecija,,127653.0,1608954884
Santa Cruz,Santa Cruz,14.5998,120.9802,Philippines,PH,PHL,Manila,,126735.0,1608318207
San Juan,San Juan,14.604,121.03,Philippines,PH,PHL,San Juan,admin,126347.0,1608817515
San Fernando,San Fernando,16.62,120.32,Philippines,PH,PHL,La Union,admin,125640.0,1608635527
Magalang,Magalang,15.22,120.67,Philippines,PH,PHL,Pampanga,minor,124188.0,1608172208
Santa Cruz,Santa Cruz,14.28,121.42,Philippines,PH,PHL,Laguna,,123574.0,1608971699
Gapan,Gapan,15.3122,120.9489,Philippines,PH,PHL,Nueva Ecija,,122968.0,1608386821
Bayawan,Bayawan,9.37,122.8,Philippines,PH,PHL,Negros Oriental,,122747.0,1608189345
Tabuk,Tabuk,17.4069,121.4425,Philippines,PH,PHL,Kalinga,,121033.0,1608831439
Poblacion,Poblacion,14.3854,121.029,Philippines,PH,PHL,Muntinlupa,,120115.0,1608197194
Candaba,Candaba,15.0933,120.8283,Philippines,PH,PHL,Pampanga,,119497.0,1608001625
Calumpit,Calumpit,14.92,120.77,Philippines,PH,PHL,Bulacan,,118471.0,1608584009
Dinalupihan,Dinalupihan,14.88,120.47,Philippines,PH,PHL,Bataan,,118209.0,1608149999
Malita,Malita,6.4108,125.6144,Philippines,PH,PHL,Davao Occidental,admin,118197.0,1608802375
Ligao,Ligao,13.22,123.52,Philippines,PH,PHL,Albay,,118096.0,1608907106
Midsayap,Midsayap,7.19,124.53,Philippines,PH,PHL,Cotabato,,117365.0,1608454598
Apalit,Apalit,14.9496,120.7587,Philippines,PH,PHL,Pampanga,,117160.0,1608288417
Samal,Samal,7.05,125.73,Philippines,PH,PHL,Davao del Norte,,116771.0,1608425228
Datu Odin Sinsuat,Datu Odin Sinsuat,7.1889,124.1839,Philippines,PH,PHL,Maguindanao,admin,116768.0,1608999953
Himamaylan,Himamaylan,10.1,122.87,Philippines,PH,PHL,Negros Occidental,,116240.0,1608765297
Bongao,Bongao,5.0292,119.7731,Philippines,PH,PHL,Tawi-Tawi,admin,116118.0,1608490585
San Ildefonso,San Ildefonso,15.0789,120.9419,Philippines,PH,PHL,Bulacan,,115713.0,1608068184
Los Baños,Los Banos,14.17,121.22,Philippines,PH,PHL,Laguna,,115353.0,1608920078
Iriga City,Iriga City,13.4231,123.4122,Philippines,PH,PHL,Camarines Sur,,114457.0,1608112592
Plaridel,Plaridel,14.8869,120.8569,Philippines,PH,PHL,Bulacan,,114432.0,1608000273
San Juan,San Juan,13.826,121.396,Philippines,PH,PHL,Batangas,minor,114068.0,1608474998
Guiguinto,Guiguinto,14.83,120.88,Philippines,PH,PHL,Bulacan,,113415.0,1608949348
Manolo Fortich,Manolo Fortich,8.3675,124.8656,Philippines,PH,PHL,Bukidnon,,113200.0,1608811201
Mangaldan,Mangaldan,16.07,120.4039,Philippines,PH,PHL,Pangasinan,,113185.0,1608105622
Libmanan,Libmanan,13.6964,123.06,Philippines,PH,PHL,Camarines Sur,,112994.0,1608310701
Tayabas,Tayabas,14.02,121.58,Philippines,PH,PHL,Quezon,,112658.0,1608195528
Subic,Subic,14.8769,120.2328,Philippines,PH,PHL,Zambales,,111912.0,1608633194
Baybay,Baybay,10.68,124.8,Philippines,PH,PHL,Leyte,,111848.0,1608960920
Daet,Daet,14.1142,122.9564,Philippines,PH,PHL,Camarines Norte,admin,111700.0,1608562606
Laoag,Laoag,18.1978,120.5936,Philippines,PH,PHL,Ilocos Norte,admin,111651.0,1608043510
Santamesa,Santamesa,14.6,121.0167,Philippines,PH,PHL,Manila,,111292.0,1608043477
Rosario,Rosario,14.42,120.85,Philippines,PH,PHL,Cavite,,110807.0,1608718800
Quezon,Quezon,7.7306,125.1,Philippines,PH,PHL,Bukidnon,,109624.0,1608600962
Naujan,Naujan,13.3233,121.3028,Philippines,PH,PHL,Oriental Mindoro,,109587.0,1608362602
Glan,Glan,5.82,125.2,Philippines,PH,PHL,Sarangani,,109547.0,1608947570
Bayugan,Bayugan,8.71,125.75,Philippines,PH,PHL,Agusan del Sur,,109499.0,1608483872
Tacurong,Tacurong,6.68,124.67,Philippines,PH,PHL,Sultan Kudarat,,109319.0,1608479806
Labo,Labo,14.1561,122.8294,Philippines,PH,PHL,Camarines Norte,,109245.0,1608735236
Talisay,Talisay,10.73,122.97,Philippines,PH,PHL,Negros Occidental,,108909.0,1608509888
Pulilan,Pulilan,14.902,120.849,Philippines,PH,PHL,Bulacan,,108836.0,1608740996
Cawayan,Cawayan,9.97,122.62,Philippines,PH,PHL,Negros Occidental,,108480.0,1608006603
Maramag,Maramag,7.7631,125.005,Philippines,PH,PHL,Bukidnon,,108293.0,1608275407
Lingayen,Lingayen,16.0167,120.2333,Philippines,PH,PHL,Pangasinan,admin,107728.0,1608464071
Kawit,Kawit,14.43,120.9,Philippines,PH,PHL,Cavite,,107535.0,1608411157
Bagong Silangan,Bagong Silangan,14.7094,121.1,Philippines,PH,PHL,Quezon,,106886.0,1608517154
Catbalogan,Catbalogan,11.78,124.88,Philippines,PH,PHL,Samar,admin,106440.0,1608878798
Tiaong,Tiaong,13.95,121.32,Philippines,PH,PHL,Quezon,minor,106265.0,1608344411
Carmona,Carmona,14.32,121.05,Philippines,PH,PHL,Cavite,,106256.0,1608216694
Maluñgun,Malungun,6.27,125.28,Philippines,PH,PHL,Sarangani,,105465.0,1608972592
Bulan,Bulan,12.6697,123.8758,Philippines,PH,PHL,Sorsogon,,105190.0,1608516439
Sultan Kudarat,Sultan Kudarat,7.23,124.25,Philippines,PH,PHL,Maguindanao,,105121.0,1608836609
Tagbilaran City,Tagbilaran City,9.65,123.85,Philippines,PH,PHL,Bohol,minor,104976.0,1608573250
Masbate,Masbate,12.27,123.58,Philippines,PH,PHL,Masbate,admin,104522.0,1608802236
Balanga,Balanga,14.68,120.53,Philippines,PH,PHL,Bataan,admin,104173.0,1608467104
Sindangan,Sindangan,8.2386,122.9986,Philippines,PH,PHL,Zamboanga del Norte,,103952.0,1608537090
San Rafael,San Rafael,14.95,120.97,Philippines,PH,PHL,Bulacan,,103097.0,1608373072
Paniqui,Paniqui,15.6681,120.5789,Philippines,PH,PHL,Tarlac,,103003.0,1608244278
Parang,Parang,7.3744,124.2686,Philippines,PH,PHL,Maguindanao,,102914.0,1608326061
Guihulñgan,Guihulngan,10.12,123.27,Philippines,PH,PHL,Negros Oriental,,102656.0,1608628412
Santa Cruz,Santa Cruz,6.83,125.42,Philippines,PH,PHL,Davao del Sur,,101125.0,1608664930
Cavite City,Cavite City,14.48,120.9,Philippines,PH,PHL,Cavite,,100674.0,1608639398
Calasiao,Calasiao,16.02,120.37,Philippines,PH,PHL,Pangasinan,,100471.0,1608768907
Lamitan,Lamitan,6.65,122.13,Philippines,PH,PHL,Basilan,,100150.0,1608647250
Talipao,Talipao,5.976,121.1087,Philippines,PH,PHL,Sulu,minor,100088.0,1608300985
Putatan,Putatan,14.3984,121.0364,Philippines,PH,PHL,Muntinlupa,,99725.0,1608160137
Alaminos,Alaminos,16.1553,119.9808,Philippines,PH,PHL,Pangasinan,,99397.0,1608828653
Bislig,Bislig,8.2133,126.3161,Philippines,PH,PHL,Surigao del Sur,,99290.0,1608693408
Malate,Malate,14.5642,120.9913,Philippines,PH,PHL,Manila,,99257.0,1608713259
Pili,Pili,13.5542,123.2753,Philippines,PH,PHL,Camarines Sur,,99196.0,1608921556
Oton,Oton,10.6931,122.4736,Philippines,PH,PHL,Iloilo,,98509.0,1608471718
M’lang,M'lang,6.95,124.88,Philippines,PH,PHL,Cotabato,,98195.0,1608858911
Catarman,Catarman,12.4994,124.6328,Philippines,PH,PHL,Northern Samar,admin,97879.0,1608432162
Isulan,Isulan,6.63,124.6,Philippines,PH,PHL,Sultan Kudarat,admin,97490.0,1608085930
Escalante,Escalante,10.83,123.5,Philippines,PH,PHL,Negros Occidental,,96159.0,1608433743
Balayan,Balayan,13.93,120.73,Philippines,PH,PHL,Batangas,,95913.0,1608903029
Balamban,Balamban,10.47,123.78,Philippines,PH,PHL,Cebu,,95136.0,1608443221
Lopez,Lopez,13.884,122.2604,Philippines,PH,PHL,Quezon,,94657.0,1608026330
Gerona,Gerona,15.6069,120.5986,Philippines,PH,PHL,Tarlac,,94485.0,1608730066
Monkayo,Monkayo,7.8239,126.0536,Philippines,PH,PHL,Davao de Oro,minor,93937.0,1608856677
Daanbantayan,Daanbantayan,11.25,124.0,Philippines,PH,PHL,Cebu,,93502.0,1608517986
Lemery,Lemery,13.92,120.88,Philippines,PH,PHL,Batangas,,93186.0,1608128712
Indanan,Indanan,6.0,120.97,Philippines,PH,PHL,Sulu,,93168.0,1608021703
Palimbang,Palimbang,6.22,124.2,Philippines,PH,PHL,Sultan Kudarat,,92828.0,1608177821
Sablayan,Sablayan,12.8428,120.775,Philippines,PH,PHL,Occidental Mindoro,,92598.0,1608764789
Santa Barbara,Santa Barbara,16.0031,120.4008,Philippines,PH,PHL,Pangasinan,,92187.0,1608539009
Salaman,Salaman,6.63,124.07,Philippines,PH,PHL,Sultan Kudarat,,91344.0,1608705741
Bauan,Bauan,13.7917,121.0085,Philippines,PH,PHL,Batangas,,90819.0,1608547248
Pantukan,Pantukan,7.1269,125.8975,Philippines,PH,PHL,Davao de Oro,,90786.0,1608894465
Pongotan,Pongotan,7.1269,125.8975,Philippines,PH,PHL,Davao de Oro,,90786.0,1608561205
Pinamalayan,Pinamalayan,13.0364,121.4889,Philippines,PH,PHL,Oriental Mindoro,,90383.0,1608931779
Victorias,Victorias,10.9,123.08,Philippines,PH,PHL,Negros Occidental,,90101.0,1608236440
Compostela,Compostela,7.67,126.08,Philippines,PH,PHL,Davao de Oro,,89884.0,1608079890
Ipil,Ipil,7.7822,122.5867,Philippines,PH,PHL,Zamboanga Sibugay,admin,89401.0,1608307222
Surallah,Surallah,6.37,124.73,Philippines,PH,PHL,South Cotabato,,89340.0,1608974893
Polangui,Polangui,13.2922,123.4856,Philippines,PH,PHL,Albay,,89176.0,1608444152
Banga,Banga,6.3,124.78,Philippines,PH,PHL,South Cotabato,,89164.0,1608545440
Kalibo,Kalibo,11.7072,122.37,Philippines,PH,PHL,Aklan,admin,89127.0,1608268539
Hinigaran,Hinigaran,10.27,122.85,Philippines,PH,PHL,Negros Occidental,,88909.0,1608738002
Calabanga,Calabanga,13.7089,123.2161,Philippines,PH,PHL,Camarines Sur,,88906.0,1608274723
Passi,Passi,11.1,122.63,Philippines,PH,PHL,Iloilo,,88873.0,1608905309
Murcia,Murcia,10.6,123.03,Philippines,PH,PHL,Negros Occidental,,88868.0,1608306618
Bogo,Bogo,11.02,124.0,Philippines,PH,PHL,Cebu,,88867.0,1608673076
Solana,Solana,17.6522,121.6914,Philippines,PH,PHL,Cagayan,,88445.0,1608155391
Echague,Echague,16.7056,121.6761,Philippines,PH,PHL,Isabela,,88410.0,1608221355
Aroroy,Aroroy,12.5125,123.3989,Philippines,PH,PHL,Masbate,,88351.0,1608024101
Prosperidad,Prosperidad,8.61,125.92,Philippines,PH,PHL,Agusan del Sur,admin,88321.0,1608461552
Alabel,Alabel,6.1023,125.2868,Philippines,PH,PHL,Sarangani,admin,88294.0,1608579431
Makilala,Makilala,6.97,125.08,Philippines,PH,PHL,Cotabato,,87927.0,1608709784
Baggao,Baggao,17.9347,121.7733,Philippines,PH,PHL,Cagayan,,87753.0,1608472700
Calauan,Calauan,14.15,121.32,Philippines,PH,PHL,Laguna,,87693.0,1608352580
Baras,Baras,14.52,121.27,Philippines,PH,PHL,Rizal,,87637.0,1608108994
Western Bicutan,Western Bicutan,14.5094,121.0381,Philippines,PH,PHL,Taguig,,87508.0,1608357652
Maasin,Maasin,10.13,124.85,Philippines,PH,PHL,Southern Leyte,admin,87446.0,1608244406
San Fabian,San Fabian,16.15,120.45,Philippines,PH,PHL,La Union,,87428.0,1608702400
Calaca,Calaca,13.93,120.8131,Philippines,PH,PHL,Batangas,,87361.0,1608590026
Camiling,Camiling,15.6867,120.4131,Philippines,PH,PHL,Tarlac,,87319.0,1608136759
Binmaley,Binmaley,16.0323,120.269,Philippines,PH,PHL,Pangasinan,,86881.0,1608102609
Nabua,Nabua,13.4083,123.375,Philippines,PH,PHL,Camarines Sur,,86490.0,1608379220
Bantayan,Bantayan,11.2,123.73,Philippines,PH,PHL,Cebu,,86247.0,1608493740
Cabiao,Cabiao,15.2522,120.8575,Philippines,PH,PHL,Nueva Ecija,,85862.0,1608607264
Guinobatan,Guinobatan,13.18,123.6,Philippines,PH,PHL,Albay,,85786.0,1608966710
Batarasa,Batarasa,8.67,117.62,Philippines,PH,PHL,Palawan,,85439.0,1608320130
Tagaytay,Tagaytay,14.1,120.93,Philippines,PH,PHL,Cavite,,85330.0,1608593949
Dapitan,Dapitan,8.6549,123.4243,Philippines,PH,PHL,Zamboanga del Norte,,85202.0,1608014287
Pandacan,Pandacan,14.594,121.007,Philippines,PH,PHL,Manila,,84769.0,1608115179
Nabunturan,Nabunturan,7.6008,125.9656,Philippines,PH,PHL,Davao de Oro,admin,84340.0,1608879246
Bais,Bais,9.5907,123.1213,Philippines,PH,PHL,Negros Oriental,,84317.0,1608298426
Science City of Muñoz,Science City of Munoz,15.7153,120.9039,Philippines,PH,PHL,Nueva Ecija,,84308.0,1608795106
Bolinao,Bolinao,16.3881,119.8947,Philippines,PH,PHL,Pangasinan,,83979.0,1608471973
Taytay,Taytay,10.82,119.52,Philippines,PH,PHL,Palawan,,83357.0,1608175661
Maco,Maco,7.3619,125.8553,Philippines,PH,PHL,Davao de Oro,,83237.0,1608519654
Siaton,Siaton,9.07,123.03,Philippines,PH,PHL,Negros Oriental,,83082.0,1608000106
San Antonio,San Antonio,15.3078,120.8533,Philippines,PH,PHL,Nueva Ecija,,83060.0,1608254250
Mabinay,Mabinay,9.73,122.92,Philippines,PH,PHL,Negros Oriental,,82953.0,1608313367
Tanjay,Tanjay,9.52,123.16,Philippines,PH,PHL,Negros Oriental,,82642.0,1608955515
Calatrava,Calatrava,10.6,123.48,Philippines,PH,PHL,Negros Occidental,,82540.0,1608680606
Carmen,Carmen,7.3606,125.7064,Philippines,PH,PHL,Davao del Norte,,82018.0,1608601211
Ubay,Ubay,10.056,124.4729,Philippines,PH,PHL,Bohol,,81799.0,1608803591
Banco Filipino International Village,Banco Filipino International Village,14.4499,120.9996,Philippines,PH,PHL,Las Piñas,,81739.0,1608857586
Siasi,Siasi,5.5462,120.8145,Philippines,PH,PHL,Sulu,,81689.0,1608781969
Matalam,Matalam,7.08,124.9,Philippines,PH,PHL,Cotabato,,81355.0,1608220278
Buhi,Buhi,13.4347,123.5167,Philippines,PH,PHL,Camarines Sur,,81306.0,1608188485
Lambunao,Lambunao,11.05,122.48,Philippines,PH,PHL,Iloilo,,81236.0,1608674437
Bulacan,Bulacan,14.7928,120.8789,Philippines,PH,PHL,Bulacan,,81232.0,1608149284
Kapalong,Kapalong,7.5854,125.7052,Philippines,PH,PHL,Davao del Norte,,81068.0,1608204911
San Francisco,San Francisco,8.51,125.98,Philippines,PH,PHL,Agusan del Sur,,80760.0,1608328732
Malapatan,Malapatan,5.97,125.28,Philippines,PH,PHL,Sarangani,,80741.0,1608544416
Barili,Barili,10.12,123.53,Philippines,PH,PHL,Cebu,,80715.0,1608468753
Cabadbaran,Cabadbaran,9.12,125.53,Philippines,PH,PHL,Agusan del Norte,admin,80354.0,1608889253
Tagoloan,Tagoloan,8.53,124.75,Philippines,PH,PHL,Misamis Oriental,,80319.0,1608502082
San Jose,San Jose,13.8772,121.105,Philippines,PH,PHL,Batangas,,79868.0,1608353630
Paco,Paco,14.583,120.983,Philippines,PH,PHL,Manila,,79839.0,1608451394
Poblacion,Poblacion,6.8,124.63,Philippines,PH,PHL,Sultan Kudarat,minor,79739.0,1608318645
Patikul,Patikul,6.07,121.1,Philippines,PH,PHL,Sulu,,79564.0,1608678238
Robles,Robles,10.35,123.07,Philippines,PH,PHL,Negros Occidental,,79492.0,1608534023
San Isidro,San Isidro,14.4685,121.0118,Philippines,PH,PHL,Parañaque,,79372.0,1608329833
Mangatarem,Mangatarem,15.7874,120.2921,Philippines,PH,PHL,Pangasinan,,79323.0,1608841442
Jaen,Jaen,15.3392,120.9069,Philippines,PH,PHL,Nueva Ecija,,79189.0,1608058419
Carmen,Carmen,7.2,124.78,Philippines,PH,PHL,Cotabato,,79140.0,1608666262
Pagbilao,Pagbilao,13.972,121.687,Philippines,PH,PHL,Quezon,,78700.0,1608158304
Bauang,Bauang,16.53,120.33,Philippines,PH,PHL,La Union,,78449.0,1608237333
Pototan,Pototan,10.95,122.63,Philippines,PH,PHL,Iloilo,,78298.0,1608792754
Limay,Limay,14.5619,120.5983,Philippines,PH,PHL,Bataan,,78272.0,1608113327
Bamban,Bamban,15.2742,120.5669,Philippines,PH,PHL,Tarlac,,78260.0,1608808534
Argao,Argao,9.88,123.6,Philippines,PH,PHL,Cebu,minor,78187.0,1608797040
Macabebe,Macabebe,14.9081,120.7156,Philippines,PH,PHL,Pampanga,,78151.0,1608096291
Narra,Narra,9.28,118.42,Philippines,PH,PHL,Palawan,,77948.0,1608000798
Santa Catalina,Santa Catalina,9.3331,122.8658,Philippines,PH,PHL,Negros Oriental,,77501.0,1608085821
Hermosa,Hermosa,14.83,120.5,Philippines,PH,PHL,Bataan,,77443.0,1608543263
Bustos,Bustos,14.95,120.92,Philippines,PH,PHL,Bulacan,,77199.0,1608938758
Kabacan,Kabacan,7.12,124.82,Philippines,PH,PHL,Cotabato,,77164.0,1608578355
Umingan,Umingan,15.9289,120.8419,Philippines,PH,PHL,Pangasinan,,77074.0,1608046328
Talakag,Talakag,8.2319,124.6025,Philippines,PH,PHL,Bukidnon,,77027.0,1608541231
Balagtas,Balagtas,14.8145,120.9085,Philippines,PH,PHL,Bulacan,,77018.0,1608000709
Bongabong,Bongabong,12.7469,121.4881,Philippines,PH,PHL,Oriental Mindoro,,76973.0,1608784210
Virac,Virac,13.58,124.23,Philippines,PH,PHL,Catanduanes,admin,76520.0,1608265120
Palo,Palo,11.1583,124.9917,Philippines,PH,PHL,Leyte,,76213.0,1608826823
Infanta,Infanta,14.7425,121.6494,Philippines,PH,PHL,Quezon,,76186.0,1608594453
Manaoag,Manaoag,16.0439,120.4856,Philippines,PH,PHL,Pangasinan,,76045.0,1608599715
Pilar,Pilar,12.9244,123.6756,Philippines,PH,PHL,Sorsogon,,75793.0,1608564166
Santa Rosa,Santa Rosa,15.4239,120.9389,Philippines,PH,PHL,Nueva Ecija,,75649.0,1608266790
Pinamungahan,Pinamungahan,10.27,123.58,Philippines,PH,PHL,Cebu,,75131.0,1608414270
Libon,Libon,13.3,123.4333,Philippines,PH,PHL,Albay,,75073.0,1608618102
Bugallon,Bugallon,15.92,120.18,Philippines,PH,PHL,Pangasinan,,74962.0,1608802354
Pozorrubio,Pozorrubio,16.12,120.55,Philippines,PH,PHL,Pangasinan,,74729.0,1608447063
Esperanza,Esperanza,6.7167,124.5167,Philippines,PH,PHL,Sultan Kudarat,,74696.0,1608191259
Dalaguete,Dalaguete,9.7612,123.5349,Philippines,PH,PHL,Cebu,minor,74596.0,1608288277
Balingasag,Balingasag,8.75,124.78,Philippines,PH,PHL,Misamis Oriental,,74385.0,1608537192
Brookes Point,Brookes Point,8.78,117.83,Philippines,PH,PHL,Palawan,,73994.0,1608472411
Dumangas,Dumangas,10.83,122.72,Philippines,PH,PHL,Iloilo,,73899.0,1608791064
Alicia,Alicia,16.7787,121.6972,Philippines,PH,PHL,Isabela,,73874.0,1608136235
Tupi,Tupi,6.33,124.95,Philippines,PH,PHL,South Cotabato,,73459.0,1608022150
Lala,Lala,7.97,123.75,Philippines,PH,PHL,Lanao del Norte,,73425.0,1608312825
Jose Abad Santos,Jose Abad Santos,5.92,125.65,Philippines,PH,PHL,Davao Occidental,,73381.0,1608681407
Bula,Bula,13.4694,123.2775,Philippines,PH,PHL,Camarines Sur,,73143.0,1608911288
Catanauan,Catanauan,13.5917,122.325,Philippines,PH,PHL,Quezon,,72752.0,1608072794
Carles,Carles,11.57,123.13,Philippines,PH,PHL,Iloilo,,72637.0,1608210040
San Dionisio,San Dionisio,14.4839,120.9925,Philippines,PH,PHL,Parañaque,,72522.0,1608848150
Bacacay,Bacacay,13.2925,123.7917,Philippines,PH,PHL,Albay,,72485.0,1608847770
Sipalay,Sipalay,9.75,122.4,Philippines,PH,PHL,Negros Occidental,,72448.0,1608396492
Oroquieta,Oroquieta,8.48,123.8,Philippines,PH,PHL,Misamis Occidental,admin,72301.0,1608239509
San Fernando,San Fernando,10.17,123.7,Philippines,PH,PHL,Cebu,,72224.0,1608073409
Camalig,Camalig,13.13,123.67,Philippines,PH,PHL,Albay,,72042.0,1608361656
Borongan,Borongan,11.6094,125.4361,Philippines,PH,PHL,Eastern Samar,admin,71961.0,1608990192
Gumaca,Gumaca,13.921,122.1002,Philippines,PH,PHL,Quezon,,71942.0,1608989555
Calauag,Calauag,13.9575,122.2875,Philippines,PH,PHL,Quezon,,71809.0,1608371509
Pililla,Pililla,14.48,121.3,Philippines,PH,PHL,Rizal,,71535.0,1608814633
Parang,Parang,5.92,120.92,Philippines,PH,PHL,Sulu,,71495.0,1608491577
Binalbagan,Binalbagan,10.2,122.87,Philippines,PH,PHL,Negros Occidental,,71407.0,1608949607
Goa,Goa,13.6983,123.4889,Philippines,PH,PHL,Camarines Sur,,71368.0,1608724845
Talibon,Talibon,10.12,124.28,Philippines,PH,PHL,Bohol,,71272.0,1608420317
Morong,Morong,14.5119,121.2389,Philippines,PH,PHL,Rizal,,71151.0,1608636821
Mauban,Mauban,14.1911,121.7308,Philippines,PH,PHL,Quezon,,71081.0,1608083644
Alabang,Alabang,14.4184,121.0385,Philippines,PH,PHL,Muntinlupa,,71075.0,1608950948
Tumauini,Tumauini,17.27,121.8,Philippines,PH,PHL,Isabela,,70743.0,1608685501
Poblacion,Poblacion,10.25,123.95,Philippines,PH,PHL,Cebu,,70595.0,1608772527
Pavia,Pavia,10.775,122.5417,Philippines,PH,PHL,Iloilo,,70388.0,1608401350
Aliaga,Aliaga,15.5036,120.845,Philippines,PH,PHL,Nueva Ecija,,70363.0,1608044866
Orani,Orani,14.8,120.53,Philippines,PH,PHL,Bataan,,70342.0,1608338403
Rizal,Rizal,15.71,121.1047,Philippines,PH,PHL,Nueva Ecija,,70196.0,1608031788
Tinambac,Tinambac,13.8183,123.3244,Philippines,PH,PHL,Camarines Sur,,70176.0,1608308136
San Antonio,San Antonio,14.4656,121.0311,Philippines,PH,PHL,Parañaque,,70134.0,1608229793
Roxas,Roxas,10.3197,119.3408,Philippines,PH,PHL,Palawan,,69624.0,1608957509
Victoria,Victoria,15.5781,120.6819,Philippines,PH,PHL,Tarlac,,69370.0,1608954565
Don Carlos,Don Carlos,7.6808,124.9953,Philippines,PH,PHL,Bukidnon,,69273.0,1608683274
Cawayan,Cawayan,11.9303,123.7689,Philippines,PH,PHL,Masbate,,69265.0,1608114662
San Pascual,San Pascual,13.8,121.03,Philippines,PH,PHL,Batangas,,69009.0,1608710457
La Paz,La Paz,15.4431,120.7289,Philippines,PH,PHL,Tarlac,,68952.0,1608056666
Bagumbayan,Bagumbayan,6.5339,124.5633,Philippines,PH,PHL,Maguindanao,,68947.0,1608205674
Buenavista,Buenavista,8.97,125.41,Philippines,PH,PHL,Agusan del Norte,,68892.0,1608153897
Aparri,Aparri,18.3575,121.6372,Philippines,PH,PHL,Cagayan,,68839.0,1608370398
Indang,Indang,14.2,120.88,Philippines,PH,PHL,Cavite,,68699.0,1608838014
Alamada,Alamada,7.3868,124.5534,Philippines,PH,PHL,Cotabato,,68659.0,1608117314
San Leonardo,San Leonardo,15.3611,120.9622,Philippines,PH,PHL,Nueva Ecija,,68536.0,1608550688
Mamungan,Mamungan,8.12,124.22,Philippines,PH,PHL,Lanao del Norte,,68465.0,1608275086
Tangub,Tangub,8.0667,123.75,Philippines,PH,PHL,Misamis Occidental,,68389.0,1608158776
Sipocot,Sipocot,13.7675,122.9783,Philippines,PH,PHL,Camarines Sur,,68169.0,1608134009
Tuburan,Tuburan,10.73,123.83,Philippines,PH,PHL,Cebu,,68167.0,1608192465
Miagao,Miagao,10.6442,122.2352,Philippines,PH,PHL,Iloilo,,68115.0,1608200248
Cuyapo,Cuyapo,15.7778,120.6608,Philippines,PH,PHL,Nueva Ecija,,68066.0,1608467809
Castillejos,Castillejos,14.93,120.2,Philippines,PH,PHL,Zambales,,67889.0,1608611623
Bayombong,Bayombong,16.48,121.15,Philippines,PH,PHL,Nueva Vizcaya,admin,67714.0,1608066874
Santa Barbara,Santa Barbara,10.8231,122.5344,Philippines,PH,PHL,Iloilo,,67630.0,1608991655
Bay,Bay,14.18,121.28,Philippines,PH,PHL,Laguna,,67182.0,1608468352
Pikit,Pikit,7.05,124.67,Philippines,PH,PHL,Cotabato,,67024.0,1608218990
Lupon,Lupon,6.8969,126.0117,Philippines,PH,PHL,Davao Oriental,minor,66979.0,1608289249
Bongabon,Bongabon,15.6321,121.1448,Philippines,PH,PHL,Nueva Ecija,,66839.0,1608482440
Janiuay,Janiuay,10.95,122.5,Philippines,PH,PHL,Iloilo,,66786.0,1608317775
Botolan,Botolan,15.2896,120.0245,Philippines,PH,PHL,Zambales,,66739.0,1608875011
Rosales,Rosales,15.8944,120.6328,Philippines,PH,PHL,Pangasinan,,66711.0,1608568753
La Carlota,La Carlota,10.42,122.92,Philippines,PH,PHL,Negros Occidental,,66664.0,1608234277
San Mateo,San Mateo,16.88,121.58,Philippines,PH,PHL,Isabela,,66663.0,1608259452
Opol,Opol,8.52,124.57,Philippines,PH,PHL,Misamis Oriental,,66327.0,1608552657
Oas,Oas,13.2589,123.4953,Philippines,PH,PHL,Albay,,66084.0,1608286760
Agoo,Agoo,16.322,120.3647,Philippines,PH,PHL,La Union,,66028.0,1608343645
Lantapan,Lantapan,8.0,125.0233,Philippines,PH,PHL,Bukidnon,,65974.0,1608127977
Coron,Coron,12.0,120.2,Philippines,PH,PHL,Palawan,,65855.0,1608577211
Roxas,Roxas,17.12,121.62,Philippines,PH,PHL,Isabela,,65839.0,1608794677
Kiamba,Kiamba,5.98,124.62,Philippines,PH,PHL,Sarangani,,65774.0,1608301851
San Remigio,San Remigio,11.0,123.95,Philippines,PH,PHL,Cebu,,65744.0,1608661314
Lutayan,Lutayan,6.6,124.85,Philippines,PH,PHL,Maguindanao,,65644.0,1608798193
Angat,Angat,14.9281,121.0293,Philippines,PH,PHL,Bulacan,,65617.0,1608108649
Solano,Solano,16.5183,121.1811,Philippines,PH,PHL,Nueva Vizcaya,,65287.0,1608750917
Quezon,Quezon,9.235,117.9967,Philippines,PH,PHL,Palawan,,65283.0,1608588871
Tigbauan,Tigbauan,10.6747,122.3776,Philippines,PH,PHL,Iloilo,,65245.0,1608641668
Pateros,Pateros,14.5448,121.0671,Philippines,PH,PHL,Rizal,,65227.0,1608860224
San Jose,San Jose,10.7433,121.9411,Philippines,PH,PHL,Antique,admin,65140.0,1608138574
Villasis,Villasis,15.9,120.58,Philippines,PH,PHL,Pangasinan,,65047.0,1608468696
Maasin,Maasin,5.87,125.0,Philippines,PH,PHL,Sarangani,,64940.0,1608825863
Nagcarlan,Nagcarlan,14.1364,121.4165,Philippines,PH,PHL,Laguna,,64866.0,1608123291
Isabela,Isabela,10.2,122.98,Philippines,PH,PHL,Negros Occidental,,64516.0,1608475400
Hilongos,Hilongos,10.37,124.75,Philippines,PH,PHL,Leyte,,64514.0,1608448862
Malvar,Malvar,14.0417,121.1583,Philippines,PH,PHL,Batangas,,64379.0,1608841812
Sibulan,Sibulan,9.35,123.28,Philippines,PH,PHL,Negros Oriental,,64343.0,1608031686
Saravia,Saravia,10.88,122.97,Philippines,PH,PHL,Negros Occidental,,64290.0,1608260082
Atimonan,Atimonan,14.0036,121.9199,Philippines,PH,PHL,Quezon,,64260.0,1608726423
Teresa,Teresa,14.5586,121.2083,Philippines,PH,PHL,Rizal,,64072.0,1608949971
Tuao,Tuao,17.735,121.4553,Philippines,PH,PHL,Cagayan,,63970.0,1608369053
Santa Cruz,Santa Cruz,15.77,119.92,Philippines,PH,PHL,Zambales,,63839.0,1608192524
Sibalom,Sibalom,10.7883,122.0175,Philippines,PH,PHL,Antique,,63833.0,1608887661
Jose Pañganiban,Jose Panganiban,14.2922,122.6928,Philippines,PH,PHL,Camarines Norte,,63662.0,1608483049
San Fernando,San Fernando,7.9178,125.3286,Philippines,PH,PHL,Bukidnon,,63045.0,1608257172
Calinog,Calinog,11.13,122.5,Philippines,PH,PHL,Iloilo,,62853.0,1608343887
Moncada,Moncada,15.7331,120.5725,Philippines,PH,PHL,Tarlac,,62819.0,1608310036
Bansalan,Bansalan,6.78,125.22,Philippines,PH,PHL,Davao del Sur,,62737.0,1608747221
Tandag,Tandag,9.0789,126.1986,Philippines,PH,PHL,Surigao del Sur,admin,62669.0,1608155856
Kapatagan,Kapatagan,7.9,123.77,Philippines,PH,PHL,Lanao del Norte,,62571.0,1608715438
Aurora,Aurora,13.35,122.52,Philippines,PH,PHL,Quezon,,62097.0,1608074830
Cambanugoy,Cambanugoy,7.5386,125.7508,Philippines,PH,PHL,Davao del Norte,,61893.0,1608478243
Santa Ana,Santa Ana,15.0939,120.7681,Philippines,PH,PHL,Pampanga,,61537.0,1608719510
Itogon,Itogon,16.37,120.67,Philippines,PH,PHL,Benguet,,61498.0,1608685404
Baao,Baao,13.4535,123.3654,Philippines,PH,PHL,Camarines Sur,,61493.0,1608696551
Taal,Taal,13.88,120.93,Philippines,PH,PHL,Batangas,,61460.0,1608961915
Candon,Candon,17.1958,120.4489,Philippines,PH,PHL,Ilocos Sur,,61432.0,1608761578
Tunasan,Tunasan,14.3725,121.0364,Philippines,PH,PHL,Muntinlupa,,61374.0,1608804779
Abuyog,Abuyog,10.7458,125.0122,Philippines,PH,PHL,Leyte,,61216.0,1608485452
Cabatuan,Cabatuan,10.88,122.48,Philippines,PH,PHL,Iloilo,,61110.0,1608225814
Santo Domingo,Santo Domingo,15.59,120.8786,Philippines,PH,PHL,Nueva Ecija,,61092.0,1608625033
Tulunan,Tulunan,6.83,124.88,Philippines,PH,PHL,Cotabato,,60978.0,1608290320
Jinoba-an,Jinoba-an,9.6018,122.4668,Philippines,PH,PHL,Negros Occidental,,60865.0,1608549313
Orion,Orion,14.6206,120.5817,Philippines,PH,PHL,Bataan,,60771.0,1608943799
Castilla,Castilla,12.9553,123.8764,Philippines,PH,PHL,Sorsogon,,60635.0,1608283593
Laoang,Laoang,12.57,125.02,Philippines,PH,PHL,Northern Samar,,60607.0,1608435487
Tigaon,Tigaon,13.6319,123.4975,Philippines,PH,PHL,Camarines Sur,,60524.0,1608875000
Matanao,Matanao,6.75,125.23,Philippines,PH,PHL,Davao del Sur,,60493.0,1608710140
Gubat,Gubat,12.9189,124.1231,Philippines,PH,PHL,Sorsogon,,60294.0,1608486429
Rosario,Rosario,16.23,120.48,Philippines,PH,PHL,La Union,,60278.0,1608229457
Paracale,Paracale,14.2797,122.7869,Philippines,PH,PHL,Camarines Norte,,60198.0,1608056397
San Mariano,San Mariano,16.98,122.02,Philippines,PH,PHL,Isabela,,60124.0,1608181731
Malay,Malay,11.8997,121.9094,Philippines,PH,PHL,Aklan,,60077.0,1608537061
Obando,Obando,14.7083,120.9375,Philippines,PH,PHL,Bulacan,,59978.0,1608662635
Sigaboy,Sigaboy,6.6536,126.0717,Philippines,PH,PHL,Davao Oriental,,59891.0,1608254982
Ilog,Ilog,10.03,122.77,Philippines,PH,PHL,Negros Occidental,,59855.0,1608971808
Ragay,Ragay,13.8217,122.7897,Philippines,PH,PHL,Camarines Sur,,59770.0,1608263758
Kananya,Kananya,11.1856,124.5597,Philippines,PH,PHL,Leyte,,59696.0,1608771995
Medellin,Medellin,11.1286,123.9622,Philippines,PH,PHL,Cebu,,59605.0,1608853186
Maimbung,Maimbung,5.93,121.03,Philippines,PH,PHL,Sulu,,59597.0,1608928235
Esperanza,Esperanza,8.68,125.65,Philippines,PH,PHL,Agusan del Sur,,59353.0,1608011025
Alfonso,Alfonso,14.1379,120.8552,Philippines,PH,PHL,Cavite,,59306.0,1608847500
Irosin,Irosin,12.705,124.0319,Philippines,PH,PHL,Sorsogon,,59267.0,1608326292
San Francisco,San Francisco,10.65,124.35,Philippines,PH,PHL,Cebu,,59236.0,1608306591
San Simon,San Simon,14.998,120.78,Philippines,PH,PHL,Pampanga,,59182.0,1608210651
Mansalay,Mansalay,12.5204,121.4385,Philippines,PH,PHL,Oriental Mindoro,,59114.0,1608124573
Upi,Upi,7.0106,124.1629,Philippines,PH,PHL,Maguindanao,,59004.0,1608496674
Gattaran,Gattaran,18.0611,121.6453,Philippines,PH,PHL,Cagayan,,58874.0,1608571054
Roxas,Roxas,12.58,121.5,Philippines,PH,PHL,Oriental Mindoro,,58849.0,1608811315
Canlaon,Canlaon,10.38,123.2,Philippines,PH,PHL,Negros Oriental,,58822.0,1608924591
El Salvador,El Salvador,8.57,124.52,Philippines,PH,PHL,Misamis Oriental,,58771.0,1608813941
Calatagan,Calatagan,13.8322,120.6322,Philippines,PH,PHL,Batangas,,58719.0,1608624641
Baganga,Baganga,7.5752,126.5585,Philippines,PH,PHL,Davao Oriental,,58714.0,1608125933
San Luis,San Luis,15.04,120.7919,Philippines,PH,PHL,Pampanga,,58551.0,1608207383
Ibaan,Ibaan,13.8176,121.133,Philippines,PH,PHL,Batangas,,58507.0,1608946525
Palompon,Palompon,11.05,124.38,Philippines,PH,PHL,Leyte,,58313.0,1608156798
Naval,Naval,11.58,124.45,Philippines,PH,PHL,Biliran,admin,58187.0,1608929611
Barotac Nuevo,Barotac Nuevo,10.9,122.7,Philippines,PH,PHL,Iloilo,,58176.0,1608457314
Masantol,Masantol,14.9,120.72,Philippines,PH,PHL,Pampanga,,57990.0,1608226462
New Corella,New Corella,7.5866,125.8237,Philippines,PH,PHL,Davao del Norte,,57913.0,1608906825
Cogan,Cogan,10.58,123.97,Philippines,PH,PHL,Cebu,,57897.0,1608004314
Dumanjog,Dumanjog,10.05,123.48,Philippines,PH,PHL,Cebu,,57823.0,1608704492
Asingan,Asingan,16.0023,120.6695,Philippines,PH,PHL,Pangasinan,,57811.0,1608557401
Milagros,Milagros,12.2192,123.5089,Philippines,PH,PHL,Masbate,,57538.0,1608783254
Santa Maria,Santa Maria,6.55,125.47,Philippines,PH,PHL,Davao del Sur,,57526.0,1608601046
Tanauan,Tanauan,11.12,125.02,Philippines,PH,PHL,Leyte,,57455.0,1608895946
Buluan,Buluan,6.7154,124.7854,Philippines,PH,PHL,Maguindanao,admin,57406.0,1608130728
Boac,Boac,13.45,121.83,Philippines,PH,PHL,Marinduque,admin,57283.0,1608972476
Cupang,Cupang,14.4315,121.0486,Philippines,PH,PHL,Muntinlupa,,57196.0,1608273325
Alangalang,Alangalang,11.2061,124.8478,Philippines,PH,PHL,Leyte,,57185.0,1608580659
Uson,Uson,12.2253,123.7834,Philippines,PH,PHL,Masbate,,57166.0,1608634164
Jasaan,Jasaan,8.65,124.75,Philippines,PH,PHL,Misamis Oriental,,57055.0,1608206601
Hagonoy,Hagonoy,6.68,125.3,Philippines,PH,PHL,Davao del Sur,,56919.0,1608185614
Pinagkaisahan,Pinagkaisahan,14.5229,121.0555,Philippines,PH,PHL,Makati,,56835.0,1608216406
Lagonoy,Lagonoy,13.7353,123.5208,Philippines,PH,PHL,Camarines Sur,,56714.0,1608249256
Basey,Basey,11.2817,125.0683,Philippines,PH,PHL,Samar,,56685.0,1608223943
Pangantocan,Pangantocan,7.8331,124.8294,Philippines,PH,PHL,Bukidnon,,56580.0,1608437961
Ramon,Ramon,16.78,121.53,Philippines,PH,PHL,Isabela,,56523.0,1608504575
Tiwi,Tiwi,13.4585,123.6805,Philippines,PH,PHL,Albay,,56444.0,1608988529
Binalonan,Binalonan,16.05,120.6,Philippines,PH,PHL,Pangasinan,,56382.0,1608750754
Sucat,Sucat,14.46,121.05,Philippines,PH,PHL,Muntinlupa,,56354.0,1608931938
Placer,Placer,11.8689,123.9167,Philippines,PH,PHL,Masbate,,56340.0,1608961300
Lian,Lian,14.03,120.65,Philippines,PH,PHL,Batangas,,56280.0,1608855034
Libungan,Libungan,7.25,124.52,Philippines,PH,PHL,Cotabato,,56269.0,1608132103
Magsaysay,Magsaysay,6.77,125.18,Philippines,PH,PHL,Davao del Sur,,56263.0,1608985215
Diffun,Diffun,16.5936,121.5025,Philippines,PH,PHL,Quirino,,56102.0,1608094956
Lower Bicutan,Lower Bicutan,14.5033,121.0642,Philippines,PH,PHL,Taguig,,55928.0,1608620171
General Tinio,General Tinio,15.35,121.05,Philippines,PH,PHL,Nueva Ecija,,55925.0,1608687077
Poblacion,Poblacion,10.47,123.97,Philippines,PH,PHL,Cebu,,55874.0,1608466886
Bambang,Bambang,16.3872,121.1075,Philippines,PH,PHL,Nueva Vizcaya,,55789.0,1608731814
Paombong,Paombong,14.8311,120.7892,Philippines,PH,PHL,Bulacan,,55696.0,1608381288
Iba,Iba,15.33,119.98,Philippines,PH,PHL,Zambales,admin,55581.0,1608986957
Mulanay,Mulanay,13.5222,122.4042,Philippines,PH,PHL,Quezon,,55576.0,1608804064
Urbiztondo,Urbiztondo,15.8227,120.3295,Philippines,PH,PHL,Pangasinan,,55557.0,1608709126
Batac,Batac,18.0554,120.5649,Philippines,PH,PHL,Ilocos Norte,,55484.0,1608314719
Tatalon,Tatalon,14.6242,121.0153,Philippines,PH,PHL,Quezon,,55404.0,1608367432
Asturias,Asturias,10.5679,123.7172,Philippines,PH,PHL,Cebu,,55397.0,1608719784
Mercedes,Mercedes,14.1093,123.0109,Philippines,PH,PHL,Camarines Norte,,55334.0,1608000459
Manapla,Manapla,10.958,123.123,Philippines,PH,PHL,Negros Occidental,,55083.0,1608826969
Santa Cruz,Santa Cruz,13.48,122.03,Philippines,PH,PHL,Marinduque,,54692.0,1608716782
Carigara,Carigara,11.3,124.68,Philippines,PH,PHL,Leyte,,54656.0,1608370270
Sara,Sara,11.25,123.02,Philippines,PH,PHL,Iloilo,,54637.0,1608000829
Pila,Pila,14.23,121.37,Philippines,PH,PHL,Laguna,,54613.0,1608427597
Masinloc,Masinloc,15.53,119.95,Philippines,PH,PHL,Zambales,,54529.0,1608869223
Pontevedra,Pontevedra,10.37,122.88,Philippines,PH,PHL,Negros Occidental,,54502.0,1608571163
Trento,Trento,8.05,126.06,Philippines,PH,PHL,Agusan del Sur,,54492.0,1608000411
Tapas,Tapas,11.2622,122.5369,Philippines,PH,PHL,Capiz,,54423.0,1608778423
San Isidro,San Isidro,15.3097,120.9069,Philippines,PH,PHL,Nueva Ecija,,54372.0,1608420595
San Manuel,San Manuel,16.0656,120.6667,Philippines,PH,PHL,Pangasinan,,54271.0,1608368777
Don Bosco,Don Bosco,14.4817,121.0258,Philippines,PH,PHL,Parañaque,,54188.0,1608303018
Tagkawayan,Tagkawayan,13.97,122.53,Philippines,PH,PHL,Quezon,,54003.0,1608280860
Titay,Titay,7.8703,122.5594,Philippines,PH,PHL,Zamboanga Sibugay,,53994.0,1608727863
Minalabac,Minalabac,13.57,123.1844,Philippines,PH,PHL,Camarines Sur,,53981.0,1608455061
Vigan,Vigan,17.5747,120.3869,Philippines,PH,PHL,Ilocos Sur,admin,53935.0,1608368724
Cabagan,Cabagan,17.43,121.77,Philippines,PH,PHL,Isabela,,53897.0,1608000078
Impasugong,Impasugong,8.3028,125.0014,Philippines,PH,PHL,Bukidnon,,53863.0,1608213204
Magpet,Magpet,7.12,125.12,Philippines,PH,PHL,Cotabato,,53800.0,1608152372
Kitaotao,Kitaotao,7.6406,125.0086,Philippines,PH,PHL,Bukidnon,,53796.0,1608491957
Ajuy,Ajuy,11.1725,123.0196,Philippines,PH,PHL,Iloilo,,53462.0,1608027727
Pasacao,Pasacao,13.5103,123.0419,Philippines,PH,PHL,Camarines Sur,,53461.0,1608469033
Sibonga,Sibonga,10.03,123.57,Philippines,PH,PHL,Cebu,,53424.0,1608015475
Guiuan,Guiuan,11.03,125.73,Philippines,PH,PHL,Eastern Samar,,53361.0,1608781474
Estancia,Estancia,11.45,123.15,Philippines,PH,PHL,Iloilo,,53200.0,1608481642
Barobo,Barobo,8.5292,126.1217,Philippines,PH,PHL,Surigao del Sur,minor,53146.0,1608503227
Molave,Molave,8.0933,123.485,Philippines,PH,PHL,Zamboanga del Sur,,53140.0,1608000808
Lucban,Lucban,14.1133,121.5569,Philippines,PH,PHL,Quezon,,53091.0,1608544826
Zaragoza,Zaragoza,15.4492,120.7933,Philippines,PH,PHL,Nueva Ecija,,53090.0,1608154006
Aurora,Aurora,7.9484,123.5819,Philippines,PH,PHL,Zamboanga del Sur,,52995.0,1608800482
Buenavista,Buenavista,10.7,122.63,Philippines,PH,PHL,Iloilo,,52899.0,1608364604
Pigcawayan,Pigcawayan,7.28,124.43,Philippines,PH,PHL,Cotabato,,52744.0,1608129711
Hamtic,Hamtic,10.7,121.98,Philippines,PH,PHL,Antique,,52685.0,1608000341
San Joaquin,San Joaquin,10.6,122.08,Philippines,PH,PHL,Iloilo,,52617.0,1608754625
Bani,Bani,16.1869,119.8592,Philippines,PH,PHL,Pangasinan,,52603.0,1608695660
President Roxas,President Roxas,7.1544,125.0558,Philippines,PH,PHL,Cotabato,,52512.0,1608182795
Burauen,Burauen,10.9833,124.9,Philippines,PH,PHL,Leyte,,52511.0,1608412407
Dauis,Dauis,9.625,123.865,Philippines,PH,PHL,Bohol,minor,52492.0,1608702299
Claveria,Claveria,8.61,124.8947,Philippines,PH,PHL,Misamis Oriental,,52478.0,1608363693
Ibajay,Ibajay,11.8211,122.1617,Philippines,PH,PHL,Aklan,,52364.0,1608871627
Sison,Sison,16.17,120.52,Philippines,PH,PHL,Pangasinan,,52320.0,1608509271
Naguilian,Naguilian,16.53,120.4,Philippines,PH,PHL,La Union,,52189.0,1608096678
Victoria,Victoria,13.1719,121.2756,Philippines,PH,PHL,Oriental Mindoro,,52175.0,1608650895
Bato,Bato,13.3578,123.3678,Philippines,PH,PHL,Camarines Sur,,52155.0,1608558575
Leon,Leon,10.7808,122.3894,Philippines,PH,PHL,Iloilo,,51990.0,1608404496
Padre Garcia,Padre Garcia,13.88,121.22,Philippines,PH,PHL,Batangas,,51853.0,1608742356
Caramoan,Caramoan,13.7707,123.8631,Philippines,PH,PHL,Camarines Sur,,51728.0,1608379060
Santa Ignacia,Santa Ignacia,15.62,120.43,Philippines,PH,PHL,Tarlac,,51626.0,1608541696
Alaminos,Alaminos,14.0635,121.2451,Philippines,PH,PHL,Laguna,,51619.0,1608904750
Bantacan,Bantacan,7.5483,126.1381,Philippines,PH,PHL,Davao de Oro,,51466.0,1608426176
Ocampo,Ocampo,13.5594,123.3761,Philippines,PH,PHL,Camarines Sur,,51073.0,1608626195
San Narciso,San Narciso,13.5677,122.5667,Philippines,PH,PHL,Quezon,,51058.0,1608673260
Kalamansig,Kalamansig,6.57,124.05,Philippines,PH,PHL,Sultan Kudarat,,50900.0,1608935312
Mabini,Mabini,13.72,120.9,Philippines,PH,PHL,Batangas,,50858.0,1608253644
Cataingan,Cataingan,12.0028,123.9944,Philippines,PH,PHL,Masbate,,50623.0,1608181917
Gloria,Gloria,12.9722,121.4778,Philippines,PH,PHL,Oriental Mindoro,,50496.0,1608174467
El Nido,El Nido,11.1956,119.4075,Philippines,PH,PHL,Palawan,,50494.0,1608909858
Bangued,Bangued,17.6,120.62,Philippines,PH,PHL,Abra,admin,50382.0,1608442037
Aringay,Aringay,16.3982,120.3555,Philippines,PH,PHL,La Union,,50380.0,1608034182
Wao,Wao,7.6404,124.7257,Philippines,PH,PHL,Lanao del Sur,,50366.0,1608411072
Amulung,Amulung,17.8387,121.7235,Philippines,PH,PHL,Cagayan,,50336.0,1608751634
Peñablanca,Penablanca,17.6258,121.7853,Philippines,PH,PHL,Cagayan,,50300.0,1608098995
Donsol,Donsol,12.9083,123.5981,Philippines,PH,PHL,Sorsogon,,50281.0,1608774508
Cardona,Cardona,14.4861,121.2289,Philippines,PH,PHL,Rizal,,50143.0,1608017809
Tubod,Tubod,8.05,123.8,Philippines,PH,PHL,Lanao del Norte,admin,50073.0,1608442374
Pananaw,Pananaw,5.98,121.25,Philippines,PH,PHL,Sulu,,49849.0,1608891560
Pontevedra,Pontevedra,11.48,122.83,Philippines,PH,PHL,Capiz,,49725.0,1608713952
Bignay,Bignay,14.7456,120.9961,Philippines,PH,PHL,Caloocan,,49716.0,1608750105
Rosario,Rosario,8.38,126.0,Philippines,PH,PHL,Agusan del Sur,,49610.0,1608932289
Dumarao,Dumarao,11.2631,122.6878,Philippines,PH,PHL,Capiz,,49506.0,1608348217
Noveleta,Noveleta,14.43,120.88,Philippines,PH,PHL,Cavite,,49452.0,1608459830
Kiblawan,Kiblawan,6.62,125.22,Philippines,PH,PHL,Davao del Sur,,49381.0,1608861661
Bagumbayan,Bagumbayan,14.4744,121.0569,Philippines,PH,PHL,Taguig,,49319.0,1608516685
Odiongan,Odiongan,12.4,122.0,Philippines,PH,PHL,Romblon,,49284.0,1608412988
Carmen,Carmen,9.82,124.2,Philippines,PH,PHL,Bohol,,49191.0,1608657913
Malabang,Malabang,7.5903,124.0703,Philippines,PH,PHL,Lanao del Sur,,49088.0,1608464101
Pio Duran,Pio Duran,13.03,123.45,Philippines,PH,PHL,Albay,,49070.0,1608712032
Vinzons,Vinzons,14.1739,122.9081,Philippines,PH,PHL,Camarines Norte,,49042.0,1608285881
Dulag,Dulag,10.9525,125.0317,Philippines,PH,PHL,Leyte,,48992.0,1608955994
Libona,Libona,8.3333,124.7433,Philippines,PH,PHL,Bukidnon,,48965.0,1608325771
Alcala,Alcala,15.8468,120.5218,Philippines,PH,PHL,Pangasinan,,48908.0,1608910031
Panay,Panay,11.5553,122.7931,Philippines,PH,PHL,Capiz,minor,48890.0,1608684570
Dumingag,Dumingag,8.155,123.345,Philippines,PH,PHL,Zamboanga del Sur,,48881.0,1608267722
Lal-lo,Lal-lo,18.2,121.6622,Philippines,PH,PHL,Cagayan,,48733.0,1608280944
Barotac Viejo,Barotac Viejo,11.05,122.85,Philippines,PH,PHL,Iloilo,,48614.0,1608392273
Inabanga,Inabanga,10.03,124.07,Philippines,PH,PHL,Bohol,,48534.0,1608000352
Siocon,Siocon,7.7067,122.1361,Philippines,PH,PHL,Zamboanga del Norte,,48524.0,1608916747
Minalin,Minalin,14.97,120.68,Philippines,PH,PHL,Pampanga,,48380.0,1608713479
Tuba,Tuba,16.3928,120.5603,Philippines,PH,PHL,Baguio,,48312.0,1608336813
Mahayag,Mahayag,8.1297,123.4383,Philippines,PH,PHL,Zamboanga del Sur,,48258.0,1608887239
Santa Rita,Santa Rita,14.9953,120.6153,Philippines,PH,PHL,Pampanga,,48209.0,1608145435
Bacolor,Bacolor,14.9984,120.6526,Philippines,PH,PHL,Pampanga,,48066.0,1608706572
Balimbing,Balimbing,5.0728,119.8847,Philippines,PH,PHL,Tawi-Tawi,,48055.0,1608866055
New Washington,New Washington,11.6483,122.4339,Philippines,PH,PHL,Aklan,,47955.0,1608369678
Tibigan,Tibigan,9.95,123.97,Philippines,PH,PHL,Bohol,,47886.0,1608122914
Mamburao,Mamburao,13.2233,120.596,Philippines,PH,PHL,Occidental Mindoro,admin,47705.0,1608912012
Sogod,Sogod,10.38,124.98,Philippines,PH,PHL,Southern Leyte,,47552.0,1608917978
Bunawan,Bunawan,8.18,125.99,Philippines,PH,PHL,Agusan del Sur,,47512.0,1608342650
Malinao,Malinao,13.4,123.7,Philippines,PH,PHL,Albay,,47395.0,1608177010
Sumisip,Sumisip,6.42,121.98,Philippines,PH,PHL,Basilan,,47345.0,1608552751
Albuera,Albuera,10.9186,124.6923,Philippines,PH,PHL,Leyte,,47151.0,1608775659
Ayungon,Ayungon,9.8584,123.1468,Philippines,PH,PHL,Negros Oriental,,47102.0,1608744490
Pilar,Pilar,11.4878,122.9956,Philippines,PH,PHL,Capiz,,47100.0,1608061178
Banisilan,Banisilan,7.5,124.7,Philippines,PH,PHL,Cotabato,,46995.0,1608096617
Kabasalan,Kabasalan,7.7968,122.7627,Philippines,PH,PHL,Zamboanga Sibugay,minor,46884.0,1608527751
Isabel,Isabel,10.93,124.43,Philippines,PH,PHL,Leyte,,46781.0,1608929940
Norala,Norala,6.55,124.67,Philippines,PH,PHL,South Cotabato,,46682.0,1608152835
Montevista,Montevista,7.7053,125.9903,Philippines,PH,PHL,Davao de Oro,,46558.0,1608301294
Tuy,Tuy,14.02,120.73,Philippines,PH,PHL,Batangas,,46519.0,1608702969
Lower Tungawan,Lower Tungawan,7.6047,122.4228,Philippines,PH,PHL,Zamboanga Sibugay,,46497.0,1608107982
Cordon,Cordon,16.67,121.45,Philippines,PH,PHL,Isabela,,46477.0,1608294077
Pagalungan,Pagalungan,7.0592,124.6987,Philippines,PH,PHL,Maguindanao,,46277.0,1608925189
Pilar,Pilar,14.67,120.57,Philippines,PH,PHL,Bataan,,46239.0,1608351430
Talisay,Talisay,14.1,121.02,Philippines,PH,PHL,Batangas,,46238.0,1608635733
Narvacan,Narvacan,17.4192,120.4756,Philippines,PH,PHL,Ilocos Sur,,46234.0,1608024817
Dingle,Dingle,11.05,122.67,Philippines,PH,PHL,Iloilo,,45965.0,1608576091
Lupao,Lupao,15.8794,120.8994,Philippines,PH,PHL,Nueva Ecija,,45917.0,1608945408
Lumba-a-Bayabao,Lumba-a-Bayabao,7.88,124.38,Philippines,PH,PHL,Lanao del Sur,,45909.0,1608241306
Tantangan,Tantangan,6.62,124.75,Philippines,PH,PHL,South Cotabato,,45744.0,1608138127
Maluso,Maluso,6.55,121.88,Philippines,PH,PHL,Basilan,,45730.0,1608259525
Jones,Jones,16.5583,121.7,Philippines,PH,PHL,Isabela,,45628.0,1608556354
Talagutong,Talagutong,6.27,125.67,Philippines,PH,PHL,Davao Occidental,,45540.0,1608694317
Palayan City,Palayan City,15.5422,121.0844,Philippines,PH,PHL,Nueva Ecija,admin,45383.0,1608192136
Tayug,Tayug,16.0267,120.7478,Philippines,PH,PHL,Pangasinan,,45241.0,1608042299
Basud,Basud,14.07,122.97,Philippines,PH,PHL,Camarines Norte,,45133.0,1608662670
Aguilar,Aguilar,15.8899,120.2379,Philippines,PH,PHL,Pangasinan,,45100.0,1608688044
Angadanan,Angadanan,16.7571,121.7479,Philippines,PH,PHL,Isabela,,44977.0,1608436473
Maria Aurora,Maria Aurora,15.7967,121.4737,Philippines,PH,PHL,Aurora,,44958.0,1608487496
Buguias,Buguias,16.8033,120.8211,Philippines,PH,PHL,Benguet,,44877.0,1608025236
Nasipit,Nasipit,8.99,125.34,Philippines,PH,PHL,Agusan del Norte,,44822.0,1608538280
Manjuyod,Manjuyod,9.68,123.15,Philippines,PH,PHL,Negros Oriental,,44799.0,1608403935
Katipunan,Katipunan,8.5134,123.2847,Philippines,PH,PHL,Zamboanga del Norte,,44661.0,1608419137
Concepcion,Concepcion,11.2,123.1,Philippines,PH,PHL,Iloilo,,44633.0,1608504711
Dolores,Dolores,12.0378,125.4828,Philippines,PH,PHL,Eastern Samar,,44626.0,1608089533
Upper Bicutan,Upper Bicutan,14.4873,121.0503,Philippines,PH,PHL,Taguig,,44592.0,1608556218
Culasi,Culasi,11.4272,122.056,Philippines,PH,PHL,Antique,,44494.0,1608277332
Banaybanay,Banaybanay,6.9664,126.0114,Philippines,PH,PHL,Davao Oriental,minor,44451.0,1608436387
San Pascual,San Pascual,13.1286,122.9775,Philippines,PH,PHL,Masbate,,44449.0,1608784902
Bacnotan,Bacnotan,16.7197,120.3481,Philippines,PH,PHL,La Union,,44388.0,1608914452
Bulalacao,Bulalacao,12.325,121.343,Philippines,PH,PHL,Oriental Mindoro,,44366.0,1608165022
San Jacinto,San Jacinto,16.0725,120.4411,Philippines,PH,PHL,Pangasinan,,44351.0,1608800600
Pagsanjan,Pagsanjan,14.27,121.45,Philippines,PH,PHL,Laguna,,44327.0,1608065525
General Mamerto Natividad,General Mamerto Natividad,15.603,121.051,Philippines,PH,PHL,Nueva Ecija,,44311.0,1608562386
Labangan,Labangan,7.8667,123.5167,Philippines,PH,PHL,Zamboanga del Sur,,44262.0,1608208159
Loon,Loon,9.8,123.8,Philippines,PH,PHL,Bohol,,44224.0,1608295204
Cateel,Cateel,7.79,126.4531,Philippines,PH,PHL,Davao Oriental,,44207.0,1608641837
Maitum,Maitum,6.03,124.48,Philippines,PH,PHL,Sarangani,,44185.0,1608001059
Central Signal Village,Central Signal Village,14.5106,121.0576,Philippines,PH,PHL,Taguig,,44126.0,1608571433
Mandaon,Mandaon,12.2259,123.2842,Philippines,PH,PHL,Masbate,,44122.0,1608226028
Guinayangan,Guinayangan,13.9,122.45,Philippines,PH,PHL,Quezon,,44045.0,1608150826
San Jose,San Jose,13.6981,123.5186,Philippines,PH,PHL,Camarines Sur,,43973.0,1608136409
Labason,Labason,8.0647,122.52,Philippines,PH,PHL,Zamboanga del Norte,,43934.0,1608176586
Loreto,Loreto,8.19,125.85,Philippines,PH,PHL,Agusan del Sur,,43880.0,1608248294
Hinatuan,Hinatuan,8.3661,126.3361,Philippines,PH,PHL,Surigao del Sur,minor,43841.0,1608000148
Baler,Baler,15.7583,121.5625,Philippines,PH,PHL,Aurora,admin,43785.0,1608495530
Jaro,Jaro,11.1894,124.7853,Philippines,PH,PHL,Leyte,,43758.0,1608163116
Badian,Badian,9.8694,123.3959,Philippines,PH,PHL,Cebu,minor,43735.0,1608819592
Kalilangan,Kalilangan,7.7464,124.7475,Philippines,PH,PHL,Bukidnon,,43711.0,1608709843
Santa Elena,Santa Elena,14.1797,122.3919,Philippines,PH,PHL,Camarines Norte,,43582.0,1608770058
Roseller Lim,Roseller Lim,7.6583,122.4639,Philippines,PH,PHL,Zamboanga Sibugay,minor,43575.0,1608602794
Guambog,Guambog,7.3092,125.8556,Philippines,PH,PHL,Davao de Oro,,43552.0,1608180955
Moises Padilla,Moises Padilla,10.27,123.08,Philippines,PH,PHL,Negros Occidental,,43462.0,1608308845
Toboso,Toboso,10.72,123.52,Philippines,PH,PHL,Negros Occidental,,43445.0,1608947836
Victoria,Victoria,14.225,121.325,Philippines,PH,PHL,Laguna,,43408.0,1608591152
Laurel,Laurel,14.05,120.9,Philippines,PH,PHL,Batangas,,43210.0,1608000356
South Upi,South Upi,6.8548,124.1443,Philippines,PH,PHL,Maguindanao,,43197.0,1608025115
Abucay,Abucay,14.7222,120.5354,Philippines,PH,PHL,Bataan,,42984.0,1608999598
Villaba,Villaba,11.22,124.4,Philippines,PH,PHL,Leyte,,42859.0,1608389528
Santo Tomas,Santo Tomas,15.0,120.75,Philippines,PH,PHL,Pampanga,,42846.0,1608099364
Nueva Valencia,Nueva Valencia,10.5259,122.5398,Philippines,PH,PHL,Guimaras,,42771.0,1608858098
Proper Bansud,Proper Bansud,12.8594,121.4567,Philippines,PH,PHL,Oriental Mindoro,,42671.0,1608041757
Panitan,Panitan,11.4639,122.7694,Philippines,PH,PHL,Capiz,,42565.0,1608830815
Balabac,Balabac,7.98,117.05,Philippines,PH,PHL,Palawan,,42527.0,1608341109
Tucuran,Tucuran,7.8547,123.5783,Philippines,PH,PHL,Zamboanga del Sur,,42429.0,1608400809
Carranglan,Carranglan,15.9608,121.0631,Philippines,PH,PHL,Nueva Ecija,,42420.0,1608667517
Santa Cruz,Santa Cruz,13.0831,120.7192,Philippines,PH,PHL,Occidental Mindoro,,42417.0,1608892530
Santa Rita,Santa Rita,11.4522,124.9408,Philippines,PH,PHL,Samar,,42384.0,1608542075
Llanera,Llanera,15.6625,121.0197,Philippines,PH,PHL,Nueva Ecija,,42281.0,1608388009
Polanco,Polanco,8.5319,123.3631,Philippines,PH,PHL,Zamboanga del Norte,,42265.0,1608083261
President Quirino,President Quirino,6.7,124.73,Philippines,PH,PHL,Sultan Kudarat,minor,42244.0,1608129077
Liloy,Liloy,8.1228,122.6736,Philippines,PH,PHL,Zamboanga del Norte,,42213.0,1608049613
Aritao,Aritao,16.2973,121.0338,Philippines,PH,PHL,Nueva Vizcaya,,42197.0,1608014234
Claveria,Claveria,12.9035,123.2457,Philippines,PH,PHL,Masbate,minor,42142.0,1608229626
Madridejos,Madridejos,11.27,123.73,Philippines,PH,PHL,Cebu,,42039.0,1608629186
Matnog,Matnog,12.5856,124.0856,Philippines,PH,PHL,Sorsogon,,41989.0,1608099282
Puerto Galera,Puerto Galera,13.5,120.9542,Philippines,PH,PHL,Oriental Mindoro,,41961.0,1608505295
Amadeo,Amadeo,14.1728,120.9277,Philippines,PH,PHL,Cavite,,41901.0,1608636193
Kibawe,Kibawe,7.5678,124.9903,Philippines,PH,PHL,Bukidnon,,41897.0,1608899134
Quezon,Quezon,15.5542,120.8111,Philippines,PH,PHL,Nueva Ecija,,41845.0,1608944332
San Miguel,San Miguel,8.9322,126.0403,Philippines,PH,PHL,Surigao del Sur,,41809.0,1608334875
Kasibu,Kasibu,16.3181,121.2958,Philippines,PH,PHL,Nueva Vizcaya,,41776.0,1608558514
Naga,Naga,7.7978,122.6944,Philippines,PH,PHL,Zamboanga Sibugay,,41743.0,1608430919
Gonzaga,Gonzaga,18.2614,121.9969,Philippines,PH,PHL,Cagayan,,41680.0,1608287955
Daram,Daram,11.6341,124.7947,Philippines,PH,PHL,Samar,,41608.0,1608081438
Socorro,Socorro,13.0583,121.4117,Philippines,PH,PHL,Oriental Mindoro,,41585.0,1608390330
Anda,Anda,16.2896,119.9491,Philippines,PH,PHL,Pangasinan,,41548.0,1608003034
Tagudin,Tagudin,16.9361,120.4464,Philippines,PH,PHL,Ilocos Sur,,41538.0,1608233490
Tabogon,Tabogon,10.93,124.03,Philippines,PH,PHL,Cebu,,41432.0,1608318557
Mondragon,Mondragon,12.52,124.75,Philippines,PH,PHL,Northern Samar,,41415.0,1608295984
Santa Cruz,Santa Cruz,17.0853,120.4553,Philippines,PH,PHL,Ilocos Sur,,41366.0,1608559758
Alcala,Alcala,17.9031,121.6556,Philippines,PH,PHL,Cagayan,,41295.0,1608450739
Maayon,Maayon,11.3903,122.7828,Philippines,PH,PHL,Capiz,,41226.0,1608644841
Lasam,Lasam,18.07,121.6,Philippines,PH,PHL,Cagayan,,41225.0,1608352483
Bacong,Bacong,9.2464,123.2948,Philippines,PH,PHL,Negros Oriental,,41207.0,1608952649
San Jose de Urquico,San Jose de Urquico,15.4781,120.4639,Philippines,PH,PHL,Tarlac,,41182.0,1608469501
Mambajao,Mambajao,9.25,124.72,Philippines,PH,PHL,Camiguin,admin,41094.0,1608281273
La Libertad,La Libertad,10.03,123.22,Philippines,PH,PHL,Negros Oriental,,41089.0,1608768196
Tagbina,Tagbina,8.4578,126.1578,Philippines,PH,PHL,Surigao del Sur,,41051.0,1608525528
Tampakan,Tampakan,6.45,124.93,Philippines,PH,PHL,South Cotabato,,41018.0,1608000995
Marikina Heights,Marikina Heights,14.6534,121.1187,Philippines,PH,PHL,Marikina,,40967.0,1608286421
Maddela,Maddela,16.3411,121.6833,Philippines,PH,PHL,Quirino,,40943.0,1608762330
Malilipot,Malilipot,13.32,123.73,Philippines,PH,PHL,Albay,,40857.0,1608138791
Santo Tomas,Santo Tomas,16.28,120.38,Philippines,PH,PHL,La Union,,40846.0,1608081597
Mobo,Mobo,12.3372,123.6581,Philippines,PH,PHL,Masbate,,40823.0,1608308283
Vallehermoso,Vallehermoso,10.33,123.32,Philippines,PH,PHL,Negros Oriental,,40779.0,1608255760
Lobo,Lobo,13.65,121.25,Philippines,PH,PHL,Batangas,,40736.0,1608882529
Mambusao,Mambusao,11.43,122.5953,Philippines,PH,PHL,Capiz,,40690.0,1608156919
Maragondon,Maragondon,14.27,120.73,Philippines,PH,PHL,Cavite,,40687.0,1608780945
Nabas,Nabas,11.8278,122.0939,Philippines,PH,PHL,Aklan,,40632.0,1608047597
Siay,Siay,7.7056,122.8641,Philippines,PH,PHL,Zamboanga Sibugay,,40585.0,1608466245
Romblon,Romblon,12.55,122.28,Philippines,PH,PHL,Romblon,admin,40554.0,1608428749
San Juan,San Juan,16.67,120.33,Philippines,PH,PHL,La Union,,40507.0,1608765235
Rizal,Rizal,12.47,120.97,Philippines,PH,PHL,Occidental Mindoro,,40429.0,1608028243
Villanueva,Villanueva,8.58,124.78,Philippines,PH,PHL,Misamis Oriental,,40419.0,1608541985
Leyte,Leyte,11.37,124.48,Philippines,PH,PHL,Leyte,,40397.0,1608131998
Balaoan,Balaoan,16.82,120.4,Philippines,PH,PHL,La Union,,40339.0,1608406936
Bañga,Banga,11.6389,122.3331,Philippines,PH,PHL,Aklan,,40318.0,1608293619
Payabon,Payabon,9.77,123.13,Philippines,PH,PHL,Negros Oriental,,40308.0,1608351258
Malalag,Malalag,6.6,125.4,Philippines,PH,PHL,Davao del Sur,,40158.0,1608009678
Balud,Balud,12.0369,123.1935,Philippines,PH,PHL,Masbate,,40155.0,1608021152
Taysan,Taysan,13.78,121.2,Philippines,PH,PHL,Batangas,,40146.0,1608589412
Dingras,Dingras,18.1036,120.6975,Philippines,PH,PHL,Ilocos Norte,,40127.0,1608342928
Valladolid,Valladolid,10.47,122.83,Philippines,PH,PHL,Negros Occidental,,39996.0,1608471228
Cabatuan,Cabatuan,16.9589,121.6692,Philippines,PH,PHL,Isabela,,39990.0,1608638742
Plaridel,Plaridel,8.6214,123.7101,Philippines,PH,PHL,Misamis Occidental,,39840.0,1608091150
Panglao,Panglao,9.579,123.745,Philippines,PH,PHL,Bohol,,39839.0,1608819048
Tago,Tago,9.0192,126.2333,Philippines,PH,PHL,Surigao del Sur,,39831.0,1608986143
Baco,Baco,13.3584,121.0977,Philippines,PH,PHL,Oriental Mindoro,,39817.0,1608441009
Pamplona,Pamplona,9.47,123.12,Philippines,PH,PHL,Negros Oriental,,39805.0,1608085129
Santo Niño,Santo Nino,6.43,124.68,Philippines,PH,PHL,South Cotabato,,39796.0,1608688474
Palauig,Palauig,15.4336,119.9083,Philippines,PH,PHL,Zambales,,39784.0,1608524035
San Nicolas,San Nicolas,16.07,120.7653,Philippines,PH,PHL,Pangasinan,,39778.0,1608738282
Magsaysay,Magsaysay,12.3117,121.1472,Philippines,PH,PHL,Occidental Mindoro,,39767.0,1608874631
Alimodian,Alimodian,10.8196,122.4322,Philippines,PH,PHL,Iloilo,,39722.0,1608277073
Veruela,Veruela,8.07,125.96,Philippines,PH,PHL,Agusan del Sur,,39708.0,1608516164
Caraga,Caraga,7.3283,126.5658,Philippines,PH,PHL,Davao Oriental,,39704.0,1608528892
Buldon,Buldon,7.52,124.37,Philippines,PH,PHL,Maguindanao,,39684.0,1608528294
Talacogon,Talacogon,8.45,125.79,Philippines,PH,PHL,Agusan del Sur,,39678.0,1608543218
Poblacion,Poblacion,7.5086,125.9206,Philippines,PH,PHL,Davao de Oro,,39631.0,1608344073
Manay,Manay,7.2108,126.5328,Philippines,PH,PHL,Davao Oriental,,39572.0,1608580743
Jordan,Jordan,10.6,122.6,Philippines,PH,PHL,Guimaras,admin,39566.0,1608769914
Kalingalan Caluang,Kalingalan Caluang,5.88,121.27,Philippines,PH,PHL,Sulu,,39549.0,1608192303
Lilio,Lilio,14.13,121.436,Philippines,PH,PHL,Laguna,,39491.0,1608390374
Siniloan,Siniloan,14.42,121.45,Philippines,PH,PHL,Laguna,,39460.0,1608472370
Alicia,Alicia,7.506,122.9412,Philippines,PH,PHL,Zamboanga Sibugay,,39456.0,1608675842
Sogod,Sogod,10.75,124.0,Philippines,PH,PHL,Cebu,,39447.0,1608748948
Clarin,Clarin,8.2,123.85,Philippines,PH,PHL,Misamis Occidental,,39356.0,1608833654
Pamplona,Pamplona,13.5925,123.0833,Philippines,PH,PHL,Camarines Sur,,39333.0,1608392531
Damulog,Damulog,7.4853,124.9411,Philippines,PH,PHL,Bukidnon,,39322.0,1608647933
Bayanan,Bayanan,14.4078,121.05,Philippines,PH,PHL,Muntinlupa,,39150.0,1608397045
Agoncillo,Agoncillo,13.9334,120.9285,Philippines,PH,PHL,Batangas,,39101.0,1608191192
Sual,Sual,16.0661,120.0958,Philippines,PH,PHL,Pangasinan,,39091.0,1608276228
San Dionisio,San Dionisio,11.2711,123.0948,Philippines,PH,PHL,Iloilo,,39048.0,1608238884
Gabaldon,Gabaldon,15.4506,121.3378,Philippines,PH,PHL,Nueva Ecija,,38958.0,1608599479
Caluya,Caluya,11.932,121.548,Philippines,PH,PHL,Antique,,38908.0,1608445589
San Nicolas,San Nicolas,18.175,120.595,Philippines,PH,PHL,Ilocos Norte,,38895.0,1608708008
Cabugao,Cabugao,17.7947,120.4556,Philippines,PH,PHL,Ilocos Sur,,38884.0,1608084710
Aborlan,Aborlan,9.4386,118.5481,Philippines,PH,PHL,Palawan,,38736.0,1608193671
Valencia,Valencia,9.28,123.25,Philippines,PH,PHL,Negros Oriental,,38733.0,1608009046
Real,Real,14.67,121.6,Philippines,PH,PHL,Quezon,,38678.0,1608401187
Jamindan,Jamindan,11.4094,122.5103,Philippines,PH,PHL,Capiz,,38670.0,1608186987
Margosatubig,Margosatubig,7.5783,123.1659,Philippines,PH,PHL,Zamboanga del Sur,,38660.0,1608570803
San Fernando,San Fernando,13.5661,123.1422,Philippines,PH,PHL,Camarines Sur,,38626.0,1608187766
San Andres,San Andres,13.5961,124.0992,Philippines,PH,PHL,Catanduanes,,38480.0,1608257765
Maasin,Maasin,10.88,122.43,Philippines,PH,PHL,Iloilo,,38461.0,1608867615
Olutanga,Olutanga,7.3106,122.8464,Philippines,PH,PHL,Zamboanga Sibugay,,38438.0,1608000162
Buug,Buug,7.7286,123.0608,Philippines,PH,PHL,Zamboanga Sibugay,,38425.0,1608366123
Patnongon,Patnongon,10.9142,121.9947,Philippines,PH,PHL,Antique,,38329.0,1608542383
Samal,Samal,14.7678,120.5431,Philippines,PH,PHL,Bataan,,38302.0,1608128409
Laur,Laur,15.5797,121.1864,Philippines,PH,PHL,Nueva Ecija,,38263.0,1608394734
Borbon,Borbon,10.83,124.0,Philippines,PH,PHL,Cebu,,38187.0,1608861452
Tayasan,Tayasan,9.92,123.15,Philippines,PH,PHL,Negros Oriental,,38159.0,1608000640
Mapandan,Mapandan,16.026,120.454,Philippines,PH,PHL,Pangasinan,,38058.0,1608000894
Bangar,Bangar,16.9,120.42,Philippines,PH,PHL,La Union,,38041.0,1608636378
Bagabag,Bagabag,16.6044,121.2521,Philippines,PH,PHL,Nueva Vizcaya,,37985.0,1608331162
Luuk,Luuk,5.9676,121.3133,Philippines,PH,PHL,Sulu,,37873.0,1608357369
Santo Domingo,Santo Domingo,13.235,123.7769,Philippines,PH,PHL,Albay,,37765.0,1608392602
Marantao,Marantao,7.95,124.233,Philippines,PH,PHL,Lanao del Sur,,37763.0,1608129790
Karuhatan,Karuhatan,14.6883,120.9761,Philippines,PH,PHL,Valenzuela,,37748.0,1608392998
San Marcelino,San Marcelino,14.9742,120.1573,Philippines,PH,PHL,Zambales,,37719.0,1608276470
Basista,Basista,15.8524,120.3976,Philippines,PH,PHL,Pangasinan,,37679.0,1608619317
Tambulig,Tambulig,8.07,123.5372,Philippines,PH,PHL,Zamboanga del Sur,,37480.0,1608474492
San Andres,San Andres,13.3231,122.6761,Philippines,PH,PHL,Quezon,,37454.0,1608116909
Oras,Oras,12.1414,125.4392,Philippines,PH,PHL,Eastern Samar,,37451.0,1608000184
San Antonio,San Antonio,14.9486,120.0864,Philippines,PH,PHL,Zambales,,37450.0,1608496787
Magallanes,Magallanes,12.8283,123.8344,Philippines,PH,PHL,Sorsogon,,37411.0,1608899039
Mabuhay,Mabuhay,7.4176,122.837,Philippines,PH,PHL,Zamboanga Sibugay,,37390.0,1608353639
Sitangkai,Sitangkai,4.6615,119.3919,Philippines,PH,PHL,Tawi-Tawi,,37319.0,1608529201
Luna,Luna,16.85,120.38,Philippines,PH,PHL,La Union,,37318.0,1608663387
Mankayan,Mankayan,16.8567,120.7933,Philippines,PH,PHL,Benguet,,37233.0,1608432367
Bantay,Bantay,17.5839,120.3908,Philippines,PH,PHL,Ilocos Sur,,37118.0,1608378458
Imbatug,Imbatug,8.3128,124.6873,Philippines,PH,PHL,Bukidnon,,37111.0,1608682824
Languyan,Languyan,5.2667,120.0833,Philippines,PH,PHL,Tawi-Tawi,,37096.0,1608286000
Moalboal,Moalboal,9.95,123.4,Philippines,PH,PHL,Cebu,,36930.0,1608515460
Basilisa,Basilisa,10.0654,125.5968,Philippines,PH,PHL,Surigao del Norte,,36911.0,1608815842
San Enrique,San Enrique,11.0697,122.6567,Philippines,PH,PHL,Iloilo,,36911.0,1608715558
Manucan,Manucan,8.5161,123.0917,Philippines,PH,PHL,Zamboanga del Norte,,36887.0,1608513294
Sagnay,Sagnay,13.6039,123.5233,Philippines,PH,PHL,Camarines Sur,,36841.0,1608123253
Magsaysay,Magsaysay,9.02,125.18,Philippines,PH,PHL,Misamis Oriental,,36803.0,1608823576
Enrile,Enrile,17.5622,121.7011,Philippines,PH,PHL,Cagayan,,36705.0,1608990960
Aurora,Aurora,16.9918,121.6357,Philippines,PH,PHL,Isabela,,36621.0,1608526044
Las Navas,Las Navas,12.34,125.032,Philippines,PH,PHL,Northern Samar,,36621.0,1608082772
Simbahan,Simbahan,6.3,120.58,Philippines,PH,PHL,Sulu,,36374.0,1608320501
Dinas,Dinas,7.6161,123.3378,Philippines,PH,PHL,Zamboanga del Sur,,36291.0,1608805302
Cabanglasan,Cabanglasan,8.0772,125.2992,Philippines,PH,PHL,Bukidnon,,36286.0,1608230715
Siayan,Siayan,8.2517,123.1144,Philippines,PH,PHL,Zamboanga del Norte,,36236.0,1608937514
Cuenca,Cuenca,13.92,121.05,Philippines,PH,PHL,Batangas,,36235.0,1608210905
Capalonga,Capalonga,14.3314,122.4928,Philippines,PH,PHL,Camarines Norte,,36223.0,1608015273
Canaman,Canaman,13.6481,123.1711,Philippines,PH,PHL,Camarines Sur,,36205.0,1608395412
Gasan,Gasan,13.32,121.85,Philippines,PH,PHL,Marinduque,,36197.0,1608036488
Dagami,Dagami,11.0611,124.9031,Philippines,PH,PHL,Leyte,,36178.0,1608027608
San Luis,San Luis,13.83,120.93,Philippines,PH,PHL,Batangas,,36172.0,1608597506
Rapu-Rapu,Rapu-Rapu,13.18,124.13,Philippines,PH,PHL,Albay,,36151.0,1608870516
Barira,Barira,7.4706,124.3561,Philippines,PH,PHL,Maguindanao,,36143.0,1608237236
Gutalac,Gutalac,7.98,122.4,Philippines,PH,PHL,Zamboanga del Norte,,36090.0,1608515089
Sibuco,Sibuco,7.2928,122.0669,Philippines,PH,PHL,Zamboanga del Norte,,36049.0,1608708028
Matanog,Matanog,7.47,124.25,Philippines,PH,PHL,Maguindanao,,36034.0,1608202820
Claveria,Claveria,9.5742,125.7328,Philippines,PH,PHL,Surigao del Norte,,36033.0,1608512763
Bel-Air,Bel-Air,14.5639,121.0263,Philippines,PH,PHL,Makati,,36007.0,1608102267
Pandan,Pandan,11.7206,122.0961,Philippines,PH,PHL,Antique,,35965.0,1608538108
San Antonio,San Antonio,13.9,121.3,Philippines,PH,PHL,Quezon,minor,35891.0,1608858854
Jagna,Jagna,9.65,124.37,Philippines,PH,PHL,Bohol,,35832.0,1608424671
Numancia,Numancia,11.7042,122.3289,Philippines,PH,PHL,Aklan,,35693.0,1608072562
Santa Ana,Santa Ana,18.4589,122.1419,Philippines,PH,PHL,Cagayan,,35688.0,1608694374
Medina,Medina,8.92,125.02,Philippines,PH,PHL,Misamis Oriental,,35612.0,1608096754
Casiguran,Casiguran,12.8731,124.0081,Philippines,PH,PHL,Sorsogon,,35602.0,1608909406
Pambujan,Pambujan,12.57,124.93,Philippines,PH,PHL,Northern Samar,,35532.0,1608440228
Pola,Pola,13.1439,121.44,Philippines,PH,PHL,Oriental Mindoro,,35455.0,1608906063
Bautista,Bautista,15.8103,120.4756,Philippines,PH,PHL,Pangasinan,,35398.0,1608749594
Morong,Morong,14.68,120.2683,Philippines,PH,PHL,Bataan,,35394.0,1608129969
Juban,Juban,12.8478,123.9894,Philippines,PH,PHL,Sorsogon,,35297.0,1608767825
Pansol,Pansol,14.6514,121.08,Philippines,PH,PHL,Quezon,,35254.0,1608991025
Gandara,Gandara,12.013,124.8118,Philippines,PH,PHL,Samar,,35242.0,1608802493
Allacapan,Allacapan,18.227,121.5556,Philippines,PH,PHL,Cagayan,,35234.0,1608618208
San Luis,San Luis,8.5,125.74,Philippines,PH,PHL,Agusan del Sur,,35196.0,1608855724
Abra de Ilog,Abra de Ilog,13.4448,120.726,Philippines,PH,PHL,Occidental Mindoro,,35176.0,1608871272
Sulop,Sulop,6.5986,125.3436,Philippines,PH,PHL,Davao del Sur,,35151.0,1608421469
Lingig,Lingig,8.0381,126.4127,Philippines,PH,PHL,Surigao del Sur,,35142.0,1608738480
Trinidad,Trinidad,10.0795,124.3432,Philippines,PH,PHL,Bohol,,35119.0,1608919708
Balasan,Balasan,11.4728,123.0878,Philippines,PH,PHL,Iloilo,,35064.0,1608796347
Guimbal,Guimbal,10.67,122.32,Philippines,PH,PHL,Iloilo,,35022.0,1608964265
Munai,Munai,7.9758,124.0636,Philippines,PH,PHL,Lanao del Norte,,35020.0,1608067274
Payao,Payao,7.5857,122.8022,Philippines,PH,PHL,Zamboanga Sibugay,,34952.0,1608479429
Mendez-Nuñez,Mendez-Nunez,14.1286,120.9058,Philippines,PH,PHL,Cavite,,34879.0,1608479897
Leganes,Leganes,10.78,122.58,Philippines,PH,PHL,Iloilo,,34725.0,1608931505
Bugasong,Bugasong,11.0447,122.0647,Philippines,PH,PHL,Antique,,34676.0,1608618288
Dueñas,Duenas,11.07,122.62,Philippines,PH,PHL,Iloilo,,34597.0,1608780214
Abulug,Abulug,18.4441,121.4576,Philippines,PH,PHL,Cagayan,,34579.0,1608894919
Bonifacio,Bonifacio,8.0527,123.6136,Philippines,PH,PHL,Misamis Occidental,,34558.0,1608594855
Bayog,Bayog,7.8474,123.0423,Philippines,PH,PHL,Zamboanga del Sur,,34519.0,1608058578
Mogpog,Mogpog,13.48,121.87,Philippines,PH,PHL,Marinduque,,34516.0,1608266747
Santa Maria,Santa Maria,14.475,121.425,Philippines,PH,PHL,Laguna,,34511.0,1608364592
Barugo,Barugo,11.32,124.73,Philippines,PH,PHL,Leyte,,34497.0,1608857790
Ballesteros,Ballesteros,18.4108,121.5169,Philippines,PH,PHL,Cagayan,,34488.0,1608497933
Santa Fe,Santa Fe,11.15,123.8,Philippines,PH,PHL,Cebu,,34471.0,1608538046
Aloguinsan,Aloguinsan,10.2229,123.5491,Philippines,PH,PHL,Cebu,,34466.0,1608628202
Tandubas,Tandubas,5.134,120.3461,Philippines,PH,PHL,Tawi-Tawi,,34316.0,1608495674
Pinukpuk,Pinukpuk,17.5731,121.3653,Philippines,PH,PHL,Kalinga,,34275.0,1608337793
New Panamao,New Panamao,5.97,121.2,Philippines,PH,PHL,Sulu,,34249.0,1608080145
Simunul,Simunul,4.898,119.8213,Philippines,PH,PHL,Tawi-Tawi,,34245.0,1608851616
Sibutu,Sibutu,4.85,119.47,Philippines,PH,PHL,Tawi-Tawi,,34243.0,1608534545
General Nakar,General Nakar,14.7631,121.635,Philippines,PH,PHL,Quezon,,34225.0,1608579527
Santa Maria,Santa Maria,15.9808,120.7003,Philippines,PH,PHL,Pangasinan,,34220.0,1608045097
Talayan,Talayan,6.9844,124.3564,Philippines,PH,PHL,Maguindanao,,34156.0,1608918556
Laoac East,Laoac East,16.0333,120.55,Philippines,PH,PHL,Pangasinan,,34128.0,1608510641
Guindulman,Guindulman,9.762,124.488,Philippines,PH,PHL,Bohol,,34104.0,1608000310
San Manuel,San Manuel,17.02,121.63,Philippines,PH,PHL,Isabela,,34085.0,1608882654
Cantilan,Cantilan,9.3356,125.9769,Philippines,PH,PHL,Surigao del Sur,,34060.0,1608479522
San Remigio,San Remigio,10.8331,122.0875,Philippines,PH,PHL,Antique,,34045.0,1608377520
Palapag,Palapag,12.547,125.116,Philippines,PH,PHL,Northern Samar,,34034.0,1608117306
Jalajala,Jalajala,14.354,121.324,Philippines,PH,PHL,Rizal,,34017.0,1608617458
Shariff Aguak,Shariff Aguak,6.8647,124.4417,Philippines,PH,PHL,Maguindanao,,33982.0,1608346338
San Quintin,San Quintin,15.9844,120.815,Philippines,PH,PHL,Pangasinan,,33980.0,1608250761
Milaor,Milaor,13.5956,123.1781,Philippines,PH,PHL,Camarines Sur,,33963.0,1608100026
Sibagat,Sibagat,8.82,125.69,Philippines,PH,PHL,Agusan del Sur,,33957.0,1608693755
Initao,Initao,8.5,124.3167,Philippines,PH,PHL,Misamis Oriental,,33902.0,1608853525
Lupi Viejo,Lupi Viejo,13.7908,122.9092,Philippines,PH,PHL,Camarines Sur,,33897.0,1608378429
Lianga,Lianga,8.633,126.0932,Philippines,PH,PHL,Surigao del Sur,minor,33869.0,1608000757
Tabango,Tabango,11.3067,124.3714,Philippines,PH,PHL,Leyte,,33868.0,1608467512
Baclaran,Baclaran,14.5319,120.9942,Philippines,PH,PHL,Parañaque,,33850.0,1608042950
Dao,Dao,11.38,122.63,Philippines,PH,PHL,Capiz,,33842.0,1608336072
Tobias Fornier,Tobias Fornier,10.5178,121.945,Philippines,PH,PHL,Antique,,33816.0,1608748452
Naguilian,Naguilian,17.02,121.85,Philippines,PH,PHL,Isabela,,33788.0,1608878667
Catmon,Catmon,10.67,123.95,Philippines,PH,PHL,Cebu,,33745.0,1608086129
Kadingilan,Kadingilan,7.6003,124.9097,Philippines,PH,PHL,Bukidnon,,33735.0,1608332793
Capoocan,Capoocan,11.2944,124.6419,Philippines,PH,PHL,Leyte,,33721.0,1608022763
Midsalip,Midsalip,8.0328,123.3147,Philippines,PH,PHL,Zamboanga del Sur,,33711.0,1608000929
Datu Paglas,Datu Paglas,6.7669,124.85,Philippines,PH,PHL,Maguindanao,,33682.0,1608409121
Batobato,Batobato,6.8361,126.0889,Philippines,PH,PHL,Davao Oriental,,33664.0,1608375365
Masiu,Masiu,7.82,124.32,Philippines,PH,PHL,Lanao del Sur,,33580.0,1608760371
Sapa Sapa,Sapa Sapa,5.0899,120.2729,Philippines,PH,PHL,Tawi-Tawi,,33580.0,1608223776
Cabarroguis,Cabarroguis,16.5103,121.5222,Philippines,PH,PHL,Quirino,admin,33533.0,1608312278
Columbio,Columbio,6.7,124.93,Philippines,PH,PHL,Sultan Kudarat,,33527.0,1608232119
San Vicente,San Vicente,10.5281,119.2542,Philippines,PH,PHL,Palawan,,33507.0,1608866365
Bacarra,Bacarra,18.2519,120.6107,Philippines,PH,PHL,Ilocos Norte,,33496.0,1608322238
Batan,Batan,11.5853,122.4981,Philippines,PH,PHL,Aklan,,33484.0,1608398108
Getafe,Getafe,10.15,124.15,Philippines,PH,PHL,Bohol,,33422.0,1608770120
Banate,Banate,11.05,122.78,Philippines,PH,PHL,Iloilo,,33376.0,1608443731
Vintar,Vintar,18.2306,120.6489,Philippines,PH,PHL,Ilocos Norte,,33339.0,1608954444
Dupax Del Norte,Dupax Del Norte,16.3075,121.1019,Philippines,PH,PHL,Nueva Vizcaya,,33295.0,1608433556
Pandami,Pandami,5.53,120.75,Philippines,PH,PHL,Sulu,,33177.0,1608493332
Dipaculao,Dipaculao,15.98,121.63,Philippines,PH,PHL,Aurora,,33131.0,1608371572
Calape,Calape,9.88,123.88,Philippines,PH,PHL,Bohol,,33079.0,1608336876
Dumalinao,Dumalinao,7.82,123.37,Philippines,PH,PHL,Zamboanga del Sur,,32928.0,1608596790
Mayantoc,Mayantoc,15.6203,120.3775,Philippines,PH,PHL,Tarlac,,32597.0,1608123368
Matalom,Matalom,10.28,124.8,Philippines,PH,PHL,Leyte,,32586.0,1608519626
Diplahan,Diplahan,7.6911,122.9853,Philippines,PH,PHL,Zamboanga Sibugay,,32585.0,1608903309
Balindong,Balindong,7.92,124.2,Philippines,PH,PHL,Lanao del Sur,,32573.0,1608101746
Badoc,Badoc,17.9267,120.4754,Philippines,PH,PHL,Ilocos Norte,,32530.0,1608039575
Dolores,Dolores,14.0157,121.4011,Philippines,PH,PHL,Quezon,,32514.0,1608414696
Lumbang,Lumbang,14.297,121.459,Philippines,PH,PHL,Laguna,,32330.0,1608829120
Peñaranda,Penaranda,15.3531,121.0017,Philippines,PH,PHL,Nueva Ecija,,32269.0,1608867657
Jimalalud,Jimalalud,9.9797,123.1999,Philippines,PH,PHL,Negros Oriental,,32256.0,1608267364
Mallig,Mallig,17.2086,121.6106,Philippines,PH,PHL,Isabela,,32208.0,1608733659
Igbaras,Igbaras,10.72,122.27,Philippines,PH,PHL,Iloilo,,32197.0,1608731890
Catubig,Catubig,12.4,125.05,Philippines,PH,PHL,Northern Samar,,32174.0,1608682352
Alubijid,Alubijid,8.5714,124.4751,Philippines,PH,PHL,Misamis Oriental,,32163.0,1608269125
Buguey,Buguey,18.2882,121.8331,Philippines,PH,PHL,Cagayan,minor,32148.0,1608139858
Salug,Salug,8.1075,122.7575,Philippines,PH,PHL,Zamboanga del Norte,,32134.0,1608808940
Balimbing,Balimbing,7.9,123.85,Philippines,PH,PHL,Lanao del Norte,,32115.0,1608968849
Caramoran,Caramoran,13.98,124.13,Philippines,PH,PHL,Catanduanes,,32114.0,1608187782
Tamparan,Tamparan,7.879,124.333,Philippines,PH,PHL,Lanao del Sur,,32074.0,1608808635
Malangas,Malangas,7.6317,123.0322,Philippines,PH,PHL,Zamboanga Sibugay,,32022.0,1608502020
Bauko,Bauko,16.9917,120.8644,Philippines,PH,PHL,Mountain,,32021.0,1608534033
Sergio Osmeña Sr,Sergio Osmena Sr,8.3003,123.5083,Philippines,PH,PHL,Zamboanga del Sur,,31942.0,1608000320
Polillo,Polillo,14.72,121.95,Philippines,PH,PHL,Quezon,,31908.0,1608558714
Claveria,Claveria,18.6061,121.0822,Philippines,PH,PHL,Cagayan,,31900.0,1608555618
Pantabangan,Pantabangan,15.8086,121.1433,Philippines,PH,PHL,Nueva Ecija,,31763.0,1608834097
Tubao,Tubao,16.35,120.42,Philippines,PH,PHL,La Union,,31763.0,1608119731
Sigma,Sigma,11.4214,122.6662,Philippines,PH,PHL,Capiz,,31688.0,1608472773
Calubian,Calubian,11.4467,124.4278,Philippines,PH,PHL,Leyte,,31646.0,1608361988
Merida,Merida,10.9098,124.5376,Philippines,PH,PHL,Leyte,,31574.0,1608181701
Lemery,Lemery,11.23,122.93,Philippines,PH,PHL,Iloilo,,31414.0,1608458862
Bagac,Bagac,14.5951,120.3918,Philippines,PH,PHL,Bataan,,31365.0,1608665049
Dasol,Dasol,15.9896,119.8805,Philippines,PH,PHL,Pangasinan,,31355.0,1608297635
Dimataling,Dimataling,7.5297,123.3661,Philippines,PH,PHL,Zamboanga del Sur,,31340.0,1608315903
Magsingal,Magsingal,17.685,120.4244,Philippines,PH,PHL,Ilocos Sur,,31308.0,1608782120
Ivisan,Ivisan,11.5217,122.6908,Philippines,PH,PHL,Capiz,,31278.0,1608052349
President Roxas,President Roxas,11.4297,122.9247,Philippines,PH,PHL,Capiz,,31269.0,1608614914
Paracelis,Paracelis,17.1811,121.4036,Philippines,PH,PHL,Mountain,,31168.0,1608673530
Siraway,Siraway,7.5853,122.1406,Philippines,PH,PHL,Zamboanga del Norte,,31163.0,1608364909
Buenavista,Buenavista,13.7394,122.4675,Philippines,PH,PHL,Quezon,,31160.0,1608200372
Gata,Gata,7.85,124.35,Philippines,PH,PHL,Lanao del Sur,,31141.0,1608491707
Tairan Camp,Tairan Camp,6.65,121.87,Philippines,PH,PHL,Basilan,,31040.0,1608342208
La Paz,La Paz,8.28,125.81,Philippines,PH,PHL,Agusan del Sur,,30969.0,1608150705
Ganassi,Ganassi,7.8269,124.1034,Philippines,PH,PHL,Lanao del Sur,,30802.0,1608113357
San Narciso,San Narciso,15.02,120.08,Philippines,PH,PHL,Zambales,,30759.0,1608230911
San Isidro,San Isidro,11.42,124.35,Philippines,PH,PHL,Leyte,,30722.0,1608758636
Aglipay,Aglipay,16.4889,121.5874,Philippines,PH,PHL,Quirino,,30714.0,1608815754
Balatan,Balatan,13.32,123.23,Philippines,PH,PHL,Camarines Sur,,30669.0,1608458938
Gamu,Gamu,17.05,121.83,Philippines,PH,PHL,Isabela,,30655.0,1608641716
Mataas Na Kahoy,Mataas Na Kahoy,13.97,121.08,Philippines,PH,PHL,Batangas,,30621.0,1608270985
Anilao,Anilao,10.9785,122.7531,Philippines,PH,PHL,Iloilo,,30520.0,1608171466
Torrijos,Torrijos,13.32,122.08,Philippines,PH,PHL,Marinduque,,30476.0,1608448413
Maguing,Maguing,7.9,124.4,Philippines,PH,PHL,Lanao del Sur,,30436.0,1608901118
Candelaria,Candelaria,15.63,119.93,Philippines,PH,PHL,Zambales,,30263.0,1608679847
Pantao-Ragat,Pantao-Ragat,8.05,124.15,Philippines,PH,PHL,Lanao del Norte,,30247.0,1608760882
Las Nieves,Las Nieves,8.74,125.6,Philippines,PH,PHL,Agusan del Norte,,30240.0,1608365860
Calintaan,Calintaan,12.5756,120.9428,Philippines,PH,PHL,Occidental Mindoro,,30190.0,1608559951
Piagapo,Piagapo,8.0,124.2,Philippines,PH,PHL,Lanao del Sur,,30132.0,1608525630
Candijay,Candijay,9.818,124.496,Philippines,PH,PHL,Bohol,,30119.0,1608954791
Marogong,Marogong,7.67,124.15,Philippines,PH,PHL,Lanao del Sur,,30118.0,1608554059
Pulupandan,Pulupandan,10.52,122.8,Philippines,PH,PHL,Negros Occidental,,30117.0,1608181104
San Miguel,San Miguel,10.78,122.47,Philippines,PH,PHL,Iloilo,,30115.0,1608896431
Dumalag,Dumalag,11.3039,122.6214,Philippines,PH,PHL,Capiz,,30098.0,1608493161
Balete,Balete,11.5553,122.3792,Philippines,PH,PHL,Aklan,,30090.0,1608488735
Iguig,Iguig,17.7517,121.7364,Philippines,PH,PHL,Cagayan,,30060.0,1608362919
Dauin,Dauin,9.2,123.27,Philippines,PH,PHL,Negros Oriental,,30018.0,1608545503
Santa Maria,Santa Maria,17.3719,120.4814,Philippines,PH,PHL,Ilocos Sur,,30006.0,1608975400
Balungao,Balungao,15.9,120.7,Philippines,PH,PHL,Pangasinan,,30004.0,1608858364
Salay,Salay,8.87,124.8,Philippines,PH,PHL,Misamis Oriental,,29998.0,1608139757
Agno,Agno,16.1161,119.8027,Philippines,PH,PHL,Pangasinan,,29947.0,1608574609
Ragan Sur,Ragan Sur,17.32,121.78,Philippines,PH,PHL,Isabela,,29928.0,1608589574
San Roque,San Roque,12.533,124.867,Philippines,PH,PHL,Northern Samar,,29882.0,1608667043
Padada,Padada,6.63,125.35,Philippines,PH,PHL,Davao del Sur,,29878.0,1608991234
Balabagan,Balabagan,7.53,124.12,Philippines,PH,PHL,Lanao del Sur,,29863.0,1608273813
Quiapo,Quiapo,14.6,120.983,Philippines,PH,PHL,Manila,,29846.0,1608465903
San Luis,San Luis,15.72,121.52,Philippines,PH,PHL,Aurora,,29824.0,1608491560
Bontoc,Bontoc,10.35,124.97,Philippines,PH,PHL,Southern Leyte,,29799.0,1608980422
Benito Soliven,Benito Soliven,16.98,121.95,Philippines,PH,PHL,Isabela,,29752.0,1608904633
Makato,Makato,11.712,122.2922,Philippines,PH,PHL,Aklan,,29717.0,1608336520
Buenavista,Buenavista,10.08,124.12,Philippines,PH,PHL,Bohol,,29711.0,1608981835
San Jacinto,San Jacinto,12.5683,123.7336,Philippines,PH,PHL,Masbate,,29686.0,1608975961
Pasuquin,Pasuquin,18.3342,120.6183,Philippines,PH,PHL,Ilocos Norte,,29678.0,1608946484
West Rembo,West Rembo,14.5667,121.0667,Philippines,PH,PHL,Makati,,29649.0,1608832412
Placer,Placer,9.657,125.6016,Philippines,PH,PHL,Surigao del Norte,,29616.0,1608949184
South Ubian,South Ubian,5.18,120.48,Philippines,PH,PHL,Tawi-Tawi,,29583.0,1608837264
Zamboanguita,Zamboanguita,9.1,123.199,Philippines,PH,PHL,Negros Oriental,,29569.0,1608790324
Sumilao,Sumilao,8.3281,124.9783,Philippines,PH,PHL,Bukidnon,,29531.0,1608478133
Kumalarang,Kumalarang,7.7478,123.1442,Philippines,PH,PHL,Zamboanga del Sur,,29479.0,1608494719
Manticao,Manticao,8.4042,124.2867,Philippines,PH,PHL,Misamis Oriental,,29469.0,1608455267
Garchitorena,Garchitorena,13.88,123.7,Philippines,PH,PHL,Camarines Sur,,29436.0,1608974221
Lavezares,Lavezares,12.53,124.33,Philippines,PH,PHL,Northern Samar,,29390.0,1608921102
Bagong Pag-Asa,Bagong Pag-Asa,14.6622,121.0331,Philippines,PH,PHL,Quezon,,29389.0,1608625000
Licab,Licab,15.54,120.7619,Philippines,PH,PHL,Nueva Ecija,,29269.0,1608362580
Oslob,Oslob,9.55,123.4,Philippines,PH,PHL,Cebu,,29264.0,1608302642
Poona-Piagapo,Poona-Piagapo,8.08,124.08,Philippines,PH,PHL,Lanao del Norte,,29183.0,1608243882
Hinunangan,Hinunangan,10.4,125.2,Philippines,PH,PHL,Southern Leyte,,29149.0,1608201687
Sexmoan,Sexmoan,14.936,120.623,Philippines,PH,PHL,Pampanga,,29076.0,1608694965
Lugus,Lugus,5.7,120.82,Philippines,PH,PHL,Sulu,,29043.0,1608911835
Santo Domingo,Santo Domingo,17.6414,120.4108,Philippines,PH,PHL,Ilocos Sur,,29041.0,1608638724
Dapa,Dapa,9.7578,126.0528,Philippines,PH,PHL,Surigao del Norte,,29006.0,1608000744
Ampatuan,Ampatuan,6.8348,124.4581,Philippines,PH,PHL,Maguindanao,,28941.0,1608744041
Santo Niño,Santo Nino,14.5033,121.0031,Philippines,PH,PHL,Parañaque,,28925.0,1608225111
Siquijor,Siquijor,9.18,123.58,Philippines,PH,PHL,Siquijor,admin,28915.0,1608692949
Jimenez,Jimenez,8.3333,123.8333,Philippines,PH,PHL,Misamis Occidental,,28909.0,1608870263
Tabuelan,Tabuelan,10.85,123.9,Philippines,PH,PHL,Cebu,,28907.0,1608122773
Ponot,Ponot,8.4428,123.0219,Philippines,PH,PHL,Zamboanga del Norte,,28881.0,1608607022
Baleno,Baleno,12.4739,123.4982,Philippines,PH,PHL,Masbate,,28855.0,1608892797
Babatngon,Babatngon,11.4207,124.8434,Philippines,PH,PHL,Leyte,,28823.0,1608546355
Tibiao,Tibiao,11.2892,122.0342,Philippines,PH,PHL,Antique,,28703.0,1608615251
Mabini,Mabini,9.865,124.523,Philippines,PH,PHL,Bohol,,28701.0,1608176606
Pilar,Pilar,9.83,124.33,Philippines,PH,PHL,Bohol,,28693.0,1608391596
Santiago,Santiago,9.27,125.56,Philippines,PH,PHL,Agusan del Norte,,28657.0,1608671914
Doña Remedios Trinidad,Dona Remedios Trinidad,15.0,121.08,Philippines,PH,PHL,Bulacan,,28656.0,1608246190
Tudela,Tudela,8.2472,123.8424,Philippines,PH,PHL,Misamis Occidental,,28599.0,1608684783
Santo Niño,Santo Nino,17.8861,121.5691,Philippines,PH,PHL,Cagayan,,28537.0,1608449787
Basay,Basay,9.42,122.63,Philippines,PH,PHL,Negros Oriental,,28531.0,1608826752
Saint Bernard,Saint Bernard,10.28,125.13,Philippines,PH,PHL,Southern Leyte,,28414.0,1608368658
Valencia,Valencia,9.6097,124.208,Philippines,PH,PHL,Bohol,,28392.0,1608239988
San Manuel,San Manuel,15.7975,120.6072,Philippines,PH,PHL,Tarlac,,28387.0,1608808386
Datu Piang,Datu Piang,7.0178,124.4974,Philippines,PH,PHL,Maguindanao,,28380.0,1608264842
Libacao,Libacao,11.48,122.3,Philippines,PH,PHL,Aklan,,28272.0,1608816911
Kolambugan,Kolambugan,8.1144,123.8971,Philippines,PH,PHL,Lanao del Norte,,28265.0,1608474341
Pinyahan,Pinyahan,14.64,121.0461,Philippines,PH,PHL,Quezon,,28129.0,1608055244
Cabangan,Cabangan,15.13,120.15,Philippines,PH,PHL,Zambales,,28118.0,1608614054
Bayang,Bayang,7.793,124.192,Philippines,PH,PHL,Lanao del Sur,,28023.0,1608918894
Mainit,Mainit,9.5369,125.5231,Philippines,PH,PHL,Surigao del Norte,,28019.0,1608163552
Cuartero,Cuartero,11.3428,122.6714,Philippines,PH,PHL,Capiz,,27993.0,1608559971
Aloran,Aloran,8.4146,123.8228,Philippines,PH,PHL,Misamis Occidental,,27934.0,1608445813
Reina Mercedes Viejo,Reina Mercedes Viejo,16.9872,121.8272,Philippines,PH,PHL,Isabela,,27900.0,1608400065
Reina Mercedes,Reina Mercedes,16.9872,121.8272,Philippines,PH,PHL,Isabela,,27900.0,1608126589
Majayjay,Majayjay,14.1463,121.4729,Philippines,PH,PHL,Laguna,,27893.0,1608576645
Caridad,Caridad,14.4828,120.8958,Philippines,PH,PHL,Cavite,,27891.0,1608839244
Dingalan,Dingalan,15.38,121.4,Philippines,PH,PHL,Aurora,,27878.0,1608912340
Talusan,Talusan,7.4263,122.8084,Philippines,PH,PHL,Zamboanga Sibugay,,27873.0,1608149746
San Isidro,San Isidro,12.388,124.331,Philippines,PH,PHL,Northern Samar,,27867.0,1608612789
Mahaplag,Mahaplag,10.6072,124.9636,Philippines,PH,PHL,Leyte,,27865.0,1608946105
Magdalena,Magdalena,14.2,121.43,Philippines,PH,PHL,Laguna,,27816.0,1608837240
Lapuyan,Lapuyan,7.6325,123.1914,Philippines,PH,PHL,Zamboanga del Sur,,27737.0,1608412170
Leon Postigo,Leon Postigo,8.1514,122.9244,Philippines,PH,PHL,Zamboanga del Norte,,27639.0,1608711286
Conner,Conner,17.8086,121.2889,Philippines,PH,PHL,Apayao,,27552.0,1608855963
Pitogo,Pitogo,7.4536,123.3133,Philippines,PH,PHL,Zamboanga del Sur,,27516.0,1608000920
Villareal,Villareal,11.57,124.93,Philippines,PH,PHL,Samar,,27394.0,1608546195
Palanas,Palanas,12.1464,123.9219,Philippines,PH,PHL,Masbate,,27322.0,1608982092
Macalelon,Macalelon,13.75,122.13,Philippines,PH,PHL,Quezon,,27312.0,1608722865
Zarraga,Zarraga,10.82,122.6,Philippines,PH,PHL,Iloilo,,27305.0,1608101435
Ramon Magsaysay,Ramon Magsaysay,8.0053,123.4869,Philippines,PH,PHL,Zamboanga del Sur,,27280.0,1608096621
Talisay,Talisay,14.1356,122.9244,Philippines,PH,PHL,Camarines Norte,,27244.0,1608025167
Taraka,Taraka,7.8994,124.3481,Philippines,PH,PHL,Lanao del Sur,,27184.0,1608550964
Badiangan,Badiangan,10.986,122.5369,Philippines,PH,PHL,Iloilo,,27056.0,1608786837
San Isidro,San Isidro,16.87,121.77,Philippines,PH,PHL,Isabela,,27044.0,1608367745
Quezon,Quezon,17.3119,121.605,Philippines,PH,PHL,Isabela,,27037.0,1608313013
Tarragona,Tarragona,7.0491,126.4471,Philippines,PH,PHL,Davao Oriental,,26996.0,1608231910
Tambo,Tambo,14.5164,120.9889,Philippines,PH,PHL,Parañaque,,26928.0,1608929158
Alitagtag,Alitagtag,13.865,121.0063,Philippines,PH,PHL,Batangas,,26819.0,1608000702
Santa Margarita,Santa Margarita,12.0378,124.6578,Philippines,PH,PHL,Samar,,26816.0,1608562056
Labrador,Labrador,16.0339,120.1392,Philippines,PH,PHL,Pangasinan,,26811.0,1608960162
Magarao,Magarao,13.6619,123.1903,Philippines,PH,PHL,Camarines Sur,,26742.0,1608965435
Malitbog,Malitbog,8.5361,124.8808,Philippines,PH,PHL,Bukidnon,,26741.0,1608929640
Saguiaran,Saguiaran,8.03,124.27,Philippines,PH,PHL,Lanao del Sur,,26712.0,1608961026
Sapian,Sapian,11.4939,122.6047,Philippines,PH,PHL,Capiz,,26697.0,1608481925
San Juan,San Juan,17.7431,120.4583,Philippines,PH,PHL,Ilocos Sur,,26674.0,1608362566
Bien Unido,Bien Unido,10.13,124.38,Philippines,PH,PHL,Bohol,,26666.0,1608389168
Bugho,Bugho,10.8,124.93,Philippines,PH,PHL,Leyte,,26658.0,1608894978
San Pablo,San Pablo,7.6578,123.4597,Philippines,PH,PHL,Zamboanga del Sur,,26648.0,1608873105
Pantar,Pantar,8.0667,124.2667,Philippines,PH,PHL,Lanao del Norte,,26599.0,1608597402
Macrohon,Macrohon,10.0797,124.9431,Philippines,PH,PHL,Southern Leyte,,26580.0,1608879566
Lauaan,Lauaan,11.1429,122.0417,Philippines,PH,PHL,Antique,,26580.0,1608082047
Casiguran,Casiguran,16.28,122.12,Philippines,PH,PHL,Aurora,,26564.0,1608404856
Plainview,Plainview,14.5777,121.0337,Philippines,PH,PHL,Mandaluyong,,26557.0,1608416217
Bubong,Bubong,8.02,124.48,Philippines,PH,PHL,Lanao del Sur,,26514.0,1608714839
Madalum,Madalum,7.853,124.119,Philippines,PH,PHL,Lanao del Sur,,26478.0,1608644937
Kayapa,Kayapa,16.3583,120.8861,Philippines,PH,PHL,Nueva Vizcaya,,26469.0,1608843014
Mabini,Mabini,16.0697,119.94,Philippines,PH,PHL,Pangasinan,,26454.0,1608238060
Santa Josefa,Santa Josefa,7.98,126.03,Philippines,PH,PHL,Agusan del Sur,,26432.0,1608144664
Del Gallego,Del Gallego,13.9233,122.5961,Philippines,PH,PHL,Camarines Sur,,26403.0,1608303439
San Jose,San Jose,10.0083,125.5889,Philippines,PH,PHL,Dinagat Islands,,26375.0,1608706852
Lagindingan,Lagindingan,8.58,124.45,Philippines,PH,PHL,Misamis Oriental,,26363.0,1608139544
Pandag,Pandag,6.7411,124.7827,Philippines,PH,PHL,Maguindanao,,26356.0,1608191003
San Pablo,San Pablo,17.4478,121.795,Philippines,PH,PHL,Isabela,,26320.0,1608290602
Infanta,Infanta,15.8208,119.9083,Philippines,PH,PHL,Pangasinan,,26242.0,1608909845
Lamut,Lamut,16.6517,121.2178,Philippines,PH,PHL,Ifugao,,26235.0,1608437546
Poro,Poro,10.629,124.407,Philippines,PH,PHL,Cebu,,26232.0,1608111818
Sanchez-Mira,Sanchez-Mira,18.5611,121.2344,Philippines,PH,PHL,Cagayan,,26164.0,1608566052
Manito,Manito,13.1235,123.8693,Philippines,PH,PHL,Albay,,26162.0,1608821494
Sierra Bullones,Sierra Bullones,9.82,124.28,Philippines,PH,PHL,Bohol,,26095.0,1608138395
Dancagan,Dancagan,7.6119,125.0028,Philippines,PH,PHL,Bukidnon,,26076.0,1608456608
Buenavista,Buenavista,13.25,121.95,Philippines,PH,PHL,Marinduque,,26043.0,1608976324
Burgos,Burgos,17.07,121.7,Philippines,PH,PHL,Isabela,,26040.0,1608000109
Sinait,Sinait,17.8667,120.4583,Philippines,PH,PHL,Ilocos Sur,,25998.0,1608219534
Santa Lucia,Santa Lucia,17.1222,120.4494,Philippines,PH,PHL,Ilocos Sur,,25966.0,1608914119
Binidayan,Binidayan,7.8,124.17,Philippines,PH,PHL,Lanao del Sur,,25965.0,1608188559
Bobon,Bobon,12.52,124.57,Philippines,PH,PHL,Northern Samar,,25964.0,1608017004
Socorro,Socorro,9.6181,125.9661,Philippines,PH,PHL,Surigao del Norte,,25942.0,1608166420
Tubay,Tubay,9.16,125.52,Philippines,PH,PHL,Agusan del Norte,,25785.0,1608372831
Santo Cristo,Santo Cristo,14.6603,121.03,Philippines,PH,PHL,Quezon,,25783.0,1608708630
Pura,Pura,15.6248,120.648,Philippines,PH,PHL,Tarlac,,25781.0,1608629577
Natividad,Natividad,16.0422,120.7953,Philippines,PH,PHL,Pangasinan,,25771.0,1608325844
Talisayan,Talisayan,8.9917,124.8833,Philippines,PH,PHL,Misamis Oriental,,25761.0,1608510465
Santa Maria,Santa Maria,17.47,121.75,Philippines,PH,PHL,Isabela,,25758.0,1608195670
Tabina,Tabina,7.4655,123.4086,Philippines,PH,PHL,Zamboanga del Sur,,25734.0,1608883183
Tarangnan,Tarangnan,11.9,124.75,Philippines,PH,PHL,Samar,,25713.0,1608797331
Altavas,Altavas,11.5383,122.4869,Philippines,PH,PHL,Aklan,,25639.0,1608142591
Alegria,Alegria,9.7243,123.3402,Philippines,PH,PHL,Cebu,,25620.0,1608812207
Busuanga,Busuanga,12.1335,119.9363,Philippines,PH,PHL,Palawan,,25617.0,1608290614
Tipo-Tipo,Tipo-Tipo,6.53,122.17,Philippines,PH,PHL,Basilan,,25531.0,1608266318
Ayuquitan,Ayuquitan,9.4644,123.2237,Philippines,PH,PHL,Negros Oriental,,25513.0,1608812083
Lopez Jaena,Lopez Jaena,8.55,123.7667,Philippines,PH,PHL,Misamis Occidental,,25507.0,1608136774
Unisan,Unisan,13.8413,121.9752,Philippines,PH,PHL,Quezon,,25448.0,1608135212
Tumbao,Tumbao,7.12,124.38,Philippines,PH,PHL,Maguindanao,,25439.0,1608047878
Nagtipunan,Nagtipunan,16.22,121.6,Philippines,PH,PHL,Quirino,,25399.0,1608561096
San Miguel,San Miguel,10.0,124.32,Philippines,PH,PHL,Bohol,,25356.0,1608318281
Talugtug,Talugtug,15.7789,120.8111,Philippines,PH,PHL,Nueva Ecija,,25236.0,1608248844
Camalaniugan,Camalaniugan,18.2756,121.6756,Philippines,PH,PHL,Cagayan,,25236.0,1608820417
Allen,Allen,12.5013,124.282,Philippines,PH,PHL,Northern Samar,,25228.0,1608146334
Sarrat,Sarrat,18.1578,120.6447,Philippines,PH,PHL,Ilocos Norte,,25186.0,1608165020
Monreal,Monreal,12.644,123.6648,Philippines,PH,PHL,Masbate,,25164.0,1608903492
Pagudpud,Pagudpud,18.5614,120.7878,Philippines,PH,PHL,Ilocos Norte,,25098.0,1608369823
Soccorro,Soccorro,14.6179,121.0558,Philippines,PH,PHL,Quezon,,25073.0,1608135320
Camaligan,Camaligan,13.6208,123.1656,Philippines,PH,PHL,Camarines Sur,,25036.0,1608478686
San Felipe,San Felipe,15.0619,120.07,Philippines,PH,PHL,Zambales,,25033.0,1608994010
Pangil,Pangil,14.4,121.47,Philippines,PH,PHL,Laguna,,25026.0,1608594203
Quirino,Quirino,17.1356,121.735,Philippines,PH,PHL,Isabela,,25023.0,1608140160
Paoay,Paoay,18.0625,120.5203,Philippines,PH,PHL,Ilocos Norte,,25001.0,1608717163
Paete,Paete,14.37,121.48,Philippines,PH,PHL,Laguna,,24945.0,1608131728
Dimasalang,Dimasalang,12.1933,123.8583,Philippines,PH,PHL,Masbate,,24909.0,1608843461
Jabonga,Jabonga,9.3431,125.5156,Philippines,PH,PHL,Agusan del Norte,,24855.0,1608225880
Solsona,Solsona,18.0961,120.7725,Philippines,PH,PHL,Ilocos Norte,,24851.0,1608585456
Piat,Piat,17.7919,121.4769,Philippines,PH,PHL,Cagayan,,24805.0,1608280728
General Luna,General Luna,13.6881,122.1708,Philippines,PH,PHL,Quezon,,24804.0,1608376950
Poblacion,Poblacion,10.1614,125.1303,Philippines,PH,PHL,Southern Leyte,,24800.0,1608122231
Pamplona,Pamplona,18.4661,121.3425,Philippines,PH,PHL,Cagayan,,24781.0,1608804149
Tugaya,Tugaya,7.884,124.172,Philippines,PH,PHL,Lanao del Sur,,24778.0,1608559480
Kalayaan,Kalayaan,14.328,121.48,Philippines,PH,PHL,Laguna,,24755.0,1608777170
Tuburan,Tuburan,6.6,122.2,Philippines,PH,PHL,Basilan,,24742.0,1608240278
Patian,Patian,5.8444,121.1439,Philippines,PH,PHL,Sulu,,24736.0,1608801724
Baroy,Baroy,8.03,123.78,Philippines,PH,PHL,Lanao del Norte,,24683.0,1608036111
Tamilisan,Tamilisan,7.9761,122.6639,Philippines,PH,PHL,Zamboanga del Norte,,24680.0,1608811551
Ternate,Ternate,14.28,120.72,Philippines,PH,PHL,Cavite,,24653.0,1608912964
Burdeos,Burdeos,14.8436,121.9697,Philippines,PH,PHL,Quezon,,24644.0,1608885174
Carrascal,Carrascal,9.3683,125.9494,Philippines,PH,PHL,Surigao del Sur,,24586.0,1608000823
Santo Tomas,Santo Tomas,17.4,121.77,Philippines,PH,PHL,Isabela,,24528.0,1608577163
Malinao,Malinao,11.6431,122.3072,Philippines,PH,PHL,Aklan,,24517.0,1608219095
Garcia Hernandez,Garcia Hernandez,9.6144,124.2946,Philippines,PH,PHL,Bohol,,24430.0,1608000451
Ramain,Ramain,7.97,124.35,Philippines,PH,PHL,Lanao del Sur,,24406.0,1608918458
Alicia,Alicia,9.8957,124.4415,Philippines,PH,PHL,Bohol,,24374.0,1608855246
Bacolod,Bacolod,8.1892,124.0238,Philippines,PH,PHL,Lanao del Norte,,24367.0,1608296127
Sagbayan,Sagbayan,9.92,124.1,Philippines,PH,PHL,Bohol,,24335.0,1608415406
Lucena,Lucena,10.88,122.6,Philippines,PH,PHL,Iloilo,,24314.0,1608674517
Kauswagan,Kauswagan,8.1917,124.0847,Philippines,PH,PHL,Lanao del Norte,,24193.0,1608069927
Lagonglong,Lagonglong,8.8,124.78,Philippines,PH,PHL,Misamis Oriental,,24190.0,1608442449
San Enrique,San Enrique,10.42,122.85,Philippines,PH,PHL,Negros Occidental,,24177.0,1608409119
San Fernando,San Fernando,12.32,122.6,Philippines,PH,PHL,Romblon,,24171.0,1608719636
Caibiran,Caibiran,11.57,124.58,Philippines,PH,PHL,Biliran,,24167.0,1608798672
San Agustin,San Agustin,12.5689,122.1314,Philippines,PH,PHL,Romblon,,24115.0,1608747283
Bontoc,Bontoc,17.09,120.9772,Philippines,PH,PHL,Mountain,admin,24104.0,1608526537
Balete,Balete,14.02,121.1,Philippines,PH,PHL,Batangas,,24055.0,1608299609
Quezon,Quezon,16.4894,121.2639,Philippines,PH,PHL,Nueva Vizcaya,,24055.0,1608056116
Mina,Mina,10.93,122.58,Philippines,PH,PHL,Iloilo,,24042.0,1608196122
Cavinti,Cavinti,14.245,121.507,Philippines,PH,PHL,Laguna,,23980.0,1608823208
General Emilio Aguinaldo,General Emilio Aguinaldo,14.18,120.8,Philippines,PH,PHL,Cavite,,23973.0,1608472178
Bulusan,Bulusan,12.7522,124.1356,Philippines,PH,PHL,Sorsogon,,23932.0,1608161228
San Nicolas,San Nicolas,13.9283,120.951,Philippines,PH,PHL,Batangas,,23908.0,1608000052
